     3.02           OBSERVATION DATA    E                   RINEX VERSION / TYPE
G = GPS  R = GLONASS  E = GALILEO  S = GEO  M = MIXED       COMMENT             
GNSS-SDR            jmfriedt            20250106 190622 UTC PGM / RUN BY / DATE 
GALILEO OBSERVATION DATA FILE GENERATED BY GNSS-SDR         COMMENT             
GNSS-SDR VERSION 0.0.19                                     COMMENT             
See https://gnss-sdr.org                                    COMMENT             
DEFAULT MARKER NAME                                         MARKER NAME         
jmfriedt            CTTC                                    OBSERVER / AGENCY   
GNSS-SDR            Software Receiver   0.0.19              REC # / TYPE / VERS 
Antenna number      Antenna type                            ANT # / TYPE        
        0.0000        0.0000        0.0000                  APPROX POSITION XYZ 
        0.0000        0.0000        0.0000                  ANTENNA: DELTA H/E/N
E    4 C1B L1B D1B S1B                                      SYS / # / OBS TYPES 
DBHZ                                                        SIGNAL STRENGTH UNIT
  2025    01    06    18    45    6.1400000     GAL         TIME OF FIRST OBS   
    18    18   137     7                                    LEAP SECONDS        
                                                            END OF HEADER       
> 2025 01 06 18 45 07.0000000  0  4                                             
E11  23502730.813 7 123507694.684 7      -538.779 7        43.234               
E12  26501995.883 6 139268900.276 6     -2830.038 6        38.345               
E24  26885912.744 6 141286418.989 6     -3234.944 6        37.778               
E25  23673711.337 7 124406203.211 7     -1211.176 7        47.235               
> 2025 01 06 18 45 08.0000000  0  4                                             
E11  23502834.418 7 123508233.924 7      -540.487 7        43.755               
E12  26502529.657 6 139271730.361 6     -2830.214 6        38.324               
E24  26886523.659 6 141289654.945 6     -3235.652 6        37.822               
E25  23673941.651 7 124407414.713 7     -1211.612 7        47.525               
> 2025 01 06 18 45 09.0000000  0  4                                             
E11  23502934.610 7 123508773.793 7      -539.237 7        43.877               
E12  26503065.362 6 139274560.817 6     -2828.217 6        38.157               
E24  26887140.721 6 141292891.384 6     -3237.918 6        37.768               
E25  23674171.232 7 124408626.907 7     -1212.900 7        47.933               
> 2025 01 06 18 45 10.0000000  0  4                                             
E11  23503037.508 7 123509314.021 7      -540.407 7        43.831               
E12  26503602.004 6 139277391.401 6     -2829.239 6        37.693               
E24  26887754.504 6 141296127.943 6     -3235.476 6        37.743               
E25  23674400.375 7 124409839.480 7     -1212.942 7        47.836               
> 2025 01 06 18 45 11.0000000  0  4                                             
E11  23503138.120 7 123509854.380 7      -540.526 7        43.741               
E12  26504143.096 6 139280221.904 6     -2830.419 6        37.636               
E24  26888369.127 6 141299364.419 6     -3236.294 6        38.002               
E25  23674629.251 7 124411052.232 7     -1213.743 7        47.637               
> 2025 01 06 18 45 12.0000000  0  4                                             
E11  23503241.099 7 123510395.203 7      -541.967 7        43.862               
E12  26504681.106 6 139283052.620 6     -2829.933 6        37.695               
E24  26888986.448 6 141302601.205 6     -3235.321 6        38.378               
E25  23674860.145 7 124412265.509 7     -1213.202 7        47.780               
> 2025 01 06 18 45 13.0000000  0  4                                             
E11  23503342.819 7 123510936.370 7      -542.009 7        43.605               
E12  26505217.141 6 139285883.455 6     -2831.147 6        37.811               
E24  26889600.615 6 141305838.126 6     -3234.282 6        38.274               
E25  23675090.718 7 124413479.195 7     -1214.316 7        47.723               
> 2025 01 06 18 45 14.0000000  0  4                                             
E11  23503443.787 7 123511477.893 7      -541.676 7        44.286               
E12  26505753.077 6 139288714.406 6     -2831.755 6        38.027               
E24  26890214.282 6 141309075.199 6     -3238.256 6        38.096               
E25  23675320.764 7 124414693.255 7     -1214.168 7        47.733               
> 2025 01 06 18 45 15.0000000  0  4                                             
E11  23503547.499 7 123512019.724 7      -542.065 7        44.228               
E12  26506294.142 6 139291545.427 6     -2831.589 6        38.276               
E24  26890828.619 6 141312312.375 6     -3236.989 6        38.265               
E25  23675549.148 7 124415907.681 7     -1214.080 7        47.687               
> 2025 01 06 18 45 16.0000000  0  4                                             
E11  23503648.039 7 123512562.182 7      -543.218 7        43.871               
E12  26506832.956 6 139294376.845 6     -2830.504 6        38.291               
E24  26891447.870 6 141315549.996 6     -3236.422 6        37.982               
E25  23675779.855 7 124417122.794 7     -1215.371 7        47.829               
> 2025 01 06 18 45 17.0000000  0  4                                             
E11  23503748.463 7 123513105.478 7      -543.323 7        44.026               
E12  26507368.598 6 139297208.880 6     -2833.702 6        38.707               
E24  26892061.019 6 141318788.279 6     -3239.048 6        38.018               
E25  23676010.794 7 124418338.806 7     -1215.659 7        47.430               
> 2025 01 06 18 45 18.0000000  0  4                                             
E11  23503852.765 7 123513648.606 7      -542.782 7        43.726               
E12  26507907.465 6 139300040.501 6     -2829.753 6        38.558               
E24  26892675.418 6 141322026.154 6     -3237.901 6        37.920               
E25  23676240.224 7 124419554.666 7     -1215.485 7        47.325               
> 2025 01 06 18 45 19.0000000  0  4                                             
E11  23503955.583 7 123514191.659 7      -542.779 7        43.762               
E12  26508444.679 6 139302871.802 6     -2828.990 6        38.835               
E24  26893291.498 6 141325263.790 6     -3237.355 6        37.917               
E25  23676470.931 7 124420770.512 7     -1215.721 7        47.751               
> 2025 01 06 18 45 20.0000000  0  4                                             
E11  23504055.793 7 123514735.188 7      -544.597 7        44.037               
E12  26508981.679 6 139305703.349 6     -2830.069 6        38.345               
E24  26893907.559 6 141328501.696 6     -3238.566 6        38.021               
E25  23676701.316 7 124421986.864 7     -1215.789 7        47.581               
> 2025 01 06 18 45 21.0000000  0  4                                             
E11  23504158.388 7 123515279.224 7      -544.176 7        44.070               
E12  26509520.010 6 139308535.201 6     -2830.983 6        37.817               
E24  26894521.905 6 141331739.920 6     -3238.866 6        38.045               
E25  23676931.951 7 124423203.808 7     -1217.768 7        47.672               
> 2025 01 06 18 45 22.0000000  0  4                                             
E11  23504259.017 7 123515823.636 7      -544.481 7        43.924               
E12  26510056.599 6 139311367.159 6     -2830.335 6        37.515               
E24  26895139.190 6 141334978.299 6     -3238.184 6        38.214               
E25  23677162.221 7 124424421.146 7     -1217.355 7        47.282               
> 2025 01 06 18 45 23.0000000  0  4                                             
E11  23504362.648 7 123516368.270 7      -544.146 7        43.800               
E12  26510597.477 6 139314199.107 6     -2835.531 6        37.560               
E24  26895748.050 6 141338216.696 6     -3239.411 6        38.310               
E25  23677394.152 7 124425638.763 7     -1217.982 7        47.751               
> 2025 01 06 18 45 24.0000000  0  4                                             
E11  23504466.548 7 123516913.595 7      -545.160 7        43.875               
E12  26511133.065 6 139317031.517 6     -2833.003 6        37.877               
E24  26896369.910 6 141341455.637 6     -3238.402 6        38.216               
E25  23677624.305 7 124426857.116 7     -1218.103 7        47.612               
> 2025 01 06 18 45 25.0000000  0  4                                             
E11  23504568.580 7 123517459.550 7      -547.038 7        43.960               
E12  26511669.430 6 139319864.325 6     -2831.743 6        37.850               
E24  26896982.934 6 141344694.976 6     -3238.669 6        38.246               
E25  23677854.431 7 124428076.157 7     -1219.530 7        47.850               
> 2025 01 06 18 45 26.0000000  0  4                                             
E11  23504673.274 7 123518005.745 7      -547.545 7        43.914               
E12  26512211.728 6 139322697.131 6     -2834.294 6        38.135               
E24  26897598.361 6 141347934.382 6     -3237.843 6        38.538               
E25  23678085.406 7 124429295.491 7     -1219.258 7        47.873               
> 2025 01 06 18 45 27.0000000  0  4                                             
E11  23504774.547 7 123518552.161 7      -545.489 7        43.682               
E12  26512747.996 6 139325529.921 6     -2832.309 6        37.715               
E24  26898214.753 6 141351173.764 6     -3238.414 6        38.291               
E25  23678315.192 7 124430515.066 7     -1219.275 7        47.639               
> 2025 01 06 18 45 28.0000000  0  4                                             
E11  23504877.821 7 123519099.111 7      -547.758 7        43.661               
E12  26513283.173 6 139328363.038 6     -2832.014 6        37.660               
E24  26898829.760 6 141354413.527 6     -3240.545 6        38.569               
E25  23678548.455 7 124431735.237 7     -1219.968 7        47.571               
> 2025 01 06 18 45 29.0000000  0  4                                             
E11  23504978.093 7 123519645.684 7      -546.270 7        43.479               
E12  26513827.258 6 139331195.532 6     -2832.935 6        37.828               
E24  26899446.617 6 141357652.735 6     -3237.841 6        38.692               
E25  23678778.009 7 124432955.090 7     -1219.468 7        47.383               
> 2025 01 06 18 45 30.0000000  0  4                                             
E11  23505083.154 7 123520192.386 7      -546.908 7        43.827               
E12  26514362.962 6 139334027.932 6     -2833.964 6        37.733               
E24  26900059.408 6 141360891.863 6     -3240.568 6        38.935               
E25  23679008.341 7 124434175.136 7     -1220.449 7        47.312               
> 2025 01 06 18 45 31.0000000  0  4                                             
E11  23505186.893 7 123520739.917 7      -546.127 7        43.754               
E12  26514898.014 6 139336860.916 6     -2832.493 6        37.916               
E24  26900674.674 6 141364131.611 6     -3239.903 6        38.751               
E25  23679240.102 7 124435396.037 7     -1221.486 7        47.442               
> 2025 01 06 18 45 32.0000000  0  4                                             
E11  23505290.104 7 123521287.732 7      -548.323 7        43.722               
E12  26515436.336 6 139339693.928 6     -2833.060 6        37.907               
E24  26901292.683 6 141367371.434 6     -3240.690 6        38.702               
E25  23679470.702 7 124436617.251 7     -1221.105 7        47.089               
> 2025 01 06 18 45 33.0000000  0  4                                             
E11  23505392.601 7 123521835.808 7      -549.305 7        43.672               
E12  26515973.801 6 139342526.978 6     -2832.420 6        37.728               
E24  26901907.958 6 141370611.300 6     -3241.011 6        38.511               
E25  23679702.892 7 124437838.800 7     -1221.095 7        47.228               
> 2025 01 06 18 45 34.0000000  0  4                                             
E11  23505496.465 7 123522384.265 7      -548.932 7        43.594               
E12  26516511.659 6 139345360.208 6     -2833.655 6        37.526               
E24  26902523.877 6 141373851.416 6     -3241.001 6        38.071               
E25  23679933.527 7 124439060.780 7     -1221.809 7        47.403               
> 2025 01 06 18 45 35.0000000  0  4                                             
E11  23505599.649 7 123522933.031 7      -548.228 7        43.415               
E12  26517051.115 6 139348193.475 6     -2833.989 6        37.267               
E24  26903134.175 6 141377091.619 6     -3243.888 6        37.897               
E25  23680166.405 7 124440283.120 7     -1222.425 7        47.260               
> 2025 01 06 18 45 36.0000000  0  5                                             
E11  23505702.512 7 123523482.082 7      -548.371 7        43.308               
E12  26517588.884 6 139351026.790 6     -2833.762 6        37.692               
E24  26903749.951 6 141380331.896 6     -3239.068 6        38.344               
E25  23680398.033 7 124441505.777 7     -1222.868 7        47.390               
E36  25301383.315 7 132959667.481 7      1854.419 7        44.338               
> 2025 01 06 18 45 37.0000000  0  5                                             
E11  23505808.002 7 123524031.478 7      -550.478 7        43.704               
E12  26518125.490 6 139353860.231 6     -2835.218 6        37.669               
E24  26904368.022 6 141383572.309 6     -3240.037 6        38.479               
E25  23680630.258 7 124442728.821 7     -1223.682 7        47.432               
E36  25301029.740 7 132957813.076 7      1853.838 7        44.487               
> 2025 01 06 18 45 38.0000000  0  5                                             
E11  23505911.875 7 123524581.524 7      -551.663 7        43.619               
E12  26518662.124 6 139356694.059 6     -2830.843 6        37.749               
E24  26904982.869 6 141386813.215 6     -3240.347 6        38.765               
E25  23680860.858 7 124443952.585 7     -1224.036 7        47.282               
E36  25300676.559 7 132955959.235 7      1854.424 7        44.536               
> 2025 01 06 18 45 39.0000000  0  5                                             
E11  23506014.899 7 123525131.701 7      -549.633 7        43.461               
E12  26519204.824 6 139359527.833 6     -2833.926 6        38.179               
E24  26905602.468 6 141390054.027 6     -3239.932 6        38.834               
E25  23681092.914 7 124445176.525 7     -1224.400 7        47.387               
E36  25300323.173 7 132954105.413 7      1853.476 7        44.768               
> 2025 01 06 18 45 40.0000000  0  5                                             
E11  23506117.654 7 123525681.947 7      -549.577 7        43.517               
E12  26519741.976 6 139362361.382 6     -2832.512 6        38.274               
E24  26906211.712 6 141393294.685 6     -3239.859 6        38.640               
E25  23681323.710 7 124446400.565 7     -1223.502 7        47.485               
E36  25299969.339 7 132952251.562 7      1852.667 7        44.842               
> 2025 01 06 18 45 41.0000000  0  5                                             
E11  23506221.420 7 123526232.225 7      -550.419 7        43.883               
E12  26520284.712 6 139365194.785 6     -2835.658 6        38.113               
E24  26906831.232 6 141396535.216 6     -3241.031 6        38.338               
E25  23681556.821 7 124447624.694 7     -1223.901 7        47.407               
E36  25299615.872 7 132950397.636 7      1854.464 7        44.903               
> 2025 01 06 18 45 42.0000000  0  5                                             
E11  23506323.765 7 123526783.225 7      -552.028 7        44.306               
E12  26520819.308 6 139368028.649 6     -2835.459 6        38.084               
E24  26907446.498 6 141399776.273 6     -3240.813 6        38.104               
E25  23681787.528 7 124448849.615 7     -1225.441 7        47.656               
E36  25299263.414 7 132948544.345 7      1852.980 7        44.810               
> 2025 01 06 18 45 43.0000000  0  5                                             
E11  23506428.629 7 123527334.850 7      -551.469 7        44.011               
E12  26521358.738 6 139370862.905 6     -2834.033 6        38.060               
E24  26908059.745 6 141403017.782 6     -3241.029 6        37.905               
E25  23682020.048 7 124450075.208 7     -1225.955 7        47.516               
E36  25298909.804 7 132946691.591 7      1852.802 7        44.887               
> 2025 01 06 18 45 44.0000000  0  5                                             
E11  23506532.788 7 123527886.823 7      -550.155 7        43.863               
E12  26521896.864 6 139373697.277 6     -2833.212 6        38.261               
E24  26908678.906 6 141406259.406 6     -3242.019 6        38.222               
E25  23682251.399 7 124451301.177 7     -1226.535 7        47.630               
E36  25298554.068 7 132944839.063 7      1851.504 7        44.820               
> 2025 01 06 18 45 45.0000000  0  5                                             
E11  23506639.233 7 123528439.261 7      -553.424 7        43.593               
E12  26522433.113 6 139376531.883 6     -2835.122 6        38.201               
E24  26909293.136 6 141409501.284 6     -3242.014 6        38.103               
E25  23682484.929 7 124452527.650 7     -1225.953 7        47.417               
E36  25298200.234 7 132942986.895 7      1850.961 7        44.824               
> 2025 01 06 18 45 46.0000000  0  5                                             
E11  23506740.381 7 123528992.304 7      -553.405 7        43.755               
E12  26522970.712 6 139379366.831 6     -2832.529 6        38.248               
E24  26909909.394 6 141412743.586 6     -3241.832 6        38.180               
E25  23682716.672 7 124453754.807 7     -1227.219 7        47.678               
E36  25297849.769 7 132941135.247 7      1850.758 7        45.098               
> 2025 01 06 18 45 47.0000000  0  5                                             
E11  23506844.245 7 123529545.552 7      -553.318 7        43.978               
E12  26523512.518 6 139382201.791 6     -2833.426 6        38.056               
E24  26910525.768 6 141415985.921 6     -3242.530 6        38.709               
E25  23682949.908 7 124454982.216 7     -1228.022 7        47.650               
E36  25297494.256 7 132939283.723 7      1850.611 7        44.863               
> 2025 01 06 18 45 48.0000000  0  5                                             
E11  23506949.690 7 123530099.203 7      -553.360 7        43.952               
E12  26524051.073 6 139385036.901 6     -2836.599 6        37.951               
E24  26911140.623 6 141419228.451 6     -3244.407 6        38.675               
E25  23683181.866 7 124456210.058 7     -1228.127 7        47.559               
E36  25297140.557 7 132937432.464 7      1851.195 7        44.893               
> 2025 01 06 18 45 49.0000000  0  5                                             
E11  23507055.510 7 123530652.801 7      -553.964 7        44.032               
E12  26524591.039 6 139387871.701 6     -2834.160 6        38.170               
E24  26911759.669 6 141422470.693 6     -3242.025 6        38.639               
E25  23683414.788 7 124457437.883 7     -1227.097 7        47.736               
E36  25296785.928 7 132935581.047 7      1850.667 7        44.720               
> 2025 01 06 18 45 50.0000000  0  5                                             
E11  23507158.686 7 123531207.096 7      -556.179 7        43.937               
E12  26525125.653 6 139390706.998 6     -2835.608 6        37.897               
E24  26912375.364 6 141425713.474 6     -3241.874 6        38.772               
E25  23683645.459 7 124458666.482 7     -1229.771 7        47.560               
E36  25296432.595 7 132933730.253 7      1850.651 7        44.672               
> 2025 01 06 18 45 51.0000000  0  5                                             
E11  23507261.343 7 123531761.930 7      -555.177 7        44.208               
E12  26525663.118 6 139393542.609 6     -2834.206 6        37.873               
E24  26912987.003 6 141428956.624 6     -3244.308 6        38.822               
E25  23683879.374 7 124459895.679 7     -1228.950 7        47.464               
E36  25296078.797 7 132931879.907 7      1850.770 7        44.455               
> 2025 01 06 18 45 52.0000000  0  5                                             
E11  23507366.235 7 123532316.899 7      -555.265 7        43.966               
E12  26526199.197 6 139396378.134 6     -2837.139 6        38.033               
E24  26913605.825 6 141432199.662 6     -3242.188 6        38.796               
E25  23684113.413 7 124461125.051 7     -1229.769 7        47.187               
E36  25295728.064 7 132930029.597 7      1849.242 7        44.458               
> 2025 01 06 18 45 53.0000000  0  5                                             
E11  23507471.269 7 123532871.915 7      -553.913 7        43.903               
E12  26526741.808 6 139399213.395 6     -2835.443 6        38.121               
E24  26914221.171 6 141435442.565 6     -3243.083 6        39.121               
E25  23684346.086 7 124462354.500 7     -1229.338 7        47.184               
E36  25295369.191 7 132928179.213 7      1850.529 7        44.392               
> 2025 01 06 18 45 54.0000000  0  5                                             
E11  23507575.025 7 123533426.919 7      -555.019 7        43.843               
E12  26527276.843 6 139402048.462 6     -2833.996 6        37.731               
E24  26914837.635 6 141438685.278 6     -3242.784 6        39.012               
E25  23684578.026 7 124463584.005 7     -1229.377 7        47.121               
E36  25295017.449 7 132926328.720 7      1849.827 7        43.979               
> 2025 01 06 18 45 55.0000000  0  5                                             
E11  23507681.685 7 123533982.007 7      -556.636 7        43.602               
E12  26527817.166 6 139404883.370 6     -2836.485 6        37.898               
E24  26915452.847 6 141441927.863 6     -3243.189 6        39.027               
E25  23684811.949 7 124464813.648 7     -1229.800 7        47.534               
E36  25294664.732 7 132924478.225 7      1850.903 7        44.037               
> 2025 01 06 18 45 56.0000000  0  5                                             
E11  23507784.191 7 123534537.885 7      -556.290 7        43.969               
E12  26528353.299 6 139407718.858 6     -2834.846 6        37.932               
E24  26916068.909 6 141445171.050 6     -3243.171 6        38.990               
E25  23685046.328 7 124466044.125 7     -1230.486 7        47.252               
E36  25294312.051 7 132922628.421 7      1850.006 7        44.159               
> 2025 01 06 18 45 57.0000000  0  5                                             
E11  23507889.359 7 123535094.573 7      -556.195 7        43.941               
E12  26528894.445 6 139410554.863 6     -2835.469 6        38.229               
E24  26916685.390 6 141448414.835 6     -3244.539 6        39.145               
E25  23685278.322 7 124467275.449 7     -1231.340 7        47.295               
E36  25293957.833 7 132920779.307 7      1848.234 7        44.250               
> 2025 01 06 18 45 58.0000000  0  7                                             
E02  25077633.806 7 131783855.080 7      1536.018 7        44.178               
E10  24598045.116 7 129263596.712 7     -1990.236 7        46.482               
E11  23507993.580 7 123535651.695 7      -556.941 7        43.877               
E12  26529435.760 6 139413391.071 6     -2832.149 6        38.197               
E24  26917301.451 6 141451658.844 6     -3243.359 6        39.360               
E25  23685511.798 7 124468507.250 7     -1231.411 7        47.439               
E36  25293604.581 7 132918930.529 7      1847.408 7        44.116               
> 2025 01 06 18 45 59.0000000  0  7                                             
E02  25077340.379 7 131782317.352 7      1536.754 7        44.207               
E10  24598423.099 7 129265586.759 7     -1990.229 7        46.251               
E11  23508099.356 7 123536209.092 7      -558.203 7        43.708               
E12  26529969.758 6 139416227.370 6     -2836.266 6        37.852               
E24  26917917.951 6 141454902.968 6     -3246.567 6        39.007               
E25  23685746.008 7 124469739.408 7     -1232.535 7        47.514               
E36  25293249.237 7 132917081.944 7      1847.565 7        44.013               
> 2025 01 06 18 46 00.0000000  0  7                                             
E02  25077043.736 7 131780780.119 7      1536.878 7        43.885               
E10  24598801.225 7 129267577.275 7     -1991.620 7        46.150               
E11  23508204.399 7 123536767.044 7      -558.430 7        43.793               
E12  26530507.821 6 139419063.970 6     -2837.836 6        37.938               
E24  26918533.002 6 141458147.446 6     -3244.933 6        39.026               
E25  23685978.984 7 124470972.160 7     -1233.856 7        47.730               
E36  25292896.145 7 132915233.825 7      1847.425 7        44.344               
> 2025 01 06 18 46 01.0000000  0  7                                             
E02  25076752.980 7 131779243.448 7      1536.449 7        43.863               
E10  24599177.618 7 129269568.319 7     -1991.205 7        45.984               
E11  23508311.211 7 123537325.672 7      -558.155 7        43.714               
E12  26531050.601 6 139421901.006 6     -2838.215 6        37.965               
E24  26919149.189 6 141461392.380 6     -3245.542 6        38.927               
E25  23686212.380 7 124472205.628 7     -1233.790 7        47.715               
E36  25292544.251 7 132913386.250 7      1847.649 7        44.239               
> 2025 01 06 18 46 02.0000000  0  7                                             
E02  25076458.981 7 131777706.812 7      1536.994 7        43.952               
E10  24599555.245 7 129271559.374 7     -1991.425 7        46.088               
E11  23508416.442 7 123537884.407 7      -558.976 7        43.679               
E12  26531585.234 6 139424737.892 6     -2836.132 6        37.792               
E24  26919768.306 6 141464637.226 6     -3245.682 6        39.007               
E25  23686446.152 7 124473439.239 7     -1233.184 7        47.445               
E36  25292192.740 7 132911538.701 7      1846.291 7        44.351               
> 2025 01 06 18 46 03.0000000  0  7                                             
E02  25076168.850 7 131776170.345 7      1536.221 7        43.855               
E10  24599932.040 7 129273550.582 7     -1991.183 7        45.957               
E11  23508520.359 7 123538443.375 7      -559.355 7        43.704               
E12  26532128.166 6 139427574.808 6     -2835.623 6        37.842               
E24  26920381.079 6 141467882.116 6     -3244.419 6        38.924               
E25  23686679.235 7 124474673.151 7     -1234.644 7        47.277               
E36  25291839.220 7 132909691.275 7      1846.932 7        44.198               
> 2025 01 06 18 46 04.0000000  0  7                                             
E02  25075873.216 7 131774634.028 7      1536.497 7        43.948               
E10  24600310.756 7 129275541.910 7     -1991.238 7        46.083               
E11  23508625.447 7 123539002.554 7      -559.091 7        43.707               
E12  26532666.220 6 139430411.703 6     -2837.247 6        37.932               
E24  26920993.924 6 141471127.022 6     -3244.445 6        38.281               
E25  23686913.847 7 124475907.338 7     -1234.313 7        47.508               
E36  25291488.415 7 132907843.985 7      1847.317 7        44.253               
> 2025 01 06 18 46 05.0000000  0  7                                             
E02  25075579.575 7 131773097.610 7      1537.147 7        44.082               
E10  24600687.658 7 129277533.085 7     -1991.198 7        46.001               
E11  23508728.917 7 123539561.697 7      -559.665 7        43.764               
E12  26533201.138 6 139433248.302 6     -2836.393 6        37.613               
E24  26921615.275 6 141474371.712 6     -3245.080 6        38.100               
E25  23687149.039 7 124477141.519 7     -1233.309 7        47.419               
E36  25291135.332 7 132905996.537 7      1847.859 7        44.375               
> 2025 01 06 18 46 06.0000000  0  7                                             
E02  25075287.577 7 131771561.034 7      1536.596 7        44.240               
E10  24601067.446 7 129279524.106 7     -1991.984 7        46.020               
E11  23508835.997 7 123540120.794 7      -558.655 7        43.662               
E12  26533742.221 6 139436084.665 6     -2837.476 6        37.462               
E24  26922229.746 6 141477616.147 6     -3244.567 6        38.091               
E25  23687380.621 7 124478375.703 7     -1234.811 7        47.280               
E36  25290781.123 7 132904148.943 7      1846.868 7        44.477               
> 2025 01 06 18 46 07.0000000  0  7                                             
E02  25074993.346 7 131770025.175 7      1535.070 7        44.421               
E10  24601443.884 7 129281515.788 7     -1992.430 7        46.502               
E11  23508940.424 7 123540680.648 7      -561.131 7        43.593               
E12  26534281.812 6 139438921.522 6     -2836.278 6        37.362               
E24  26922845.441 6 141480861.127 6     -3244.962 6        38.574               
E25  23687615.831 7 124479610.701 7     -1235.760 7        47.435               
E36  25290428.496 7 132902302.030 7      1846.675 7        44.195               
> 2025 01 06 18 46 08.0000000  0  7                                             
E02  25074698.864 7 131768490.095 7      1534.492 7        44.635               
E10  24601822.886 7 129283508.247 7     -1993.782 7        46.454               
E11  23509046.879 7 123541241.368 7      -562.894 7        43.597               
E12  26534821.189 6 139441758.997 6     -2835.259 6        37.478               
E24  26923467.238 6 141484106.785 6     -3246.887 6        38.266               
E25  23687848.843 7 124480846.607 7     -1236.732 7        47.677               
E36  25290076.789 7 132900455.877 7      1844.575 7        44.026               
> 2025 01 06 18 46 09.0000000  0  7                                             
E02  25074406.134 7 131766956.090 7      1533.499 7        44.371               
E10  24602201.522 7 129285501.740 7     -1994.039 7        46.623               
E11  23509153.280 7 123541803.225 7      -561.692 7        43.508               
E12  26535357.411 6 139444597.399 6     -2835.912 6        37.584               
E24  26924083.416 6 141487353.388 6     -3246.667 6        38.431               
E25  23688083.204 7 124482083.717 7     -1237.459 7        47.796               
E36  25289724.876 7 132898610.758 7      1845.915 7        44.115               
> 2025 01 06 18 46 10.0000000  0  7                                             
E02  25074112.894 7 131765421.822 7      1534.885 7        44.158               
E10  24602577.191 7 129287494.954 7     -1993.740 7        46.410               
E11  23509259.502 7 123542364.928 7      -561.207 7        43.730               
E12  26535899.977 6 139447435.387 6     -2837.886 6        37.592               
E24  26924698.101 6 141490599.639 6     -3245.021 6        38.414               
E25  23688319.335 7 124483320.693 7     -1237.260 7        47.623               
E36  25289372.320 7 132896765.378 7      1844.987 7        44.431               
> 2025 01 06 18 46 11.0000000  0  7                                             
E02  25073819.663 7 131763887.460 7      1534.221 7        44.132               
E10  24602957.667 7 129289488.025 7     -1993.585 7        46.217               
E11  23509364.956 7 123542926.589 7      -561.927 7        43.522               
E12  26536439.175 6 139450273.100 6     -2839.382 6        37.468               
E24  26925315.279 6 141493845.628 6     -3246.849 6        38.369               
E25  23688552.025 7 124484557.685 7     -1237.202 7        47.742               
E36  25289018.460 7 132894919.851 7      1844.296 7        44.640               
> 2025 01 06 18 46 12.0000000  0  7                                             
E02  25073527.996 7 131762353.453 7      1534.244 7        43.646               
E10  24603335.034 7 129291481.442 7     -1993.666 7        46.355               
E11  23509470.142 7 123543488.674 7      -562.041 7        43.737               
E12  26536973.512 6 139453111.014 6     -2840.509 6        37.492               
E24  26925931.743 6 141497091.853 6     -3246.116 6        38.317               
E25  23688787.387 7 124485795.167 7     -1238.132 7        47.727               
E36  25288667.897 7 132893074.667 7      1843.591 7        44.763               
> 2025 01 06 18 46 13.0000000  0  7                                             
E02  25073234.426 7 131760819.509 7      1534.493 7        43.660               
E10  24603713.509 7 129293474.878 7     -1993.697 7        46.417               
E11  23509574.605 7 123544050.886 7      -562.455 7        44.038               
E12  26537513.720 6 139455948.824 6     -2839.152 6        37.354               
E24  26926544.373 6 141500338.054 6     -3246.828 6        38.135               
E25  23689022.981 7 124487032.831 7     -1237.845 7        47.963               
E36  25288315.386 7 132891229.514 7      1845.995 7        44.944               
> 2025 01 06 18 46 14.0000000  0  7                                             
E02  25072938.506 7 131759285.770 7      1534.123 7        43.921               
E10  24604091.162 7 129295468.492 7     -1994.001 7        46.576               
E11  23509680.684 7 123544613.376 7      -562.411 7        44.096               
E12  26538049.898 6 139458786.679 6     -2837.533 6        37.240               
E24  26927163.026 6 141503584.311 6     -3248.099 6        38.180               
E25  23689255.922 7 124488270.805 7     -1238.987 7        47.970               
E36  25287961.302 7 132889384.538 7      1844.136 7        44.738               
> 2025 01 06 18 46 15.0000000  0  7                                             
E02  25072647.027 7 131757752.588 7      1532.155 7        44.019               
E10  24604470.691 7 129297462.659 7     -1994.316 7        46.120               
E11  23509787.853 7 123545176.549 7      -564.289 7        43.770               
E12  26538587.603 6 139461624.946 6     -2836.667 6        37.681               
E24  26927780.794 6 141506831.007 6     -3248.591 6        38.311               
E25  23689491.203 7 124489509.493 7     -1239.029 7        47.701               
E36  25287611.900 7 132887540.113 7      1844.968 7        44.863               
> 2025 01 06 18 46 16.0000000  0  7                                             
E02  25072354.618 7 131756219.646 7      1533.446 7        43.915               
E10  24604848.031 7 129299457.024 7     -1994.422 7        46.457               
E11  23509892.977 7 123545739.965 7      -563.915 7        43.795               
E12  26539127.507 6 139464463.282 6     -2838.814 6        37.490               
E24  26928399.232 6 141510077.808 6     -3246.639 6        38.445               
E25  23689724.894 7 124490748.516 7     -1238.847 7        47.788               
E36  25287258.978 7 132885695.876 7      1843.603 7        44.927               
> 2025 01 06 18 46 17.0000000  0  7                                             
E02  25072062.844 7 131754686.993 7      1531.983 7        44.124               
E10  24605226.747 7 129301451.632 7     -1994.559 7        46.547               
E11  23509999.977 7 123546303.752 7      -564.373 7        44.206               
E12  26539669.850 6 139467301.722 6     -2836.909 6        37.588               
E24  26929012.997 6 141513324.772 6     -3245.716 6        38.511               
E25  23689959.988 7 124491987.953 7     -1238.932 7        47.877               
E36  25286907.289 7 132883851.900 7      1844.381 7        45.007               
> 2025 01 06 18 46 18.0000000  0  7                                             
E02  25071770.578 7 131753154.670 7      1533.181 7        44.333               
E10  24605604.320 7 129303446.571 7     -1995.338 7        46.383               
E11  23510107.441 7 123546867.977 7      -563.486 7        44.094               
E12  26540206.734 6 139470140.359 6     -2838.273 6        37.718               
E24  26929627.084 6 141516571.938 6     -3247.392 6        38.240               
E25  23690194.644 7 124493227.856 7     -1240.105 7        47.731               
E36  25286555.215 7 132882008.266 7      1843.443 7        44.881               
> 2025 01 06 18 46 19.0000000  0  7                                             
E02  25071477.437 7 131751622.626 7      1533.000 7        44.394               
E10  24605984.867 7 129305441.731 7     -1994.479 7        46.480               
E11  23510212.252 7 123547432.549 7      -563.489 7        44.092               
E12  26540747.924 6 139472979.073 6     -2838.161 6        37.752               
E24  26930245.950 6 141519819.287 6     -3245.365 6        38.011               
E25  23690430.247 7 124494468.147 7     -1239.740 7        47.403               
E36  25286204.527 7 132880164.842 7      1843.781 7        44.972               
> 2025 01 06 18 46 20.0000000  0  7                                             
E02  25071184.697 7 131750090.563 7      1531.448 7        44.375               
E10  24606362.645 7 129307436.862 7     -1995.945 7        46.238               
E11  23510318.921 7 123547997.170 7      -565.076 7        43.863               
E12  26541286.246 6 139475817.635 6     -2841.655 6        37.731               
E24  26930862.208 6 141523066.471 6     -3248.034 6        38.195               
E25  23690664.144 7 124495708.544 7     -1240.141 7        47.821               
E36  25285852.034 7 132878321.397 7      1843.193 7        44.324               
> 2025 01 06 18 46 21.0000000  0  7                                             
E02  25070892.083 7 131748558.757 7      1530.547 7        44.372               
E10  24606741.504 7 129309432.217 7     -1995.212 7        46.234               
E11  23510425.635 7 123548562.087 7      -565.450 7        43.690               
E12  26541825.998 6 139478656.271 6     -2840.620 6        37.540               
E24  26931481.531 6 141526313.799 6     -3246.528 6        38.227               
E25  23690898.469 7 124496949.322 7     -1239.962 7        47.455               
E36  25285499.388 7 132876478.183 7      1842.626 7        44.332               
> 2025 01 06 18 46 22.0000000  0  7                                             
E02  25070598.888 7 131747027.366 7      1531.896 7        44.822               
E10  24607120.953 7 129311427.962 7     -1996.117 7        46.462               
E11  23510532.268 7 123549127.517 7      -564.587 7        43.826               
E12  26542360.397 6 139481495.187 6     -2838.582 6        37.424               
E24  26932101.559 6 141529561.420 6     -3248.193 6        38.381               
E25  23691134.912 7 124498190.652 7     -1242.319 7        47.746               
E36  25285149.629 7 132874635.370 7      1842.234 7        44.602               
> 2025 01 06 18 46 23.0000000  0  7                                             
E02  25070306.748 7 131745496.281 7      1531.072 7        44.608               
E10  24607498.874 7 129313423.971 7     -1996.233 7        46.444               
E11  23510637.847 7 123549693.344 7      -564.814 7        43.684               
E12  26542902.928 6 139484334.226 6     -2838.165 6        37.127               
E24  26932718.219 6 141532809.219 6     -3246.096 6        38.444               
E25  23691369.273 7 124499432.391 7     -1241.165 7        47.412               
E36  25284796.984 7 132872792.811 7      1843.112 7        44.524               
> 2025 01 06 18 46 24.0000000  0  7                                             
E02  25070013.928 7 131743965.347 7      1529.846 7        44.623               
E10  24607878.251 7 129315420.113 7     -1996.423 7        46.568               
E11  23510745.490 7 123550259.388 7      -566.739 7        43.808               
E12  26543440.500 6 139487173.278 6     -2839.148 6        37.156               
E24  26933332.556 6 141536057.041 6     -3248.326 6        38.649               
E25  23691603.902 7 124500674.409 7     -1242.639 7        47.326               
E36  25284443.687 7 132870950.397 7      1841.319 7        44.433               
> 2025 01 06 18 46 25.0000000  0  7                                             
E02  25069723.601 7 131742435.255 7      1529.672 7        44.333               
E10  24608257.477 7 129317417.062 7     -1996.398 7        46.525               
E11  23510852.749 7 123550826.323 7      -567.017 7        43.517               
E12  26543979.813 6 139490012.960 6     -2840.168 6        37.078               
E24  26933951.244 6 141539305.582 6     -3248.100 6        38.867               
E25  23691839.979 7 124501917.395 7     -1242.832 7        47.255               
E36  25284094.794 7 132869108.795 7      1841.902 7        44.204               
> 2025 01 06 18 46 26.0000000  0  7                                             
E02  25069429.271 7 131740904.957 7      1530.748 7        44.390               
E10  24608635.746 7 129319413.766 7     -1995.967 7        46.600               
E11  23510959.347 7 123551393.119 7      -565.654 7        43.558               
E12  26544522.138 6 139492852.329 6     -2841.299 6        36.876               
E24  26934568.101 6 141542553.787 6     -3248.763 6        38.745               
E25  23692074.188 7 124503160.293 7     -1242.451 7        47.509               
E36  25283739.174 7 132867266.950 7      1841.045 7        44.328               
> 2025 01 06 18 46 27.0000000  0  7                                             
E02  25069136.934 7 131739375.035 7      1529.459 7        44.371               
E10  24609013.354 7 129321410.838 7     -1997.896 7        46.495               
E11  23511066.981 7 123551960.393 7      -566.912 7        43.778               
E12  26545059.379 6 139495691.868 6     -2839.015 6        36.808               
E24  26935187.548 6 141545802.255 6     -3247.169 6        38.629               
E25  23692310.265 7 124504403.688 7     -1244.449 7        47.683               
E36  25283392.059 7 132865425.471 7      1840.495 7        44.658               
> 2025 01 06 18 46 28.0000000  0  7                                             
E02  25068845.035 7 131737845.368 7      1529.452 7        44.278               
E10  24609393.777 7 129323408.132 7     -1997.349 7        46.448               
E11  23511173.033 7 123552527.988 7      -568.171 7        43.752               
E12  26545599.104 6 139498531.530 6     -2838.562 6        36.651               
E24  26935803.476 6 141549050.814 6     -3248.715 6        38.772               
E25  23692545.716 7 124505647.473 7     -1243.295 7        47.509               
E36  25283038.583 7 132863584.204 7      1840.725 7        44.875               
> 2025 01 06 18 46 29.0000000  0  7                                             
E02  25068554.877 7 131736316.324 7      1528.870 7        44.474               
E10  24609772.520 7 129325406.009 7     -1998.213 7        46.522               
E11  23511279.470 7 123553096.263 7      -568.602 7        43.439               
E12  26546138.945 6 139501371.642 6     -2840.376 6        36.887               
E24  26936419.850 6 141552299.925 6     -3249.922 6        38.946               
E25  23692781.828 7 124506891.998 7     -1245.221 7        47.199               
E36  25282688.368 7 132861743.547 7      1840.015 7        44.409               
> 2025 01 06 18 46 30.0000000  0  7                                             
E02  25068261.593 7 131734788.131 7      1527.487 7        44.247               
E10  24610152.478 7 129327404.697 7     -1998.120 7        46.809               
E11  23511387.873 7 123553665.447 7      -569.788 7        43.335               
E12  26546677.553 6 139504212.421 6     -2838.579 6        36.941               
E24  26937038.904 6 141555549.743 6     -3248.514 6        38.618               
E25  23693016.645 7 124508137.487 7     -1245.676 7        46.933               
E36  25282336.768 7 132859903.692 7      1840.486 7        44.064               
> 2025 01 06 18 46 31.0000000  0  7                                             
E02  25067970.123 7 131733259.052 7      1530.250 7        44.092               
E10  24610531.596 7 129329402.485 7     -1997.856 7        46.821               
E11  23511493.827 7 123554233.850 7      -567.666 7        43.293               
E12  26547214.205 6 139507052.181 6     -2840.296 6        36.884               
E24  26937652.955 6 141558798.551 6     -3249.507 6        38.733               
E25  23693252.713 7 124509382.225 7     -1244.941 7        46.897               
E36  25281984.998 7 132858062.949 7      1840.751 7        44.564               
> 2025 01 06 18 46 32.0000000  0  7                                             
E02  25067676.374 7 131731729.879 7      1528.894 7        43.823               
E10  24610911.402 7 129331400.165 7     -1998.567 7        46.690               
E11  23511600.183 7 123554802.235 7      -569.156 7        43.487               
E12  26547753.135 6 139509891.675 6     -2838.713 6        36.914               
E24  26938271.009 6 141562047.145 6     -3249.225 6        38.731               
E25  23693488.611 7 124510626.983 7     -1245.770 7        46.929               
E36  25281634.506 7 132856222.079 7      1841.206 7        44.546               
> 2025 01 06 18 46 33.0000000  0  7                                             
E02  25067385.904 7 131730201.512 7      1528.902 7        43.704               
E10  24611290.082 7 129333398.582 7     -1998.371 7        46.597               
E11  23511707.558 7 123555371.481 7      -569.755 7        43.536               
E12  26548290.930 6 139512731.790 6     -2839.508 6        36.958               
E24  26938890.019 6 141565296.390 6     -3249.428 6        38.892               
E25  23693725.045 7 124511872.657 7     -1246.336 7        47.215               
E36  25281283.621 7 132854381.994 7      1839.717 7        44.392               
> 2025 01 06 18 46 34.0000000  0  7                                             
E02  25067094.103 7 131728673.629 7      1527.354 7        43.530               
E10  24611670.478 7 129335397.476 7     -1999.570 7        46.672               
E11  23511815.550 7 123555941.250 7      -569.764 7        43.797               
E12  26548833.505 6 139515572.257 6     -2842.554 6        36.788               
E24  26939506.822 6 141568546.009 6     -3250.489 6        38.846               
E25  23693959.486 7 124513118.943 7     -1247.383 7        47.303               
E36  25280931.637 7 132852542.356 7      1839.162 7        44.292               
> 2025 01 06 18 46 35.0000000  0  7                                             
E02  25066801.560 7 131727146.042 7      1529.132 7        43.436               
E10  24612048.560 7 129337396.626 7     -1999.058 7        46.452               
E11  23511920.986 7 123556511.438 7      -570.770 7        43.294               
E12  26549371.193 6 139518412.838 6     -2843.430 6        36.714               
E24  26940123.303 6 141571795.796 6     -3250.540 6        38.350               
E25  23694196.144 7 124514365.657 7     -1246.997 7        47.384               
E36  25280581.967 7 132850702.980 7      1839.475 7        44.788               
> 2025 01 06 18 46 36.0000000  0  7                                             
E02  25066510.054 7 131725618.682 7      1529.211 7        43.657               
E10  24612428.321 7 129339395.987 7     -2000.230 7        46.426               
E11  23512028.817 7 123557081.912 7      -570.050 7        43.350               
E12  26549913.053 6 139521253.449 6     -2839.674 6        36.586               
E24  26940741.357 6 141575045.686 6     -3249.822 6        38.566               
E25  23694431.514 7 124515612.723 7     -1247.078 7        47.312               
E36  25280232.592 7 132848863.835 7      1838.829 7        44.673               
> 2025 01 06 18 46 37.0000000  0  7                                             
E02  25066219.727 7 131724091.280 7      1528.338 7        43.556               
E10  24612807.511 7 129341395.265 7     -1999.263 7        46.627               
E11  23512138.461 7 123557652.401 7      -570.037 7        43.248               
E12  26550452.108 6 139524093.897 6     -2838.955 6        36.501               
E24  26941356.846 6 141578295.408 6     -3248.524 6        38.519               
E25  23694668.574 7 124516859.856 7     -1246.881 7        47.578               
E36  25279882.306 7 132847024.600 7      1839.696 7        44.256               
> 2025 01 06 18 46 38.0000000  0  7                                             
E02  25065928.292 7 131722564.039 7      1526.762 7        43.622               
E10  24613188.174 7 129343394.677 7     -1999.904 7        46.529               
E11  23512245.952 7 123558223.121 7      -571.991 7        43.371               
E12  26550993.968 6 139526934.353 6     -2840.621 6        36.119               
E24  26941976.696 6 141581545.175 6     -3249.068 6        38.684               
E25  23694904.615 7 124518107.285 7     -1247.676 7        47.347               
E36  25279528.651 7 132845185.521 7      1837.748 7        44.456               
> 2025 01 06 18 46 39.0000000  0  7                                             
E02  25065636.160 7 131721037.423 7      1526.686 7        44.044               
E10  24613565.407 7 129345394.685 7     -2000.012 7        46.677               
E11  23512352.005 7 123558794.530 7      -570.424 7        43.674               
E12  26551532.728 6 139529775.226 6     -2840.549 6        36.431               
E24  26942590.497 6 141584795.419 6     -3249.712 6        38.414               
E25  23695141.245 7 124519355.443 7     -1248.643 7        47.476               
E36  25279179.267 7 132843347.007 7      1838.426 7        44.929               
> 2025 01 06 18 46 40.0000000  0  7                                             
E02  25065345.360 7 131719511.138 7      1525.812 7        44.109               
E10  24613946.688 7 129347394.991 7     -2001.098 7        46.512               
E11  23512459.639 7 123559366.375 7      -571.177 7        43.507               
E12  26552071.890 6 139532616.321 6     -2840.809 6        36.635               
E24  26943209.096 6 141588045.888 6     -3249.954 6        38.622               
E25  23695379.127 7 124520604.061 7     -1248.867 7        47.350               
E36  25278825.996 7 132841508.818 7      1837.543 7        44.642               
> 2025 01 06 18 46 41.0000000  0  7                                             
E02  25065054.532 7 131717985.324 7      1525.856 7        44.272               
E10  24614324.859 7 129349395.732 7     -2000.540 7        46.381               
E11  23512569.372 7 123559938.763 7      -573.272 7        43.551               
E12  26552609.247 6 139535457.687 6     -2840.527 6        37.060               
E24  26943828.409 6 141591296.705 6     -3250.358 6        38.741               
E25  23695615.007 7 124521853.274 7     -1249.140 7        47.114               
E36  25278474.763 7 132839671.079 7      1838.146 7        44.790               
> 2025 01 06 18 46 42.0000000  0  7                                             
E02  25064761.061 7 131716459.597 7      1524.582 7        44.137               
E10  24614704.361 7 129351396.526 7     -2000.964 7        46.589               
E11  23512675.559 7 123560511.276 7      -573.795 7        43.023               
E12  26553150.276 6 139538298.976 6     -2841.851 6        37.060               
E24  26944443.220 6 141594547.459 6     -3251.286 6        38.724               
E25  23695851.601 7 124523102.693 7     -1249.680 7        47.099               
E36  25278124.396 7 132837833.378 7      1837.227 7        44.716               
> 2025 01 06 18 46 43.0000000  0  7                                             
E02  25064469.358 7 131714934.282 7      1525.828 7        44.426               
E10  24615085.141 7 129353397.701 7     -2001.472 7        46.819               
E11  23512783.801 7 123561084.286 7      -573.110 7        42.618               
E12  26553691.788 6 139541140.521 6     -2842.262 6        36.659               
E24  26945062.846 6 141597798.526 6     -3251.988 6        38.638               
E25  23696088.223 7 124524352.639 7     -1250.812 7        47.257               
E36  25277775.235 7 132835996.081 7      1836.519 7        44.607               
> 2025 01 06 18 46 44.0000000  0  7                                             
E02  25064180.237 7 131713409.423 7      1524.208 7        44.002               
E10  24615463.964 7 129355399.301 7     -2002.240 7        46.960               
E11  23512889.514 7 123561657.815 7      -573.563 7        42.932               
E12  26554229.583 6 139543982.333 6     -2842.432 6        36.710               
E24  26945680.801 6 141601049.882 6     -3250.787 6        38.488               
E25  23696325.917 7 124525603.158 7     -1251.496 7        47.269               
E36  25277425.145 7 132834159.190 7      1836.017 7        44.999               
> 2025 01 06 18 46 45.0000000  0  7                                             
E02  25063886.399 7 131711885.501 7      1524.040 7        44.380               
E10  24615846.174 7 129357401.806 7     -2002.791 7        46.938               
E11  23512999.212 7 123562232.370 7      -574.449 7        43.338               
E12  26554765.538 6 139546824.937 6     -2843.420 6        36.470               
E24  26946295.487 6 141604302.088 6     -3251.405 6        38.533               
E25  23696563.083 7 124526854.747 7     -1252.138 7        47.176               
E36  25277074.323 7 132832323.239 7      1835.558 7        44.464               
> 2025 01 06 18 46 46.0000000  0  7                                             
E02  25063596.778 7 131710362.045 7      1524.068 7        44.655               
E10  24616225.140 7 129359404.758 7     -2002.727 7        47.270               
E11  23513107.016 7 123562807.455 7      -576.133 7        43.403               
E12  26555306.201 6 139549667.844 6     -2843.267 6        36.781               
E24  26946914.515 6 141607554.639 6     -3254.005 6        38.671               
E25  23696800.062 7 124528106.937 7     -1252.835 7        47.222               
E36  25276722.625 7 132830487.718 7      1834.919 7        44.498               
> 2025 01 06 18 46 47.0000000  0  7                                             
E02  25063303.851 7 131708838.369 7      1523.680 7        44.359               
E10  24616605.965 7 129361407.443 7     -2001.912 7        46.945               
E11  23513215.534 7 123563382.358 7      -573.849 7        43.416               
E12  26555847.641 6 139552510.345 6     -2839.539 6        36.958               
E24  26947534.177 6 141610806.791 6     -3251.427 6        38.522               
E25  23697037.524 7 124529358.990 7     -1252.235 7        47.192               
E36  25276371.695 7 132828651.936 7      1836.736 7        44.471               
> 2025 01 06 18 46 48.0000000  0  7                                             
E02  25063015.775 7 131707313.629 7      1524.291 7        44.411               
E10  24616985.199 7 129363409.050 7     -2001.234 7        47.009               
E11  23513323.177 7 123563956.313 7      -573.500 7        43.665               
E12  26556388.930 6 139555351.625 6     -2840.272 6        36.971               
E24  26948155.080 6 141614057.812 6     -3251.192 6        38.062               
E25  23697273.448 7 124530610.135 7     -1250.878 7        47.508               
E36  25276020.631 7 132826815.080 7      1837.389 7        44.710               
> 2025 01 06 18 46 49.0000000  0  7                                             
E02  25062724.305 7 131705788.916 7      1524.160 7        44.426               
E10  24617365.961 7 129365410.641 7     -2002.163 7        47.386               
E11  23513433.518 7 123564530.355 7      -574.234 7        43.875               
E12  26556932.791 6 139558192.779 6     -2844.498 6        37.360               
E24  26948768.479 6 141617308.690 6     -3252.581 6        38.199               
E25  23697511.017 7 124531861.424 7     -1252.620 7        47.571               
E36  25275671.256 7 132824978.220 7      1836.185 7        44.987               
> 2025 01 06 18 46 50.0000000  0  7                                             
E02  25062432.039 7 131704265.260 7      1523.530 7        44.535               
E10  24617745.043 7 129367413.253 7     -2003.001 7        47.249               
E11  23513541.742 7 123565105.512 7      -576.915 7        43.460               
E12  26557467.531 6 139561034.802 6     -2843.342 6        37.162               
E24  26949383.227 6 141620560.496 6     -3251.008 6        38.441               
E25  23697747.907 7 124533113.870 7     -1252.552 7        47.460               
E36  25275322.649 7 132823142.383 7      1836.134 7        45.164               
> 2025 01 06 18 46 51.0000000  0  7                                             
E02  25062141.873 7 131702742.015 7      1523.189 7        44.265               
E10  24618124.519 7 129369416.250 7     -2003.463 7        46.936               
E11  23513649.412 7 123565681.146 7      -576.712 7        43.571               
E12  26558005.174 6 139563877.078 6     -2842.137 6        37.185               
E24  26949999.718 6 141623812.630 6     -3252.102 6        38.316               
E25  23697985.583 7 124534366.869 7     -1253.201 7        47.221               
E36  25274970.638 7 132821306.937 7      1834.700 7        44.945               
> 2025 01 06 18 46 52.0000000  0  7                                             
E02  25061850.474 7 131701219.231 7      1523.526 7        44.063               
E10  24618507.148 7 129371419.671 7     -2003.008 7        46.805               
E11  23513758.449 7 123566257.316 7      -576.145 7        43.604               
E12  26558549.437 6 139566719.643 6     -2841.420 6        37.375               
E24  26950621.068 6 141627065.095 6     -3253.106 6        38.641               
E25  23698222.133 7 124535620.440 7     -1254.297 7        47.353               
E36  25274618.958 7 132819471.930 7      1834.901 7        44.995               
> 2025 01 06 18 46 53.0000000  0  7                                             
E02  25061561.076 7 131699696.623 7      1522.420 7        44.086               
E10  24618885.730 7 129373423.247 7     -2003.568 7        46.811               
E11  23513867.780 7 123566833.748 7      -575.486 7        43.511               
E12  26559086.026 6 139569562.241 6     -2841.145 6        37.261               
E24  26951236.290 6 141630317.555 6     -3251.614 6        38.534               
E25  23698460.559 7 124536874.304 7     -1254.304 7        47.463               
E36  25274272.085 7 132817637.057 7      1835.489 7        44.575               
> 2025 01 06 18 46 54.0000000  0  7                                             
E02  25061268.471 7 131698174.165 7      1521.616 7        44.088               
E10  24619264.956 7 129375426.919 7     -2004.305 7        46.915               
E11  23513975.915 7 123567410.369 7      -576.522 7        43.170               
E12  26559627.896 6 139572404.808 6     -2844.167 6        37.208               
E24  26951856.550 6 141633570.068 6     -3254.522 6        38.615               
E25  23698697.601 7 124538128.425 7     -1254.353 7        47.533               
E36  25273919.520 7 132815802.309 7      1834.182 7        44.883               
> 2025 01 06 18 46 55.0000000  0  7                                             
E02  25060978.162 7 131696651.905 7      1523.504 7        44.016               
E10  24619645.834 7 129377430.782 7     -2003.839 7        47.004               
E11  23514082.351 7 123567987.291 7      -577.970 7        43.263               
E12  26560171.534 6 139575247.418 6     -2841.947 6        37.669               
E24  26952472.111 6 141636822.663 6     -3251.971 6        38.306               
E25  23698935.428 7 124539382.896 7     -1254.084 7        47.734               
E36  25273568.438 7 132813967.743 7      1835.944 7        44.740               
> 2025 01 06 18 46 56.0000000  0  7                                             
E02  25060686.896 7 131695129.721 7      1521.236 7        43.901               
E10  24620026.882 7 129379434.678 7     -2004.199 7        47.022               
E11  23514193.148 7 123568564.328 7      -576.900 7        43.184               
E12  26560705.415 6 139578089.939 6     -2842.817 6        37.446               
E24  26953086.189 6 141640075.198 6     -3253.267 6        38.479               
E25  23699173.238 7 124540637.557 7     -1255.140 7        47.737               
E36  25273220.252 7 132812133.228 7      1833.940 7        44.703               
> 2025 01 06 18 46 57.0000000  0  7                                             
E02  25060396.016 7 131693607.875 7      1521.984 7        43.879               
E10  24620405.848 7 129381438.884 7     -2004.320 7        46.813               
E11  23514302.417 7 123569141.803 7      -577.245 7        43.294               
E12  26561249.974 6 139580932.648 6     -2842.437 6        37.534               
E24  26953709.085 6 141643327.934 6     -3253.188 6        38.103               
E25  23699412.228 7 124541892.676 7     -1255.905 7        47.905               
E36  25272868.821 7 132810299.018 7      1834.482 7        44.541               
> 2025 01 06 18 46 58.0000000  0  7                                             
E02  25060105.010 7 131692086.503 7      1521.140 7        44.251               
E10  24620787.370 7 129383443.503 7     -2004.290 7        46.748               
E11  23514410.820 7 123569719.799 7      -577.985 7        43.470               
E12  26561788.859 6 139583775.595 6     -2839.225 6        37.694               
E24  26954324.539 6 141646581.002 6     -3253.285 6        38.096               
E25  23699647.178 7 124543148.360 7     -1255.757 7        47.609               
E36  25272518.633 7 132808465.243 7      1833.804 7        44.665               
> 2025 01 06 18 46 59.0000000  0  7                                             
E02  25059815.719 7 131690565.193 7      1521.832 7        44.472               
E10  24621167.738 7 129385448.186 7     -2005.155 7        46.935               
E11  23514519.598 7 123570297.947 7      -578.572 7        43.523               
E12  26562328.307 6 139586618.488 6     -2842.342 6        37.755               
E24  26954946.104 6 141649834.031 6     -3252.790 6        38.184               
E25  23699885.533 7 124544404.258 7     -1255.245 7        47.398               
E36  25272169.580 7 132806631.524 7      1835.031 7        44.661               
> 2025 01 06 18 47 00.0000000  0  7                                             
E02  25059524.150 7 131689044.122 7      1521.719 7        44.285               
E10  24621546.678 7 129387453.061 7     -2004.417 7        46.908               
E11  23514630.385 7 123570876.363 7      -579.221 7        43.579               
E12  26562865.289 6 139589461.434 6     -2843.443 6        37.694               
E24  26955564.873 6 141653087.150 6     -3253.598 6        38.242               
E25  23700125.059 7 124545660.506 7     -1256.522 7        46.886               
E36  25271818.650 7 132804797.997 7      1833.310 7        44.538               
> 2025 01 06 18 47 01.0000000  0  7                                             
E02  25059233.993 7 131687523.157 7      1519.731 7        44.499               
E10  24621929.030 7 129389458.011 7     -2005.424 7        47.085               
E11  23514737.510 7 123571454.978 7      -578.734 7        43.339               
E12  26563408.409 6 139592304.342 6     -2843.588 6        37.402               
E24  26956181.631 6 141656340.264 6     -3253.886 6        38.484               
E25  23700362.422 7 124546916.983 7     -1257.058 7        47.168               
E36  25271468.221 7 132802964.571 7      1833.046 7        44.607               
> 2025 01 06 18 47 02.0000000  0  7                                             
E02  25058943.755 7 131686002.802 7      1518.549 7        44.622               
E10  24622308.408 7 129391463.535 7     -2005.958 7        46.831               
E11  23514847.021 7 123572034.291 7      -580.334 7        43.341               
E12  26563952.020 6 139595147.682 6     -2844.428 6        37.115               
E24  26956794.699 6 141659593.844 6     -3253.098 6        38.630               
E25  23700600.187 7 124548174.191 7     -1257.684 7        47.377               
E36  25271118.890 7 132801131.714 7      1832.691 7        44.618               
> 2025 01 06 18 47 03.0000000  0  7                                             
E02  25058653.536 7 131684482.911 7      1519.648 7        44.565               
E10  24622688.848 7 129393469.489 7     -2005.205 7        46.929               
E11  23514957.299 7 123572614.117 7      -581.001 7        43.444               
E12  26564485.062 6 139597991.318 6     -2844.148 6        37.460               
E24  26957414.978 6 141662847.778 6     -3253.607 6        38.571               
E25  23700838.721 7 124549431.979 7     -1257.817 7        47.259               
E36  25270768.693 7 132799299.302 7      1832.085 7        44.346               
> 2025 01 06 18 47 04.0000000  0  7                                             
E02  25058364.406 7 131682963.147 7      1519.042 7        44.500               
E10  24623071.174 7 129395475.545 7     -2005.975 7        46.698               
E11  23515064.808 7 123573194.127 7      -581.325 7        43.633               
E12  26565026.118 6 139600834.920 6     -2843.623 6        37.419               
E24  26958034.908 6 141666101.706 6     -3255.581 6        38.298               
E25  23701077.245 7 124550690.019 7     -1258.316 7        47.564               
E36  25270418.541 7 132797466.982 7      1833.078 7        44.657               
> 2025 01 06 18 47 05.0000000  0  7                                             
E02  25058072.721 7 131681443.621 7      1519.251 7        44.488               
E10  24623450.256 7 129397481.798 7     -2006.533 7        46.796               
E11  23515174.140 7 123573774.454 7      -579.440 7        43.392               
E12  26565566.487 6 139603678.586 6     -2845.331 6        37.566               
E24  26958654.498 6 141669355.725 6     -3255.015 6        38.482               
E25  23701315.761 7 124551948.404 7     -1258.521 7        47.272               
E36  25270069.639 7 132795634.880 7      1831.706 7        44.521               
> 2025 01 06 18 47 06.0000000  0  7                                             
E02  25057779.428 7 131679924.618 7      1518.801 7        44.245               
E10  24623831.411 7 129399488.542 7     -2006.754 7        46.599               
E11  23515284.025 7 123574355.394 7      -579.871 7        43.343               
E12  26566109.598 6 139606522.608 6     -2842.864 6        37.789               
E24  26959270.622 6 141672610.170 6     -3255.185 6        38.625               
E25  23701555.760 7 124553207.451 7     -1259.923 7        47.382               
E36  25269718.531 7 132793803.263 7      1832.124 7        44.593               
> 2025 01 06 18 47 07.0000000  0  7                                             
E02  25057492.603 7 131678405.980 7      1518.181 7        44.170               
E10  24624210.708 7 129401495.610 7     -2007.209 7        46.293               
E11  23515393.554 7 123574936.761 7      -582.280 7        43.381               
E12  26566649.171 6 139609366.840 6     -2846.839 6        37.738               
E24  26959892.455 6 141675864.822 6     -3256.408 6        38.282               
E25  23701793.337 7 124554466.971 7     -1259.725 7        47.292               
E36  25269368.932 7 132791971.983 7      1831.263 7        44.464               
> 2025 01 06 18 47 08.0000000  0  7                                             
E02  25057202.008 7 131676887.419 7      1517.637 7        44.071               
E10  24624592.489 7 129403502.744 7     -2007.108 7        46.052               
E11  23515502.072 7 123575518.273 7      -581.073 7        43.445               
E12  26567186.242 6 139612210.954 6     -2842.025 6        37.663               
E24  26960509.928 6 141679119.452 6     -3253.437 6        38.197               
E25  23702031.415 7 124555726.700 7     -1260.456 7        47.221               
E36  25269022.434 7 132790140.768 7      1831.376 7        44.301               
> 2025 01 06 18 47 09.0000000  0  7                                             
E02  25056914.192 7 131675369.028 7      1516.638 7        44.188               
E10  24624973.447 7 129405509.985 7     -2007.113 7        46.108               
E11  23515610.823 7 123576099.994 7      -581.240 7        43.740               
E12  26567726.476 6 139615055.079 6     -2843.242 6        37.597               
E24  26961131.190 6 141682374.092 6     -3255.275 6        38.018               
E25  23702269.618 7 124556986.691 7     -1260.058 7        47.148               
E36  25268671.343 7 132788309.683 7      1830.560 7        44.791               
> 2025 01 06 18 47 10.0000000  0  7                                             
E02  25056621.935 7 131673850.826 7      1517.145 7        44.167               
E10  24625354.040 7 129407517.393 7     -2007.279 7        45.888               
E11  23515722.040 7 123576682.007 7      -581.791 7        43.454               
E12  26568267.059 6 139617899.228 6     -2844.351 6        37.771               
E24  26961749.771 6 141685628.809 6     -3255.368 6        38.089               
E25  23702509.269 7 124558247.016 7     -1260.357 7        47.320               
E36  25268321.209 7 132786478.757 7      1829.838 7        44.766               
> 2025 01 06 18 47 11.0000000  0  7                                             
E02  25056332.814 7 131672333.094 7      1516.651 7        43.790               
E10  24625734.954 7 129409525.253 7     -2007.788 7        46.299               
E11  23515831.425 7 123577264.570 7      -583.811 7        43.399               
E12  26568805.453 6 139620743.711 6     -2845.183 6        37.828               
E24  26962365.984 6 141688883.896 6     -3254.624 6        38.068               
E25  23702746.426 7 124559507.942 7     -1261.636 7        47.685               
E36  25267970.985 7 132784648.287 7      1829.713 7        44.761               
> 2025 01 06 18 47 12.0000000  0  7                                             
E02  25056041.210 7 131670815.786 7      1516.853 7        43.749               
E10  24626114.090 7 129411533.479 7     -2008.484 7        46.216               
E11  23515941.632 7 123577847.585 7      -583.965 7        43.275               
E12  26569353.522 6 139623588.410 6     -2843.084 6        37.901               
E24  26962984.189 6 141692139.224 6     -3255.746 6        37.833               
E25  23702985.451 7 124560769.372 7     -1261.400 7        47.398               
E36  25267622.503 7 132782818.193 7      1831.273 7        44.699               
> 2025 01 06 18 47 13.0000000  0  7                                             
E02  25055750.561 7 131669298.677 7      1517.022 7        44.104               
E10  24626494.878 7 129413541.891 7     -2008.088 7        46.322               
E11  23516050.696 7 123578430.869 7      -582.835 7        43.136               
E12  26569891.996 6 139626433.182 6     -2842.873 6        37.791               
E24  26963604.111 6 141695394.642 6     -3255.419 6        38.154               
E25  23703224.021 7 124562031.159 7     -1262.453 7        47.382               
E36  25267273.744 7 132780988.288 7      1829.962 7        44.670               
> 2025 01 06 18 47 14.0000000  0  7                                             
E02  25055461.547 7 131667781.683 7      1517.132 7        44.143               
E10  24626876.105 7 129415550.369 7     -2008.774 7        46.452               
E11  23516161.216 7 123579014.360 7      -583.014 7        43.407               
E12  26570428.844 6 139629277.871 6     -2843.682 6        37.507               
E24  26964218.725 6 141698650.052 6     -3255.430 6        38.380               
E25  23703465.029 7 124563293.163 7     -1262.272 7        47.531               
E36  25266922.815 7 132779158.471 7      1830.421 7        44.548               
> 2025 01 06 18 47 15.0000000  0  7                                             
E02  25055171.569 7 131666265.203 7      1515.948 7        44.208               
E10  24627259.056 7 129417559.328 7     -2009.257 7        46.161               
E11  23516274.005 7 123579598.427 7      -584.037 7        43.641               
E12  26570967.506 6 139632122.904 6     -2844.086 6        37.300               
E24  26964838.681 6 141701905.830 6     -3253.957 6        38.220               
E25  23703704.680 7 124564555.803 7     -1263.237 7        47.699               
E36  25266572.921 7 132777329.133 7      1829.100 7        44.374               
> 2025 01 06 18 47 16.0000000  0  7                                             
E02  25054882.412 7 131664748.961 7      1517.162 7        44.206               
E10  24627638.621 7 129419568.499 7     -2008.927 7        46.249               
E11  23516380.898 7 123580182.804 7      -583.515 7        43.581               
E12  26571511.654 6 139634968.020 6     -2842.618 6        37.015               
E24  26965457.128 6 141705161.730 6     -3254.813 6        38.351               
E25  23703943.294 7 124565818.799 7     -1262.721 7        47.287               
E36  25266223.805 7 132775500.012 7      1828.749 7        44.728               
> 2025 01 06 18 47 17.0000000  0  7                                             
E02  25054591.281 7 131663232.617 7      1515.832 7        44.371               
E10  24628021.081 7 129421577.528 7     -2009.527 7        46.225               
E11  23516491.453 7 123580767.111 7      -584.675 7        43.842               
E12  26572056.873 6 139637812.860 6     -2844.906 6        37.150               
E24  26966076.245 6 141708417.396 6     -3257.184 6        38.367               
E25  23704182.587 7 124567081.820 7     -1263.432 7        47.390               
E36  25265875.565 7 132773670.751 7      1828.194 7        44.658               
> 2025 01 06 18 47 18.0000000  0  7                                             
E02  25054303.072 7 131661717.168 7      1515.118 7        44.166               
E10  24628402.388 7 129423587.418 7     -2010.135 7        46.202               
E11  23516602.849 7 123581352.417 7      -585.060 7        43.839               
E12  26572592.211 6 139640658.407 6     -2844.579 6        37.318               
E24  26966693.638 6 141711673.831 6     -3254.831 6        38.079               
E25  23704419.762 7 124568345.859 7     -1264.044 7        47.062               
E36  25265526.342 7 132771842.367 7      1828.712 7        44.857               
> 2025 01 06 18 47 19.0000000  0  7                                             
E02  25054015.416 7 131660202.315 7      1513.933 7        44.592               
E10  24628783.275 7 129425597.862 7     -2011.382 7        46.230               
E11  23516713.118 7 123581938.392 7      -585.640 7        43.870               
E12  26573127.344 6 139643504.403 6     -2845.931 6        37.501               
E24  26967311.182 6 141714930.717 6     -3255.616 6        38.147               
E25  23704660.145 7 124569610.589 7     -1265.662 7        47.110               
E36  25265178.878 7 132770014.547 7      1827.719 7        44.715               
> 2025 01 06 18 47 20.0000000  0  7                                             
E02  25053727.091 7 131658688.020 7      1513.253 7        44.578               
E10  24629164.296 7 129427608.818 7     -2010.683 7        46.056               
E11  23516824.416 7 123582524.970 7      -587.519 7        43.676               
E12  26573666.345 6 139646350.775 6     -2843.599 6        37.563               
E24  26967932.756 6 141718188.036 6     -3257.198 6        38.581               
E25  23704899.411 7 124570876.001 7     -1265.824 7        47.156               
E36  25264827.770 7 132768187.253 7      1825.848 7        44.991               
> 2025 01 06 18 47 21.0000000  0  7                                             
E02  25053436.138 7 131657173.945 7      1514.261 7        44.228               
E10  24629545.880 7 129429619.983 7     -2011.451 7        46.331               
E11  23516933.015 7 123583111.834 7      -586.690 7        43.568               
E12  26574211.207 6 139649197.200 6     -2847.222 6        37.720               
E24  26968546.897 6 141721445.446 6     -3258.403 6        38.759               
E25  23705139.794 7 124572141.768 7     -1266.151 7        46.968               
E36  25264480.611 7 132766360.157 7      1825.691 7        45.182               
> 2025 01 06 18 47 22.0000000  0  7                                             
E02  25053147.232 7 131655660.097 7      1513.204 7        44.318               
E10  24629928.054 7 129431631.327 7     -2010.722 7        46.352               
E11  23517043.731 7 123583699.006 7      -585.614 7        43.737               
E12  26574752.549 6 139652043.698 6     -2845.572 6        37.689               
E24  26969164.164 6 141724702.965 6     -3257.529 6        38.638               
E25  23705378.417 7 124573407.866 7     -1266.302 7        47.115               
E36  25264131.316 7 132764533.247 7      1826.979 7        45.051               
> 2025 01 06 18 47 23.0000000  0  7                                             
E02  25052858.674 7 131654146.370 7      1513.342 7        44.701               
E10  24630308.762 7 129433642.754 7     -2011.391 7        46.228               
E11  23517154.617 7 123584286.387 7      -587.485 7        43.859               
E12  26575291.497 6 139654890.137 6     -2847.394 6        37.705               
E24  26969785.390 6 141727960.478 6     -3259.178 6        38.489               
E25  23705617.827 7 124574674.209 7     -1266.391 7        47.140               
E36  25263784.058 7 132762706.452 7      1825.615 7        44.823               
> 2025 01 06 18 47 24.0000000  0  7                                             
E02  25052568.767 7 131652632.613 7      1513.100 7        44.901               
E10  24630689.632 7 129435654.113 7     -2011.702 7        46.477               
E11  23517265.486 7 123584873.774 7      -586.813 7        44.051               
E12  26575830.489 6 139657736.365 6     -2844.195 6        37.505               
E24  26970406.463 6 141731217.808 6     -3257.432 6        38.447               
E25  23705858.317 7 124575940.637 7     -1266.389 7        47.046               
E36  25263434.290 7 132760879.570 7      1827.619 7        44.712               
> 2025 01 06 18 47 25.0000000  0  7                                             
E02  25052278.503 7 131651119.004 7      1513.106 7        44.608               
E10  24631071.242 7 129437665.596 7     -2010.620 7        46.222               
E11  23517377.006 7 123585461.385 7      -589.111 7        43.938               
E12  26576374.395 6 139660582.614 6     -2846.628 6        37.499               
E24  26971023.257 6 141734475.170 6     -3258.349 6        38.593               
E25  23706098.468 7 124577207.345 7     -1267.173 7        47.027               
E36  25263086.050 7 132759052.843 7      1826.158 7        44.877               
> 2025 01 06 18 47 26.0000000  0  7                                             
E02  25051988.998 7 131649605.892 7      1511.947 7        45.204               
E10  24631452.460 7 129439677.527 7     -2012.918 7        46.262               
E11  23517487.758 7 123586049.544 7      -587.974 7        43.400               
E12  26576916.524 6 139663429.128 6     -2847.863 6        37.692               
E24  26971640.739 6 141737732.858 6     -3258.382 6        38.644               
E25  23706337.224 7 124578474.652 7     -1268.143 7        47.270               
E36  25262736.782 7 132757226.549 7      1824.626 7        44.793               
> 2025 01 06 18 47 27.0000000  0  7                                             
E02  25051699.913 7 131648093.237 7      1513.234 7        45.053               
E10  24631835.375 7 129441689.907 7     -2012.062 7        46.176               
E11  23517596.080 7 123586638.263 7      -587.859 7        43.176               
E12  26577453.988 6 139666275.953 6     -2844.390 6        37.860               
E24  26972260.053 6 141740990.938 6     -3257.811 6        38.975               
E25  23706577.688 7 124579742.554 7     -1267.938 7        46.887               
E36  25262388.684 7 132755400.709 7      1824.900 7        44.831               
> 2025 01 06 18 47 28.0000000  0  7                                             
E02  25051411.203 7 131646580.702 7      1512.681 7        44.755               
E10  24632218.264 7 129443702.351 7     -2012.621 7        46.254               
E11  23517707.163 7 123587227.170 7      -589.349 7        43.314               
E12  26577993.079 6 139669122.742 6     -2845.787 6        38.024               
E24  26972880.153 6 141744248.973 6     -3258.480 6        39.149               
E25  23706816.802 7 124581010.684 7     -1268.379 7        46.926               
E36  25262039.532 7 132753574.954 7      1825.119 7        44.845               
> 2025 01 06 18 47 29.0000000  0  7                                             
E02  25051121.930 7 131645068.711 7      1511.183 7        44.952               
E10  24632600.518 7 129445715.300 7     -2013.585 7        46.475               
E11  23517819.568 7 123587816.645 7      -591.078 7        43.331               
E12  26578536.744 6 139671969.895 6     -2847.085 6        38.110               
E24  26973502.861 6 141747507.420 6     -3259.255 6        39.262               
E25  23707057.578 7 124582279.479 7     -1269.278 7        46.882               
E36  25261692.739 7 132751749.715 7      1824.127 7        45.040               
> 2025 01 06 18 47 30.0000000  0  7                                             
E02  25050833.703 7 131643557.807 7      1510.521 7        44.790               
E10  24632982.602 7 129447729.309 7     -2013.329 7        46.676               
E11  23517928.596 7 123588407.300 7      -591.276 7        43.058               
E12  26579073.547 6 139674817.977 6     -2848.027 6        38.043               
E24  26974118.538 6 141750766.844 6     -3259.342 6        39.145               
E25  23707298.810 7 124583549.481 7     -1270.104 7        47.021               
E36  25261342.372 7 132749925.541 7      1824.287 7        44.932               
> 2025 01 06 18 47 31.0000000  0  7                                             
E02  25050547.584 7 131642046.022 7      1511.913 7        44.707               
E10  24633363.767 7 129449742.391 7     -2012.634 7        46.617               
E11  23518043.288 7 123588997.135 7      -589.364 7        43.169               
E12  26579619.741 6 139677664.994 6     -2846.900 6        37.820               
E24  26974734.930 6 141754025.232 6     -3259.087 6        38.831               
E25  23707538.648 7 124584818.713 7     -1269.867 7        46.930               
E36  25260993.426 7 132748100.445 7      1826.404 7        44.785               
> 2025 01 06 18 47 32.0000000  0  7                                             
E02  25050258.713 7 131640534.565 7      1511.276 7        44.213               
E10  24633745.485 7 129451755.767 7     -2012.786 7        46.534               
E11  23518153.085 7 123589587.380 7      -589.915 7        43.191               
E12  26580163.111 6 139680512.145 6     -2845.907 6        37.939               
E24  26975351.331 6 141757283.830 6     -3257.431 6        38.685               
E25  23707778.647 7 124586088.399 7     -1270.259 7        46.817               
E36  25260644.936 7 132746275.655 7      1826.591 7        44.587               
> 2025 01 06 18 47 33.0000000  0  7                                             
E02  25049967.698 7 131639022.784 7      1511.328 7        44.231               
E10  24634128.141 7 129453768.786 7     -2013.191 7        46.619               
E11  23518266.499 7 123590177.358 7      -591.819 7        43.527               
E12  26580699.682 6 139683358.853 6     -2846.720 6        37.968               
E24  26975972.968 6 141760541.933 6     -3257.711 6        38.588               
E25  23708019.468 7 124587357.880 7     -1270.743 7        46.642               
E36  25260297.356 7 132744450.523 7      1825.148 7        44.675               
> 2025 01 06 18 47 34.0000000  0  7                                             
E02  25049678.810 7 131637511.787 7      1509.483 7        44.273               
E10  24634510.091 7 129455782.555 7     -2013.406 7        46.821               
E11  23518376.626 7 123590768.167 7      -591.773 7        43.725               
E12  26581240.631 6 139686206.160 6     -2844.225 6        38.202               
E24  26976587.832 6 141763800.725 6     -3258.843 6        38.666               
E25  23708260.128 7 124588628.261 7     -1270.781 7        46.835               
E36  25259948.607 7 132742626.139 7      1824.088 7        44.878               
> 2025 01 06 18 47 35.0000000  0  7                                             
E02  25049391.753 7 131636001.590 7      1509.681 7        44.478               
E10  24634891.175 7 129457797.090 7     -2015.530 7        46.880               
E11  23518487.789 7 123591359.852 7      -592.395 7        43.854               
E12  26581784.180 6 139689054.075 6     -2847.844 6        38.538               
E24  26977209.388 6 141767060.193 6     -3260.802 6        38.835               
E25  23708501.798 7 124589899.560 7     -1271.943 7        46.944               
E36  25259600.455 7 132740802.533 7      1821.954 7        44.774               
> 2025 01 06 18 47 36.0000000  0  7                                             
E02  25049104.008 7 131634492.454 7      1509.055 7        44.685               
E10  24635274.760 7 129459812.639 7     -2016.111 7        47.154               
E11  23518599.355 7 123591952.676 7      -592.632 7        43.707               
E12  26582327.121 6 139691902.915 6     -2849.273 6        38.654               
E24  26977829.836 6 141770320.598 6     -3258.144 6        38.831               
E25  23708742.073 7 124591172.037 7     -1272.280 7        47.063               
E36  25259252.563 7 132738979.935 7      1822.681 7        44.903               
> 2025 01 06 18 47 37.0000000  0  7                                             
E02  25048815.164 7 131632983.514 7      1510.025 7        44.654               
E10  24635656.273 7 129461828.351 7     -2015.594 7        46.526               
E11  23518712.528 7 123592545.761 7      -592.917 7        44.123               
E12  26582862.227 6 139694751.735 6     -2846.857 6        38.496               
E24  26978447.845 6 141773581.044 6     -3259.415 6        38.611               
E25  23708982.832 7 124592444.834 7     -1272.759 7        47.352               
E36  25258904.609 7 132737157.534 7      1821.893 7        44.911               
> 2025 01 06 18 47 38.0000000  0  7                                             
E02  25048526.499 7 131631474.854 7      1508.847 7        44.573               
E10  24636039.027 7 129463844.307 7     -2015.880 7        46.373               
E11  23518823.039 7 123593139.182 7      -594.877 7        43.885               
E12  26583402.014 6 139697600.697 6     -2848.765 6        38.386               
E24  26979066.918 6 141776841.644 6     -3260.174 6        38.593               
E25  23709223.215 7 124593718.014 7     -1273.023 7        47.195               
E36  25258558.120 7 132735335.357 7      1823.409 7        45.399               
> 2025 01 06 18 47 39.0000000  0  7                                             
E02  25048237.262 7 131629966.629 7      1507.767 7        44.778               
E10  24636422.613 7 129465860.661 7     -2016.929 7        46.266               
E11  23518934.497 7 123593733.086 7      -594.549 7        43.663               
E12  26583947.779 6 139700449.909 6     -2845.667 6        38.370               
E24  26979688.849 6 141780102.545 6     -3262.085 6        38.741               
E25  23709467.055 7 124594991.765 7     -1274.416 7        46.960               
E36  25258209.870 7 132733513.612 7      1821.411 7        45.031               
> 2025 01 06 18 47 40.0000000  0  7                                             
E02  25047951.465 7 131628458.727 7      1508.927 7        44.817               
E10  24636805.081 7 129467877.306 7     -2017.282 7        46.049               
E11  23519044.910 7 123594327.424 7      -594.943 7        43.722               
E12  26584484.082 6 139703299.285 6     -2850.713 6        38.419               
E24  26980308.440 6 141783363.649 6     -3261.203 6        39.077               
E25  23709706.554 7 124596265.961 7     -1274.422 7        46.990               
E36  25257862.791 7 132731692.152 7      1820.849 7        45.080               
> 2025 01 06 18 47 41.0000000  0  7                                             
E02  25047662.398 7 131626950.698 7      1508.690 7        44.594               
E10  24637187.469 7 129469893.767 7     -2016.442 7        46.303               
E11  23519159.709 7 123594921.679 7      -594.256 7        43.443               
E12  26585028.881 6 139706148.375 6     -2847.847 6        38.284               
E24  26980924.724 6 141786624.478 6     -3261.102 6        39.059               
E25  23709948.706 7 124597540.126 7     -1274.178 7        46.766               
E36  25257514.283 7 132729870.540 7      1822.011 7        44.945               
> 2025 01 06 18 47 42.0000000  0  7                                             
E02  25047371.329 7 131625442.208 7      1508.404 7        44.476               
E10  24637569.080 7 129471909.746 7     -2016.280 7        46.060               
E11  23519270.926 7 123595515.521 7      -593.673 7        43.515               
E12  26585566.980 6 139708996.784 6     -2849.154 6        37.914               
E24  26981545.467 6 141789884.698 6     -3260.392 6        38.593               
E25  23710191.939 7 124598813.949 7     -1273.061 7        46.583               
E36  25257166.319 7 132728048.420 7      1821.670 7        44.574               
> 2025 01 06 18 47 43.0000000  0  7                                             
E02  25047083.263 7 131623934.152 7      1507.996 7        44.260               
E10  24637950.843 7 129473926.121 7     -2016.718 7        46.370               
E11  23519384.251 7 123596109.873 7      -594.772 7        43.665               
E12  26586110.887 6 139711845.508 6     -2849.301 6        37.765               
E24  26982162.610 6 141793145.262 6     -3260.466 6        38.555               
E25  23710431.625 7 124600088.352 7     -1274.437 7        46.710               
E36  25256821.152 7 132726226.735 7      1821.478 7        44.736               
> 2025 01 06 18 47 44.0000000  0  7                                             
E02  25046797.412 7 131622426.690 7      1507.176 7        44.066               
E10  24638334.938 7 129475943.049 7     -2016.602 7        46.620               
E11  23519496.746 7 123596704.880 7      -593.709 7        43.209               
E12  26586649.602 6 139714694.641 6     -2848.261 6        38.136               
E24  26982780.547 6 141796406.258 6     -3261.213 6        38.527               
E25  23710672.911 7 124601363.432 7     -1275.188 7        46.518               
E36  25256468.257 7 132724405.575 7      1820.998 7        44.647               
> 2025 01 06 18 47 45.0000000  0  7                                             
E02  25046512.526 7 131620919.620 7      1507.122 7        44.155               
E10  24638716.182 7 129477960.332 7     -2017.995 7        46.413               
E11  23519606.551 7 123597300.378 7      -596.235 7        43.329               
E12  26587191.185 6 139717543.980 6     -2848.402 6        38.445               
E24  26983403.042 6 141799667.513 6     -3261.347 6        38.749               
E25  23710914.884 7 124602639.046 7     -1275.756 7        46.795               
E36  25256121.651 7 132722584.804 7      1820.604 7        44.759               
> 2025 01 06 18 47 46.0000000  0  7                                             
E02  25046221.306 7 131619412.156 7      1506.925 7        44.631               
E10  24639101.340 7 129479977.172 7     -2016.390 7        46.723               
E11  23519718.563 7 123597895.512 7      -595.049 7        43.126               
E12  26587730.758 6 139720392.730 6     -2848.031 6        38.199               
E24  26984023.740 6 141802928.248 6     -3260.412 6        38.799               
E25  23711156.455 7 124603914.365 7     -1275.322 7        46.765               
E36  25255775.707 7 132720763.601 7      1822.147 7        44.938               
> 2025 01 06 18 47 47.0000000  0  7                                             
E02  25045934.508 7 131617904.646 7      1507.938 7        44.431               
E10  24639484.050 7 129481993.956 7     -2017.211 7        46.611               
E11  23519832.782 7 123598490.682 7      -595.853 7        43.329               
E12  26588273.387 6 139723241.322 6     -2848.417 6        38.078               
E24  26984641.588 6 141806188.810 6     -3261.123 6        38.960               
E25  23711398.813 7 124605189.774 7     -1275.615 7        46.466               
E36  25255428.995 7 132718942.337 7      1822.013 7        44.780               
> 2025 01 06 18 47 48.0000000  0  7                                             
E02  25045647.451 7 131616398.066 7      1506.773 7        44.279               
E10  24639865.250 7 129484011.604 7     -2018.384 7        46.276               
E11  23519943.364 7 123599086.850 7      -597.261 7        43.572               
E12  26588813.156 6 139726090.644 6     -2851.928 6        38.609               
E24  26985264.547 6 141809450.166 6     -3261.821 6        38.930               
E25  23711640.599 7 124606466.217 7     -1277.148 7        46.245               
E36  25255080.486 7 132717121.965 7      1819.157 7        44.737               
> 2025 01 06 18 47 49.0000000  0  7                                             
E02  25045358.053 7 131614892.526 7      1505.429 7        44.441               
E10  24640249.809 7 129486030.279 7     -2018.574 7        46.064               
E11  23520057.092 7 123599684.120 7      -596.947 7        43.646               
E12  26589356.893 6 139728940.834 6     -2849.771 6        38.669               
E24  26985887.086 6 141812712.423 6     -3263.617 6        38.819               
E25  23711884.341 7 124607743.824 7     -1277.826 7        46.790               
E36  25254731.075 7 132715302.604 7      1818.951 7        44.774               
> 2025 01 06 18 47 50.0000000  0  7                                             
E02  25045073.480 7 131613386.726 7      1504.776 7        44.383               
E10  24640632.671 7 129488048.620 7     -2017.930 7        46.057               
E11  23520168.550 7 123600281.176 7      -597.880 7        43.769               
E12  26589896.251 6 139731790.580 6     -2850.058 6        38.608               
E24  26986501.771 6 141815974.286 6     -3262.403 6        38.874               
E25  23712124.009 7 124609021.273 7     -1278.141 7        46.791               
E36  25254383.925 7 132713482.934 7      1820.285 7        44.989               
> 2025 01 06 18 47 51.0000000  0  7                                             
E02  25044784.842 7 131611880.868 7      1505.590 7        43.900               
E10  24641015.934 7 129490066.894 7     -2019.312 7        46.184               
E11  23520281.544 7 123600878.243 7      -597.018 7        43.707               
E12  26590434.699 6 139734640.098 6     -2849.496 6        38.407               
E24  26987122.666 6 141819235.965 6     -3261.000 6        38.651               
E25  23712367.439 7 124610298.801 7     -1277.796 7        46.634               
E36  25254036.265 7 132711663.195 7      1818.074 7        44.840               
> 2025 01 06 18 47 52.0000000  0  7                                             
E02  25044495.659 7 131610375.495 7      1506.007 7        44.238               
E10  24641398.814 7 129492085.610 7     -2019.174 7        46.512               
E11  23520395.299 7 123601475.875 7      -596.830 7        43.755               
E12  26590979.650 6 139737489.956 6     -2849.415 6        38.276               
E24  26987741.390 6 141822497.996 6     -3263.368 6        38.762               
E25  23712609.198 7 124611576.927 7     -1278.711 7        47.052               
E36  25253689.570 7 132709843.925 7      1819.796 7        44.494               
> 2025 01 06 18 47 53.0000000  0  7                                             
E02  25044208.736 7 131608870.033 7      1506.034 7        44.508               
E10  24641779.138 7 129494104.196 7     -2017.882 7        46.282               
E11  23520506.533 7 123602073.497 7      -595.863 7        43.456               
E12  26591521.082 6 139740339.538 6     -2848.088 6        38.134               
E24  26988364.358 6 141825759.804 6     -3260.835 6        38.731               
E25  23712852.136 7 124612855.080 7     -1276.895 7        46.739               
E36  25253342.393 7 132708024.521 7      1820.306 7        44.222               
> 2025 01 06 18 47 54.0000000  0  7                                             
E02  25043918.409 7 131607364.259 7      1504.246 7        44.817               
E10  24642164.841 7 129496122.426 7     -2018.927 7        46.424               
E11  23520619.305 7 123602670.863 7      -598.923 7        43.526               
E12  26592062.504 6 139743188.626 6     -2850.103 6        38.016               
E24  26988979.839 6 141829021.152 6     -3262.460 6        38.828               
E25  23713095.334 7 124614133.039 7     -1279.259 7        46.747               
E36  25252994.564 7 132706204.785 7      1818.225 7        44.123               
> 2025 01 06 18 47 55.0000000  0  7                                             
E02  25043632.013 7 131605859.642 7      1503.897 7        44.872               
E10  24642547.399 7 129498141.779 7     -2019.957 7        46.733               
E11  23520732.389 7 123603269.420 7      -598.965 7        43.610               
E12  26592605.106 6 139746038.698 6     -2850.319 6        38.058               
E24  26989598.080 6 141832283.542 6     -3263.433 6        39.285               
E25  23713337.638 7 124615412.266 7     -1279.820 7        46.944               
E36  25252645.215 7 132704386.170 7      1817.923 7        44.639               
> 2025 01 06 18 47 56.0000000  0  7                                             
E02  25043345.385 7 131604355.809 7      1503.112 7        44.979               
E10  24642930.082 7 129500161.868 7     -2019.787 7        46.819               
E11  23520843.784 7 123603868.835 7      -599.827 7        43.500               
E12  26593144.473 6 139748889.393 6     -2851.850 6        38.367               
E24  26990221.048 6 141835546.601 6     -3263.147 6        39.348               
E25  23713579.959 7 124616692.397 7     -1280.475 7        46.952               
E36  25252299.110 7 132702568.319 7      1817.747 7        44.242               
> 2025 01 06 18 47 57.0000000  0  7                                             
E02  25043057.140 7 131602852.750 7      1503.615 7        44.767               
E10  24643314.141 7 129502182.709 7     -2020.939 7        46.726               
E11  23520957.324 7 123604469.118 7      -600.446 7        43.303               
E12  26593690.345 6 139751740.684 6     -2851.084 6        38.526               
E24  26990838.655 6 141838810.260 6     -3263.928 6        39.702               
E25  23713821.406 7 124617973.430 7     -1280.039 7        47.129               
E36  25251951.942 7 132700751.197 7      1816.921 7        43.912               
> 2025 01 06 18 47 58.0000000  0  7                                             
E02  25042769.591 7 131601349.794 7      1502.783 7        44.586               
E10  24643697.431 7 129504203.598 7     -2020.890 7        46.414               
E11  23521070.676 7 123605069.558 7      -600.233 7        43.554               
E12  26594228.096 6 139754591.911 6     -2852.284 6        38.513               
E24  26991459.818 6 141842073.909 6     -3263.145 6        39.655               
E25  23714065.077 7 124619254.667 7     -1281.392 7        47.192               
E36  25251606.873 7 132698934.154 7      1817.056 7        43.794               
> 2025 01 06 18 47 59.0000000  0  7                                             
E02  25042482.767 7 131599846.675 7      1503.984 7        44.223               
E10  24644081.875 7 129506224.302 7     -2020.579 7        46.363               
E11  23521187.164 7 123605669.903 7      -600.800 7        43.345               
E12  26594769.518 6 139757442.792 6     -2850.406 6        38.690               
E24  26992079.444 6 141845337.267 6     -3263.427 6        39.298               
E25  23714307.157 7 124620535.877 7     -1281.880 7        47.434               
E36  25251261.009 7 132697116.933 7      1816.940 7        43.768               
> 2025 01 06 18 48 00.0000000  0  7                                             
E02  25042194.647 7 131598343.722 7      1502.345 7        44.087               
E10  24644463.387 7 129508245.127 7     -2020.409 7        46.293               
E11  23521300.016 7 123606270.450 7      -600.845 7        43.312               
E12  26595313.407 6 139760293.680 6     -2851.893 6        38.570               
E24  26992699.642 6 141848600.642 6     -3264.264 6        39.284               
E25  23714548.541 7 124621817.349 7     -1280.847 7        47.478               
E36  25250913.734 7 132695299.844 7      1816.163 7        43.903               
> 2025 01 06 18 48 01.0000000  0  7                                             
E02  25041909.466 7 131596840.931 7      1501.983 7        44.106               
E10  24644848.348 7 129510266.073 7     -2021.214 7        46.404               
E11  23521411.322 7 123606871.265 7      -601.472 7        43.684               
E12  26595852.837 6 139763144.565 6     -2851.974 6        38.867               
E24  26993318.714 6 141851864.073 6     -3263.163 6        39.359               
E25  23714791.604 7 124623099.118 7     -1281.752 7        47.426               
E36  25250567.888 7 132693482.889 7      1817.604 7        43.801               
> 2025 01 06 18 48 02.0000000  0  7                                             
E02  25041624.848 7 131595338.547 7      1501.771 7        44.055               
E10  24645232.193 7 129512287.380 7     -2021.627 7        46.208               
E11  23521523.754 7 123607472.512 7      -601.294 7        44.000               
E12  26596392.955 6 139765995.660 6     -2851.141 6        38.595               
E24  26993941.316 6 141855127.719 6     -3264.111 6        39.239               
E25  23715036.213 7 124624381.395 7     -1283.268 7        47.285               
E36  25250221.014 7 132691666.297 7      1816.140 7        43.841               
> 2025 01 06 18 48 03.0000000  0  7                                             
E02  25041335.370 7 131593836.442 7      1501.925 7        44.233               
E10  24645613.321 7 129514308.931 7     -2020.830 7        45.945               
E11  23521636.418 7 123608074.120 7      -601.763 7        43.842               
E12  26596933.653 6 139768846.867 6     -2851.983 6        38.557               
E24  26994560.057 6 141858391.563 6     -3263.946 6        39.211               
E25  23715277.695 7 124625664.075 7     -1282.719 7        47.328               
E36  25249873.774 7 132689849.953 7      1816.139 7        43.604               
> 2025 01 06 18 48 04.0000000  0  7                                             
E02  25041047.849 7 131592334.475 7      1501.905 7        44.300               
E10  24645998.649 7 129516330.580 7     -2021.938 7        45.693               
E11  23521749.735 7 123608675.913 7      -602.394 7        43.819               
E12  26597478.730 6 139771698.055 6     -2852.254 6        38.911               
E24  26995181.971 6 141861655.404 6     -3265.322 6        39.248               
E25  23715522.751 7 124626947.009 7     -1283.022 7        47.386               
E36  25249525.731 7 132688033.732 7      1816.782 7        43.204               
> 2025 01 06 18 48 05.0000000  0  7                                             
E02  25040761.917 7 131590832.731 7      1501.560 7        43.974               
E10  24646381.466 7 129518352.408 7     -2021.737 7        45.984               
E11  23521863.015 7 123609278.013 7      -601.564 7        43.843               
E12  26598018.732 6 139774549.262 6     -2852.261 6        38.846               
E24  26995800.686 6 141864919.333 6     -3263.030 6        39.410               
E25  23715765.278 7 124628230.285 7     -1283.614 7        47.496               
E36  25249181.278 7 132686217.705 7      1817.153 7        43.533               
> 2025 01 06 18 48 06.0000000  0  7                                             
E02  25040475.414 7 131589331.428 7      1501.044 7        43.825               
E10  24646764.560 7 129520374.636 7     -2022.376 7        46.067               
E11  23521979.218 7 123609880.623 7      -602.763 7        43.676               
E12  26598561.557 6 139777400.756 6     -2852.029 6        38.683               
E24  26996418.212 6 141868183.529 6     -3263.799 6        39.381               
E25  23716006.984 7 124629514.103 7     -1284.600 7        47.482               
E36  25248834.726 7 132684402.064 7      1814.839 7        43.586               
> 2025 01 06 18 48 07.0000000  0  7                                             
E02  25040186.606 7 131587830.334 7      1501.267 7        43.774               
E10  24647149.405 7 129522397.039 7     -2022.514 7        46.070               
E11  23522089.470 7 123610483.494 7      -602.606 7        43.459               
E12  26599099.763 6 139780252.274 6     -2850.260 6        38.588               
E24  26997040.001 6 141871447.842 6     -3262.995 6        39.330               
E25  23716251.110 7 124630798.255 7     -1283.657 7        47.212               
E36  25248486.700 7 132682586.625 7      1814.025 7        43.607               
> 2025 01 06 18 48 08.0000000  0  7                                             
E02  25039899.013 7 131586328.997 7      1501.180 7        43.666               
E10  24647533.384 7 129524419.175 7     -2023.310 7        45.859               
E11  23522205.306 7 123611086.190 7      -604.117 7        43.330               
E12  26599639.506 6 139783103.395 6     -2854.098 6        38.178               
E24  26997657.912 6 141874711.780 6     -3265.234 6        39.233               
E25  23716494.701 7 124632082.294 7     -1285.069 7        47.106               
E36  25248141.846 7 132680770.922 7      1814.843 7        43.631               
> 2025 01 06 18 48 09.0000000  0  7                                             
E02  25039613.029 7 131584828.756 7      1500.590 7        43.787               
E10  24647916.612 7 129526442.347 7     -2023.398 7        45.747               
E11  23522318.434 7 123611690.016 7      -603.859 7        43.124               
E12  26600179.552 6 139785955.418 6     -2851.732 6        38.255               
E24  26998281.844 6 141877976.655 6     -3264.737 6        39.388               
E25  23716737.657 7 124633367.531 7     -1285.643 7        47.168               
E36  25247795.964 7 132678956.254 7      1814.650 7        43.674               
> 2025 01 06 18 48 10.0000000  0  7                                             
E02  25039325.194 7 131583328.163 7      1500.786 7        43.872               
E10  24648300.465 7 129528465.129 7     -2022.733 7        45.719               
E11  23522430.777 7 123612293.596 7      -603.824 7        43.408               
E12  26600725.666 6 139788806.891 6     -2851.668 6        38.393               
E24  26998900.979 6 141881241.046 6     -3263.973 6        39.207               
E25  23716982.016 7 124634652.544 7     -1285.594 7        47.359               
E36  25247447.295 7 132677141.240 7      1814.823 7        43.734               
> 2025 01 06 18 48 11.0000000  0  7                                             
E02  25039040.728 7 131581827.719 7      1500.069 7        43.741               
E10  24648684.470 7 129530488.014 7     -2023.414 7        45.716               
E11  23522544.835 7 123612897.385 7      -604.775 7        43.277               
E12  26601265.846 6 139791658.406 6     -2853.529 6        38.046               
E24  26999520.579 6 141884505.472 6     -3265.482 6        39.393               
E25  23717223.650 7 124635937.813 7     -1285.389 7        47.039               
E36  25247099.296 7 132675326.328 7      1814.097 7        43.722               
> 2025 01 06 18 48 12.0000000  0  7                                             
E02  25038753.886 7 131580327.991 7      1499.955 7        43.683               
E10  24649067.966 7 129532511.585 7     -2023.412 7        45.818               
E11  23522659.072 7 123613501.924 7      -606.240 7        43.282               
E12  26601803.230 6 139794510.414 6     -2852.775 6        37.878               
E24  27000144.100 6 141887770.449 6     -3265.225 6        39.330               
E25  23717469.715 7 124637223.917 7     -1285.636 7        47.296               
E36  25246750.082 7 132673512.108 7      1814.197 7        43.790               
> 2025 01 06 18 48 13.0000000  0  7                                             
E02  25038467.517 7 131578828.622 7      1499.432 7        43.800               
E10  24649451.998 7 129534535.473 7     -2023.965 7        46.102               
E11  23522774.059 7 123614106.892 7      -604.749 7        43.299               
E12  26602350.451 6 139797362.612 6     -2851.853 6        37.848               
E24  27000762.958 6 141891035.682 6     -3264.847 6        39.389               
E25  23717714.074 7 124638510.500 7     -1286.765 7        47.334               
E36  25246406.844 7 132671698.214 7      1813.400 7        43.660               
> 2025 01 06 18 48 14.0000000  0  7                                             
E02  25038183.399 7 131577329.511 7      1499.659 7        44.005               
E10  24649836.442 7 129536559.578 7     -2024.833 7        46.109               
E11  23522885.383 7 123614712.190 7      -606.001 7        43.394               
E12  26602890.319 6 139800214.912 6     -2850.660 6        38.113               
E24  27001382.138 6 141894301.025 6     -3265.351 6        39.453               
E25  23717956.950 7 124639797.446 7     -1287.088 7        47.418               
E36  25246061.168 7 132669884.550 7      1812.643 7        43.882               
> 2025 01 06 18 48 15.0000000  0  7                                             
E02  25037893.680 7 131575830.726 7      1498.345 7        44.341               
E10  24650220.384 7 129538583.959 7     -2024.316 7        45.820               
E11  23523003.640 7 123615317.878 7      -605.104 7        43.196               
E12  26603433.796 6 139803067.336 6     -2853.960 6        38.043               
E24  27002005.954 6 141897566.554 6     -3266.968 6        39.354               
E25  23718201.711 7 124641084.839 7     -1287.820 7        47.523               
E36  25245713.026 7 132668071.165 7      1815.242 7        43.740               
> 2025 01 06 18 48 16.0000000  0  7                                             
E02  25037609.652 7 131574332.291 7      1497.545 7        44.272               
E10  24650603.201 7 129540608.663 7     -2025.025 7        46.013               
E11  23523117.993 7 123615923.985 7      -606.206 7        43.472               
E12  26603975.362 6 139805919.975 6     -2854.001 6        37.781               
E24  27002619.800 6 141900832.310 6     -3266.151 6        38.924               
E25  23718444.560 7 124642372.710 7     -1288.867 7        47.464               
E36  25245367.287 7 132666258.120 7      1811.755 7        43.478               
> 2025 01 06 18 48 17.0000000  0  7                                             
E02  25037322.604 7 131572834.031 7      1498.506 7        44.399               
E10  24650988.681 7 129542633.493 7     -2024.503 7        46.120               
E11  23523230.291 7 123616530.308 7      -606.055 7        43.641               
E12  26604516.829 6 139808772.588 6     -2852.356 6        37.933               
E24  27003241.561 6 141904098.102 6     -3266.323 6        38.915               
E25  23718689.660 7 124643660.858 7     -1288.164 7        47.485               
E36  25245019.601 7 132664445.216 7      1812.399 7        43.535               
> 2025 01 06 18 48 18.0000000  0  7                                             
E02  25037037.048 7 131571335.952 7      1497.909 7        44.479               
E10  24651373.678 7 129544658.462 7     -2025.025 7        46.146               
E11  23523345.787 7 123617136.888 7      -606.541 7        43.459               
E12  26605063.782 6 139811625.219 6     -2851.303 6        37.941               
E24  27003863.520 6 141907363.912 6     -3265.826 6        39.123               
E25  23718933.045 7 124644949.308 7     -1289.322 7        47.373               
E36  25244675.604 7 132662632.451 7      1812.162 7        43.478               
> 2025 01 06 18 48 19.0000000  0  7                                             
E02  25036750.617 7 131569838.219 7      1496.869 7        44.202               
E10  24651757.379 7 129546683.740 7     -2024.602 7        46.135               
E11  23523459.086 7 123617743.887 7      -606.624 7        43.706               
E12  26605601.711 6 139814477.990 6     -2852.065 6        38.160               
E24  27004486.362 6 141910629.964 6     -3265.548 6        39.028               
E25  23719177.761 7 124646238.209 7     -1289.685 7        47.320               
E36  25244329.258 7 132660820.010 7      1811.328 7        43.624               
> 2025 01 06 18 48 20.0000000  0  7                                             
E02  25036464.051 7 131568340.812 7      1497.286 7        44.327               
E10  24652141.090 7 129548709.304 7     -2025.971 7        46.245               
E11  23523574.099 7 123618351.276 7      -606.988 7        43.589               
E12  26606142.401 6 139817330.933 6     -2855.332 6        38.240               
E24  27005102.272 6 141913896.169 6     -3265.162 6        39.009               
E25  23719421.691 7 124647527.570 7     -1289.488 7        47.413               
E36  25243985.440 7 132659007.868 7      1812.727 7        43.695               
> 2025 01 06 18 48 21.0000000  0  7                                             
E02  25036177.682 7 131566843.621 7      1497.608 7        44.550               
E10  24652525.649 7 129550735.031 7     -2026.373 7        46.276               
E11  23523688.863 7 123618958.915 7      -608.604 7        43.471               
E12  26606680.366 6 139820183.933 6     -2851.943 6        38.045               
E24  27005724.873 6 141917162.492 6     -3266.774 6        39.079               
E25  23719665.925 7 124648817.252 7     -1290.197 7        47.439               
E36  25243638.540 7 132657195.907 7      1811.525 7        43.498               
> 2025 01 06 18 48 22.0000000  0  7                                             
E02  25035893.261 7 131565346.866 7      1495.963 7        44.229               
E10  24652910.932 7 129552761.170 7     -2025.393 7        46.676               
E11  23523801.554 7 123619567.074 7      -608.445 7        43.377               
E12  26607222.655 6 139823037.149 6     -2851.028 6        38.153               
E24  27006342.766 6 141920429.086 6     -3264.915 6        39.046               
E25  23719909.650 7 124650107.484 7     -1289.621 7        47.432               
E36  25243292.283 7 132655384.354 7      1812.310 7        43.557               
> 2025 01 06 18 48 23.0000000  0  7                                             
E02  25035604.363 7 131563850.325 7      1496.549 7        44.372               
E10  24653294.374 7 129554787.466 7     -2026.232 7        46.213               
E11  23523919.132 7 123620175.521 7      -608.763 7        43.489               
E12  26607766.749 6 139825890.464 6     -2854.372 6        38.201               
E24  27006964.590 6 141923695.788 6     -3265.994 6        39.211               
E25  23720154.554 7 124651398.054 7     -1291.079 7        47.236               
E36  25242946.401 7 132653572.999 7      1811.842 7        43.481               
> 2025 01 06 18 48 24.0000000  0  7                                             
E02  25035322.051 7 131562353.933 7      1495.825 7        44.679               
E10  24653679.729 7 129556813.866 7     -2025.915 7        46.170               
E11  23524033.628 7 123620784.163 7      -609.228 7        43.656               
E12  26608309.484 6 139828743.720 6     -2854.467 6        38.135               
E24  27007584.887 6 141926962.466 6     -3267.070 6        39.001               
E25  23720398.609 7 124652688.871 7     -1290.839 7        47.079               
E36  25242600.072 7 132651761.735 7      1812.130 7        43.520               
> 2025 01 06 18 48 25.0000000  0  7                                             
E02  25035035.780 7 131560857.959 7      1495.129 7        44.295               
E10  24654064.485 7 129558840.659 7     -2026.891 7        45.879               
E11  23524146.328 7 123621393.280 7      -610.148 7        43.432               
E12  26608854.356 6 139831597.209 6     -2853.639 6        37.988               
E24  27008203.164 6 141930229.460 6     -3267.627 6        39.092               
E25  23720642.056 7 124653980.247 7     -1291.216 7        46.730               
E36  25242254.852 7 132649950.892 7      1810.750 7        43.530               
> 2025 01 06 18 48 26.0000000  0  7                                             
E02  25034749.357 7 131559362.337 7      1496.072 7        44.640               
E10  24654449.205 7 129560867.758 7     -2027.454 7        46.094               
E11  23524261.012 7 123622002.795 7      -609.918 7        43.583               
E12  26609389.167 6 139834450.883 6     -2854.351 6        37.820               
E24  27008824.300 6 141933496.668 6     -3266.822 6        39.187               
E25  23720886.567 7 124655272.072 7     -1292.111 7        46.991               
E36  25241909.890 7 132648140.348 7      1807.756 7        43.713               
> 2025 01 06 18 48 27.0000000  0  7                                             
E02  25034465.463 7 131557866.919 7      1495.619 7        44.657               
E10  24654832.388 7 129562895.016 7     -2027.331 7        46.143               
E11  23524377.375 7 123622612.616 7      -609.030 7        43.737               
E12  26609934.064 6 139837304.626 6     -2853.811 6        37.609               
E24  27009447.536 6 141936763.937 6     -3268.836 6        38.971               
E25  23721130.372 7 124656564.240 7     -1291.507 7        47.004               
E36  25241563.160 7 132646329.992 7      1809.243 7        43.710               
> 2025 01 06 18 48 28.0000000  0  7                                             
E02  25034178.987 7 131556371.866 7      1494.233 7        44.303               
E10  24655218.663 7 129564922.580 7     -2027.580 7        46.280               
E11  23524491.754 7 123623222.852 7      -610.112 7        43.599               
E12  26610474.343 6 139840158.472 6     -2854.258 6        37.457               
E24  27010068.752 6 141940031.413 6     -3267.193 6        38.922               
E25  23721376.330 7 124657856.847 7     -1292.773 7        46.942               
E36  25241218.806 7 132644519.941 7      1810.790 7        43.831               
> 2025 01 06 18 48 29.0000000  0  7                                             
E02  25033893.431 7 131554877.071 7      1494.939 7        44.405               
E10  24655602.659 7 129566950.381 7     -2027.570 7        46.345               
E11  23524608.636 7 123623833.395 7      -611.312 7        43.255               
E12  26611019.009 6 139843012.458 6     -2853.517 6        37.774               
E24  27010686.895 6 141943299.027 6     -3267.640 6        38.710               
E25  23721622.020 7 124659149.855 7     -1292.905 7        46.617               
E36  25240873.710 7 132642710.140 7      1809.404 7        43.998               
> 2025 01 06 18 48 30.0000000  0  7                                             
E02  25033605.150 7 131553382.386 7      1494.331 7        44.214               
E10  24655987.209 7 129568978.252 7     -2027.672 7        46.328               
E11  23524722.792 7 123624444.114 7      -612.389 7        43.603               
E12  26611558.528 6 139845866.381 6     -2854.462 6        37.573               
E24  27011308.005 6 141946566.634 6     -3267.312 6        38.962               
E25  23721866.629 7 124660443.082 7     -1292.835 7        46.975               
E36  25240527.051 7 132640900.427 7      1810.488 7        44.104               
> 2025 01 06 18 48 31.0000000  0  7                                             
E02  25033321.998 7 131551887.916 7      1494.839 7        44.367               
E10  24656373.189 7 129571006.294 7     -2028.806 7        46.305               
E11  23524837.502 7 123625055.113 7      -610.402 7        43.432               
E12  26612105.642 6 139848720.328 6     -2850.951 6        37.626               
E24  27011928.846 6 141949834.288 6     -3268.926 6        39.266               
E25  23722111.551 7 124661736.650 7     -1294.434 7        47.176               
E36  25240182.474 7 132639090.884 7      1809.966 7        44.013               
> 2025 01 06 18 48 32.0000000  0  7                                             
E02  25033036.263 7 131550393.697 7      1492.817 7        44.711               
E10  24656757.543 7 129573034.531 7     -2028.993 7        46.382               
E11  23524951.837 7 123625666.425 7      -611.076 7        43.489               
E12  26612638.389 6 139851574.358 6     -2852.666 6        37.592               
E24  27012549.330 6 141953102.061 6     -3268.333 6        39.193               
E25  23722356.303 7 124663030.559 7     -1293.186 7        47.049               
E36  25239836.021 7 132637281.569 7      1809.747 7        44.377               
> 2025 01 06 18 48 33.0000000  0  7                                             
E02  25032750.573 7 131548899.776 7      1494.158 7        44.671               
E10  24657142.871 7 129575063.024 7     -2028.805 7        46.199               
E11  23525068.137 7 123626278.096 7      -612.793 7        43.321               
E12  26613181.098 6 139854428.510 6     -2856.266 6        37.617               
E24  27013172.905 6 141956370.003 6     -3268.644 6        38.959               
E25  23722603.110 7 124664324.886 7     -1294.527 7        46.845               
E36  25239492.426 7 132635472.516 7      1808.445 7        44.156               
> 2025 01 06 18 48 34.0000000  0  7                                             
E02  25032465.223 7 131547405.823 7      1494.925 7        44.447               
E10  24657527.278 7 129577091.456 7     -2028.009 7        46.527               
E11  23525183.714 7 123626889.790 7      -611.667 7        43.368               
E12  26613725.916 6 139857282.434 6     -2852.700 6        37.478               
E24  27013790.316 6 141959637.766 6     -3267.227 6        39.124               
E25  23722847.684 7 124665619.328 7     -1294.818 7        46.898               
E36  25239143.078 7 132633663.411 7      1809.463 7        44.299               
> 2025 01 06 18 48 35.0000000  0  7                                             
E02  25032179.649 7 131545912.075 7      1492.827 7        44.402               
E10  24657912.463 7 129579120.036 7     -2029.371 7        45.728               
E11  23525300.533 7 123627501.750 7      -612.102 7        43.338               
E12  26614269.956 6 139860136.403 6     -2856.019 6        37.648               
E24  27014412.006 6 141962905.605 6     -3267.016 6        38.907               
E25  23723092.739 7 124666914.053 7     -1295.099 7        47.085               
E36  25238801.726 7 132631854.449 7      1808.774 7        44.263               
> 2025 01 06 18 48 36.0000000  0  7                                             
E02  25031893.432 7 131544418.905 7      1491.802 7        44.360               
E10  24658296.486 7 129581149.166 7     -2029.277 7        45.995               
E11  23525413.501 7 123628114.369 7      -612.310 7        43.821               
E12  26614807.385 6 139862990.764 6     -2856.189 6        37.757               
E24  27015034.447 6 141966173.877 6     -3269.048 6        38.606               
E25  23723336.991 7 124668209.490 7     -1296.105 7        47.100               
E36  25238455.433 7 132630046.076 7      1808.717 7        44.038               
> 2025 01 06 18 48 37.0000000  0  7                                             
E02  25031608.323 7 131542925.677 7      1493.343 7        44.247               
E10  24658681.117 7 129583178.193 7     -2029.191 7        45.836               
E11  23525528.586 7 123628726.988 7      -611.790 7        43.804               
E12  26615349.486 6 139865844.914 6     -2852.161 6        37.404               
E24  27015655.431 6 141969441.967 6     -3268.016 6        38.680               
E25  23723582.654 7 124669504.980 7     -1295.735 7        47.220               
E36  25238111.106 7 132628237.602 7      1808.544 7        43.996               
> 2025 01 06 18 48 38.0000000  0  7                                             
E02  25031324.715 7 131541432.363 7      1493.600 7        44.358               
E10  24659067.865 7 129585207.083 7     -2028.809 7        45.438               
E11  23525645.441 7 123629339.569 7      -614.554 7        43.503               
E12  26615891.874 6 139868698.798 6     -2856.085 6        37.506               
E24  27016275.495 6 141972709.835 6     -3268.723 6        39.226               
E25  23723829.157 7 124670800.504 7     -1296.343 7        47.022               
E36  25237766.484 7 132626429.011 7      1808.590 7        44.200               
> 2025 01 06 18 48 39.0000000  0  7                                             
E02  25031039.373 7 131539939.797 7      1492.089 7        44.437               
E10  24659451.334 7 129587236.682 7     -2029.805 7        46.160               
E11  23525760.705 7 123629952.952 7      -614.285 7        43.285               
E12  26616429.258 6 139871553.259 6     -2854.762 6        37.433               
E24  27016895.916 6 141975978.317 6     -3267.976 6        39.177               
E25  23724074.508 7 124672096.891 7     -1296.141 7        47.053               
E36  25237419.834 7 132624621.132 7      1806.931 7        44.385               
> 2025 01 06 18 48 40.0000000  0  7                                             
E02  25030752.736 7 131538447.769 7      1492.675 7        44.323               
E10  24659837.510 7 129589266.767 7     -2029.186 7        46.151               
E11  23525876.827 7 123630566.943 7      -613.343 7        43.015               
E12  26616975.558 6 139874408.045 6     -2854.284 6        37.500               
E24  27017520.224 6 141979247.198 6     -3270.715 6        38.719               
E25  23724319.975 7 124673393.921 7     -1297.731 7        47.320               
E36  25237076.606 7 132622813.748 7      1808.086 7        44.492               
> 2025 01 06 18 48 41.0000000  0  7                                             
E02  25030469.146 7 131536956.118 7      1491.461 7        44.503               
E10  24660222.954 7 129591297.186 7     -2030.884 7        46.146               
E11  23525992.288 7 123631181.374 7      -614.791 7        43.394               
E12  26617518.509 6 139877263.014 6     -2853.991 6        37.702               
E24  27018136.491 6 141982516.295 6     -3267.764 6        38.578               
E25  23724565.647 7 124674691.436 7     -1297.667 7        47.078               
E36  25236731.635 7 132621006.729 7      1806.087 7        44.359               
> 2025 01 06 18 48 42.0000000  0  7                                             
E02  25030182.527 7 131535464.912 7      1490.585 7        44.551               
E10  24660606.942 7 129593328.008 7     -2031.318 7        45.939               
E11  23526107.909 7 123631796.298 7      -615.689 7        43.257               
E12  26618062.844 6 139880118.297 6     -2855.532 6        37.438               
E24  27018757.180 6 141985785.711 6     -3269.564 6        38.308               
E25  23724811.918 7 124675989.512 7     -1297.971 7        47.245               
E36  25236385.325 7 132619200.090 7      1807.071 7        44.517               
> 2025 01 06 18 48 43.0000000  0  7                                             
E02  25029901.438 7 131533973.971 7      1491.574 7        44.443               
E10  24660994.932 7 129595359.059 7     -2030.984 7        45.805               
E11  23526224.817 7 123632411.539 7      -615.212 7        43.153               
E12  26618606.205 6 139882973.677 6     -2855.783 6        37.518               
E24  27019380.041 6 141989055.252 6     -3268.988 6        38.234               
E25  23725057.680 7 124677287.986 7     -1298.520 7        47.532               
E36  25236040.828 7 132617393.727 7      1806.728 7        44.532               
> 2025 01 06 18 48 44.0000000  0  7                                             
E02  25029614.390 7 131532482.982 7      1491.307 7        44.235               
E10  24661378.642 7 129597390.003 7     -2030.844 7        45.731               
E11  23526340.296 7 123633026.818 7      -615.226 7        43.080               
E12  26619147.601 6 139885828.805 6     -2853.800 6        37.801               
E24  27020003.036 6 141992324.611 6     -3268.966 6        38.454               
E25  23725303.468 7 124678586.510 7     -1298.331 7        47.272               
E36  25235698.430 7 132615587.258 7      1806.206 7        44.580               
> 2025 01 06 18 48 45.0000000  0  7                                             
E02  25029330.764 7 131530992.189 7      1489.382 7        44.365               
E10  24661765.033 7 129599421.108 7     -2031.867 7        45.772               
E11  23526455.962 7 123633642.355 7      -614.933 7        43.278               
E12  26619690.703 6 139888683.965 6     -2856.322 6        37.897               
E24  27020623.234 6 141995594.020 6     -3268.392 6        38.342               
E25  23725549.498 7 124679885.345 7     -1298.921 7        46.990               
E36  25235350.181 7 132613780.959 7      1806.178 7        44.534               
> 2025 01 06 18 48 46.0000000  0  7                                             
E02  25029044.029 7 131529501.456 7      1490.243 7        44.800               
E10  24662150.012 7 129601452.232 7     -2030.857 7        45.995               
E11  23526571.700 7 123634257.998 7      -617.055 7        43.521               
E12  26620228.301 6 139891539.008 6     -2854.368 6        37.624               
E24  27021244.897 6 141998863.344 6     -3269.547 6        38.395               
E25  23725797.207 7 124681184.360 7     -1299.028 7        46.956               
E36  25235003.745 7 132611974.697 7      1806.984 7        44.429               
> 2025 01 06 18 48 47.0000000  0  7                                             
E02  25028758.660 7 131528010.847 7      1491.118 7        44.540               
E10  24662537.931 7 129603483.441 7     -2031.875 7        46.395               
E11  23526689.403 7 123634873.832 7      -616.080 7        43.594               
E12  26620773.673 6 139894394.000 6     -2854.318 6        37.494               
E24  27021863.031 6 142002132.692 6     -3268.385 6        38.356               
E25  23726040.869 7 124682483.623 7     -1299.234 7        46.947               
E36  25234662.483 7 132610168.540 7      1806.304 7        44.131               
> 2025 01 06 18 48 48.0000000  0  7                                             
E02  25028477.849 7 131526520.351 7      1490.310 7        44.633               
E10  24662923.205 7 129605514.714 7     -2031.635 7        46.151               
E11  23526805.426 7 123635489.832 7      -615.049 7        43.703               
E12  26621315.703 6 139897248.930 6     -2855.586 6        37.718               
E24  27022484.927 6 142005401.976 6     -3268.603 6        38.615               
E25  23726288.480 7 124683783.099 7     -1299.323 7        47.195               
E36  25234316.136 7 132608362.447 7      1807.132 7        44.085               
> 2025 01 06 18 48 49.0000000  0  7                                             
E02  25028190.684 7 131525030.149 7      1489.455 7        44.725               
E10  24663307.800 7 129607546.230 7     -2032.132 7        46.117               
E11  23526920.092 7 123636106.208 7      -615.396 7        43.551               
E12  26621859.207 6 139900103.951 6     -2854.209 6        37.346               
E24  27023103.686 6 142008671.418 6     -3270.339 6        38.530               
E25  23726536.046 7 124685082.990 7     -1300.121 7        47.230               
E36  25233971.657 7 132606556.627 7      1806.171 7        44.106               
> 2025 01 06 18 48 50.0000000  0  7                                             
E02  25027908.282 7 131523540.259 7      1489.949 7        44.544               
E10  24663692.377 7 129609578.020 7     -2032.568 7        45.993               
E11  23527037.491 7 123636722.941 7      -617.293 7        43.855               
E12  26622397.905 6 139902959.116 6     -2855.006 6        37.506               
E24  27023725.242 6 142011941.065 6     -3268.689 6        38.330               
E25  23726780.870 7 124686383.295 7     -1300.512 7        47.257               
E36  25233627.000 7 132604751.072 7      1805.920 7        44.077               
> 2025 01 06 18 48 51.0000000  0  7                                             
E02  25027623.129 7 131522050.716 7      1489.197 7        44.872               
E10  24664078.446 7 129611610.112 7     -2032.842 7        46.269               
E11  23527153.211 7 123637340.064 7      -617.693 7        43.809               
E12  26622940.506 6 139905814.454 6     -2857.152 6        37.620               
E24  27024343.037 6 142015210.874 6     -3270.329 6        38.247               
E25  23727027.337 7 124687684.069 7     -1300.414 7        47.043               
E36  25233281.180 7 132602945.842 7      1805.173 7        44.152               
> 2025 01 06 18 48 52.0000000  0  7                                             
E02  25027336.840 7 131520561.326 7      1490.819 7        44.703               
E10  24664462.639 7 129613642.311 7     -2032.405 7        45.916               
E11  23527270.003 7 123637957.418 7      -617.675 7        43.449               
E12  26623487.039 6 139908669.745 6     -2854.147 6        37.427               
E24  27024968.489 6 142018480.767 6     -3270.613 6        38.262               
E25  23727274.734 7 124688985.124 7     -1301.852 7        46.720               
E36  25232939.766 7 132601140.749 7      1803.850 7        43.914               
> 2025 01 06 18 48 53.0000000  0  7                                             
E02  25027053.947 7 131519072.256 7      1488.169 7        44.458               
E10  24664849.610 7 129615674.792 7     -2032.857 7        46.367               
E11  23527387.787 7 123638575.177 7      -617.115 7        43.330               
E12  26624028.078 6 139911525.234 6     -2856.572 6        37.085               
E24  27025585.283 6 142021750.784 6     -3271.357 6        38.125               
E25  23727522.229 7 124690286.610 7     -1301.931 7        46.889               
E36  25232592.758 7 132599335.932 7      1804.530 7        43.814               
> 2025 01 06 18 48 54.0000000  0  7                                             
E02  25026766.729 7 131517583.847 7      1488.107 7        44.340               
E10  24665233.723 7 129617707.878 7     -2033.630 7        46.168               
E11  23527501.604 7 123639193.621 7      -618.991 7        43.559               
E12  26624569.027 6 139914381.164 6     -2856.832 6        36.773               
E24  27026209.537 6 142025021.315 6     -3268.884 6        38.175               
E25  23727768.071 7 124691588.840 7     -1302.521 7        46.704               
E36  25232249.870 7 132597531.744 7      1803.130 7        43.875               
> 2025 01 06 18 48 55.0000000  0  7                                             
E02  25026485.104 7 131516095.394 7      1488.822 7        44.832               
E10  24665619.882 7 129619740.878 7     -2032.279 7        46.160               
E11  23527619.280 7 123639812.086 7      -618.628 7        43.380               
E12  26625111.235 6 139917236.877 6     -2855.515 6        36.999               
E24  27026833.175 6 142028291.710 6     -3270.570 6        38.014               
E25  23728013.502 7 124692891.164 7     -1301.664 7        46.991               
E36  25231904.596 7 132595727.470 7      1804.366 7        44.281               
> 2025 01 06 18 48 56.0000000  0  7                                             
E02  25026202.086 7 131514606.561 7      1487.913 7        44.867               
E10  24666005.620 7 129621773.449 7     -2033.300 7        46.387               
E11  23527737.055 7 123640430.209 7      -618.580 7        43.631               
E12  26625652.390 6 139920092.011 6     -2853.378 6        37.185               
E24  27027456.500 6 142031561.537 6     -3270.232 6        38.164               
E25  23728261.685 7 124694193.213 7     -1302.607 7        47.320               
E36  25231559.625 7 132593922.790 7      1803.074 7        44.071               
> 2025 01 06 18 48 57.0000000  0  7                                             
E02  25025915.359 7 131513118.468 7      1487.342 7        44.849               
E10  24666389.956 7 129623806.719 7     -2032.898 7        46.353               
E11  23527852.149 7 123641049.157 7      -618.633 7        43.776               
E12  26626198.708 6 139922947.729 6     -2857.714 6        37.122               
E24  27028073.160 6 142034832.009 6     -3271.340 6        38.160               
E25  23728508.447 7 124695496.119 7     -1303.144 7        47.189               
E36  25231214.324 7 132592118.829 7      1803.112 7        43.892               
> 2025 01 06 18 48 58.0000000  0  7                                             
E02  25025631.778 7 131511630.947 7      1487.594 7        44.580               
E10  24666776.704 7 129625840.518 7     -2033.325 7        46.595               
E11  23527968.619 7 123641668.749 7      -619.473 7        43.813               
E12  26626733.626 6 139925803.835 6     -2854.211 6        37.269               
E24  27028694.886 6 142038102.887 6     -3271.084 6        38.110               
E25  23728755.406 7 124696799.709 7     -1303.094 7        47.245               
E36  25230870.229 7 132590315.396 7      1803.277 7        44.204               
> 2025 01 06 18 48 59.0000000  0  7                                             
E02  25025346.374 7 131510143.463 7      1487.768 7        44.802               
E10  24667163.140 7 129627874.312 7     -2034.712 7        46.595               
E11  23528084.714 7 123642288.432 7      -620.823 7        43.586               
E12  26627277.381 6 139928659.820 6     -2857.253 6        37.376               
E24  27029319.757 6 142041373.663 6     -3271.918 6        38.592               
E25  23729001.659 7 124698103.461 7     -1304.255 7        47.600               
E36  25230528.163 7 132588511.993 7      1803.883 7        44.304               
> 2025 01 06 18 49 00.0000000  0  7                                             
E02  25025062.390 7 131508656.402 7      1487.046 7        44.883               
E10  24667546.814 7 129629908.479 7     -2034.476 7        46.779               
E11  23528203.534 7 123642908.573 7      -620.219 7        43.841               
E12  26627822.779 6 139931516.035 6     -2856.716 6        37.877               
E24  27029939.445 6 142044644.699 6     -3271.291 6        38.433               
E25  23729248.653 7 124699407.730 7     -1304.162 7        47.803               
E36  25230183.273 7 132586708.949 7      1803.250 7        44.290               
> 2025 01 06 18 49 01.0000000  0  7                                             
E02  25024779.381 7 131507169.388 7      1486.030 7        44.597               
E10  24667933.947 7 129631942.642 7     -2034.595 7        46.415               
E11  23528319.585 7 123643528.842 7      -620.462 7        43.716               
E12  26628363.183 6 139934372.100 6     -2856.710 6        37.997               
E24  27030560.984 6 142047915.682 6     -3270.348 6        38.792               
E25  23729496.613 7 124700712.176 7     -1304.780 7        47.818               
E36  25229837.462 7 132584905.942 7      1801.704 7        44.458               
> 2025 01 06 18 49 02.0000000  0  7                                             
E02  25024495.710 7 131505682.883 7      1486.771 7        44.218               
E10  24668321.615 7 129633977.283 7     -2034.546 7        46.136               
E11  23528436.940 7 123644149.694 7      -621.088 7        43.531               
E12  26628906.687 6 139937228.528 6     -2857.121 6        37.677               
E24  27031182.227 6 142051187.036 6     -3270.028 6        38.735               
E25  23729742.401 8 124702017.245 8     -1305.036 8        48.010               
E36  25229495.128 7 132583103.403 7      1802.741 7        44.451               
> 2025 01 06 18 49 03.0000000  0  7                                             
E02  25024210.386 7 131504196.869 7      1485.923 7        44.312               
E10  24668707.827 7 129636012.350 7     -2035.355 7        45.670               
E11  23528554.053 7 123644771.067 7      -622.031 7        43.552               
E12  26629447.529 6 139940085.226 6     -2856.062 6        37.751               
E24  27031802.577 6 142054458.712 6     -3271.176 6        38.645               
E25  23729990.414 7 124703322.904 7     -1305.857 7        47.628               
E36  25229149.523 7 132581301.325 7      1801.379 7        44.307               
> 2025 01 06 18 49 04.0000000  0  7                                             
E02  25023926.876 7 131502711.290 7      1485.650 7        44.516               
E10  24669094.272 7 129638047.807 7     -2035.485 7        45.973               
E11  23528671.989 7 123645392.926 7      -622.243 7        43.665               
E12  26629995.483 6 139942942.204 6     -2856.842 6        37.591               
E24  27032431.540 6 142057730.690 6     -3271.339 6        38.573               
E25  23730237.311 7 124704629.111 7     -1306.823 7        47.416               
E36  25228808.082 7 132579499.629 7      1802.359 7        44.239               
> 2025 01 06 18 49 05.0000000  0  7                                             
E02  25023646.029 7 131501225.881 7      1485.591 7        44.580               
E10  24669478.599 7 129640083.414 7     -2035.627 7        45.717               
E11  23528786.440 7 123646015.044 7      -622.064 7        43.755               
E12  26630540.273 6 139945799.164 6     -2857.097 6        37.756               
E24  27033045.260 6 142061002.736 6     -3271.515 6        38.562               
E25  23730486.289 7 124705935.609 7     -1307.173 7        47.599               
E36  25228462.700 7 132577698.101 7      1802.685 7        44.240               
> 2025 01 06 18 49 06.0000000  0  7                                             
E02  25023359.624 7 131499741.001 7      1484.429 7        44.775               
E10  24669863.372 7 129642119.464 7     -2036.233 7        45.948               
E11  23528905.671 7 123646637.733 7      -622.593 7        43.910               
E12  26631084.001 6 139948656.479 6     -2857.840 6        37.464               
E24  27033669.550 6 142064275.103 6     -3271.029 6        38.821               
E25  23730734.302 7 124707242.742 7     -1307.248 7        47.513               
E36  25228118.739 7 132575897.055 7      1802.179 7        44.209               
> 2025 01 06 18 49 07.0000000  0  7                                             
E02  25023075.194 7 131498256.093 7      1485.048 7        44.921               
E10  24670253.221 7 129644155.472 7     -2036.113 7        45.662               
E11  23529023.231 7 123647260.468 7      -622.777 7        43.953               
E12  26631620.438 6 139951513.580 6     -2856.174 6        37.464               
E24  27034289.659 6 142067547.341 6     -3273.169 6        38.877               
E25  23730979.787 7 124708549.967 7     -1307.594 7        47.295               
E36  25227776.994 7 132574095.964 7      1801.544 7        44.247               
> 2025 01 06 18 49 08.0000000  0  7                                             
E02  25022792.980 7 131496771.048 7      1484.994 7        44.566               
E10  24670639.442 7 129646191.289 7     -2035.269 7        45.873               
E11  23529141.006 7 123647883.096 7      -623.702 7        43.657               
E12  26632164.987 6 139954370.373 6     -2856.292 6        37.701               
E24  27034914.208 6 142070819.310 6     -3272.903 6        38.804               
E25  23731229.872 7 124709857.173 7     -1307.066 7        47.444               
E36  25227431.702 7 132572294.706 7      1801.093 7        44.534               
> 2025 01 06 18 49 09.0000000  0  7                                             
E02  25022510.140 7 131495286.455 7      1484.396 7        44.527               
E10  24671024.216 7 129648227.507 7     -2037.212 7        45.792               
E11  23529256.225 7 123648506.233 7      -623.407 7        43.594               
E12  26632709.126 6 139957227.459 6     -2860.543 6        37.970               
E24  27035535.755 6 142074091.555 6     -3270.637 6        38.802               
E25  23731477.055 7 124711164.938 7     -1308.348 7        47.393               
E36  25227090.055 7 132570493.849 7      1801.590 7        44.205               
> 2025 01 06 18 49 10.0000000  0  7                                             
E02  25022224.477 7 131493802.546 7      1483.607 7        44.495               
E10  24671412.652 7 129650264.371 7     -2037.230 7        45.767               
E11  23529374.536 7 123649130.152 7      -622.867 7        43.822               
E12  26633250.781 6 139960085.011 6     -2859.162 6        37.830               
E24  27036156.740 6 142077364.384 6     -3271.867 6        38.823               
E25  23731724.049 7 124712473.502 7     -1308.909 7        47.413               
E36  25226743.593 7 132568693.658 7      1799.354 7        44.217               
> 2025 01 06 18 49 11.0000000  0  7                                             
E02  25021941.708 7 131492319.192 7      1483.736 7        44.604               
E10  24671797.819 7 129652301.729 7     -2037.609 7        45.850               
E11  23529492.981 7 123649754.650 7      -625.186 7        43.423               
E12  26633792.543 6 139962942.936 6     -2857.044 6        37.771               
E24  27036775.830 6 142080637.601 6     -3274.047 6        38.884               
E25  23731972.732 7 124713782.731 7     -1309.763 7        47.554               
E36  25226400.391 7 132566893.970 7      1800.309 7        44.305               
> 2025 01 06 18 49 12.0000000  0  7                                             
E02  25021658.225 7 131490836.266 7      1481.211 7        44.241               
E10  24672184.952 7 129654339.481 7     -2037.386 7        45.946               
E11  23529610.702 7 123650379.652 7      -625.508 7        43.228               
E12  26634339.880 6 139965801.120 6     -2856.669 6        38.002               
E24  27037399.289 6 142083911.132 6     -3274.472 6        38.828               
E25  23732220.853 7 124715092.501 7     -1309.983 7        47.632               
E36  25226058.593 7 132565094.716 7      1798.825 7        44.665               
> 2025 01 06 18 49 13.0000000  0  7                                             
E02  25021374.778 7 131489353.184 7      1483.588 7        44.179               
E10  24672571.244 7 129656377.036 7     -2037.072 7        46.166               
E11  23529729.192 7 123651004.535 7      -624.512 7        43.069               
E12  26634879.042 6 139968658.978 6     -2858.007 6        38.145               
E24  27038018.477 6 142087184.352 6     -3270.454 6        38.918               
E25  23732468.678 7 124716402.226 7     -1309.251 7        47.670               
E36  25225714.739 7 132563295.243 7      1800.190 7        44.601               
> 2025 01 06 18 49 14.0000000  0  7                                             
E02  25021091.473 7 131487870.196 7      1482.824 7        44.391               
E10  24672958.779 7 129658414.640 7     -2038.362 7        45.963               
E11  23529847.181 7 123651629.592 7      -625.056 7        42.950               
E12  26635422.350 6 139971516.741 6     -2857.157 6        38.514               
E24  27038638.952 6 142090457.507 6     -3272.284 6        38.853               
E25  23732716.656 7 124717712.165 7     -1310.149 7        47.856               
E36  25225368.178 7 132561495.843 7      1798.944 7        44.619               
> 2025 01 06 18 49 15.0000000  0  7                                             
E02  25020806.838 7 131486387.396 7      1482.450 7        44.069               
E10  24673344.749 7 129660452.366 7     -2037.679 7        46.113               
E11  23529963.222 7 123652254.899 7      -625.878 7        42.926               
E12  26635964.791 6 139974374.524 6     -2857.493 6        38.535               
E24  27039265.324 6 142093730.732 6     -3273.717 6        38.955               
E25  23732966.348 8 124719022.397 8     -1310.232 8        48.131               
E36  25225028.578 7 132559696.607 7      1799.506 7        44.447               
> 2025 01 06 18 49 16.0000000  0  7                                             
E02  25020522.944 7 131484904.773 7      1482.293 7        44.232               
E10  24673732.561 7 129662490.220 7     -2037.630 7        45.741               
E11  23530080.523 7 123652880.424 7      -626.056 7        42.739               
E12  26636510.296 6 139977232.287 6     -2856.449 6        38.760               
E24  27039887.800 6 142097003.983 6     -3274.286 6        39.050               
E25  23733213.611 7 124720332.918 7     -1310.670 7        47.818               
E36  25224683.786 7 132557897.505 7      1798.435 7        44.403               
> 2025 01 06 18 49 17.0000000  0  7                                             
E02  25020239.836 7 131483422.583 7      1482.656 7        44.400               
E10  24674118.505 7 129664528.464 7     -2038.646 7        45.735               
E11  23530198.763 7 123653506.430 7      -626.709 7        42.903               
E12  26637050.575 6 139980090.331 6     -2859.422 6        38.461               
E24  27040506.649 6 142100277.528 6     -3273.002 6        38.963               
E25  23733463.098 7 124721643.976 7     -1310.996 7        47.747               
E36  25224339.548 7 132556098.784 7      1798.355 7        44.060               
> 2025 01 06 18 49 18.0000000  0  7                                             
E02  25019957.166 7 131481941.076 7      1481.328 7        44.311               
E10  24674505.468 7 129666567.351 7     -2039.281 7        45.415               
E11  23530316.135 7 123654133.176 7      -627.474 7        42.872               
E12  26637596.616 6 139982948.853 6     -2859.939 6        38.533               
E24  27041131.306 6 142103551.590 6     -3273.998 6        38.889               
E25  23733710.843 7 124722955.845 7     -1312.328 7        47.431               
E36  25223993.184 7 132554300.739 7      1797.763 7        44.168               
> 2025 01 06 18 49 19.0000000  0  7                                             
E02  25019674.129 7 131480459.983 7      1480.939 7        44.421               
E10  24674891.510 7 129668606.601 7     -2039.436 7        45.760               
E11  23530435.813 7 123654760.433 7      -626.284 7        42.841               
E12  26638139.433 6 139985807.600 6     -2856.596 6        38.598               
E24  27041751.647 6 142106825.946 6     -3273.973 6        38.887               
E25  23733958.910 7 124724268.242 7     -1312.258 7        47.562               
E36  25223653.878 7 132552503.085 7      1797.771 7        44.063               
> 2025 01 06 18 49 20.0000000  0  7                                             
E02  25019394.256 7 131478978.916 7      1479.709 7        44.239               
E10  24675278.365 7 129670645.823 7     -2039.373 7        45.590               
E11  23530553.811 7 123655387.741 7      -628.862 7        42.908               
E12  26638675.977 6 139988666.193 6     -2859.205 6        38.524               
E24  27042369.826 6 142110100.195 6     -3273.651 6        38.639               
E25  23734206.548 7 124725580.754 7     -1312.483 7        47.657               
E36  25223306.388 7 132550705.389 7      1797.530 7        43.918               
> 2025 01 06 18 49 21.0000000  0  7                                             
E02  25019111.961 7 131477498.027 7      1480.430 7        44.301               
E10  24675666.659 7 129672685.189 7     -2040.169 7        45.580               
E11  23530674.329 7 123656015.281 7      -628.590 7        42.771               
E12  26639223.493 6 139991524.790 6     -2857.485 6        38.129               
E24  27042993.740 6 142113374.485 6     -3275.442 6        38.484               
E25  23734456.410 7 124726893.580 7     -1312.707 7        47.569               
E36  25222964.491 7 132548907.866 7      1797.739 7        43.798               
> 2025 01 06 18 49 22.0000000  0  7                                             
E02  25018828.531 7 131476017.462 7      1480.816 7        44.201               
E10  24676052.443 7 129674724.825 7     -2040.001 7        45.639               
E11  23530787.154 7 123656643.197 7      -627.597 7        42.949               
E12  26639766.077 6 139994383.548 6     -2859.669 6        38.276               
E24  27043616.261 6 142116648.938 6     -3275.470 6        38.596               
E25  23734704.388 7 124728206.838 7     -1313.288 7        47.544               
E36  25222621.879 7 132547110.634 7      1796.477 7        43.611               
> 2025 01 06 18 49 23.0000000  0  7                                             
E02  25018544.271 7 131474536.867 7      1481.090 7        43.933               
E10  24676438.735 7 129676764.381 7     -2039.732 7        45.787               
E11  23530909.432 7 123657271.174 7      -628.376 7        43.020               
E12  26640305.257 6 139997242.055 6     -2859.076 6        38.479               
E24  27044244.009 6 142119923.235 6     -3275.564 6        38.737               
E25  23734952.973 7 124729520.180 7     -1313.680 7        47.494               
E36  25222277.793 7 132545313.338 7      1797.140 7        43.883               
> 2025 01 06 18 49 24.0000000  0  7                                             
E02  25018259.305 7 131473057.079 7      1480.338 7        43.950               
E10  24676827.199 7 129678804.698 7     -2040.256 7        45.649               
E11  23531026.277 7 123657900.011 7      -630.037 7        43.148               
E12  26640850.432 6 140000101.214 6     -2860.590 6        38.689               
E24  27044860.035 6 142123198.179 6     -3273.447 6        38.673               
E25  23735202.138 7 124730834.427 7     -1314.224 7        47.442               
E36  25221934.047 7 132543516.806 7      1796.038 7        43.534               
> 2025 01 06 18 49 25.0000000  0  7                                             
E02  25017978.609 7 131471577.517 7      1481.200 7        43.999               
E10  24677213.643 7 129680845.205 7     -2040.606 7        45.297               
E11  23531143.498 7 123658529.129 7      -629.235 7        43.369               
E12  26641394.516 6 140002960.425 6     -2859.404 6        38.975               
E24  27045484.620 6 142126473.202 6     -3273.278 6        38.786               
E25  23735451.000 7 124732149.037 7     -1315.119 7        47.514               
E36  25221591.721 7 132541720.486 7      1795.434 7        43.569               
> 2025 01 06 18 49 26.0000000  0  7                                             
E02  25017695.725 7 131470098.060 7      1478.848 7        44.134               
E10  24677600.445 7 129682885.758 7     -2041.109 7        45.476               
E11  23531264.159 7 123659158.370 7      -629.510 7        43.056               
E12  26641939.745 6 140005819.534 6     -2859.045 6        38.682               
E24  27046104.085 6 142129748.231 6     -3275.998 6        38.627               
E25  23735701.006 7 124733463.836 7     -1314.978 7        47.653               
E36  25221248.547 7 132539924.229 7      1796.472 7        43.848               
> 2025 01 06 18 49 27.0000000  0  7                                             
E02  25017413.555 7 131468619.103 7      1479.079 7        44.507               
E10  24677987.595 7 129684926.758 7     -2041.408 7        45.384               
E11  23531383.452 7 123659788.202 7      -629.898 7        42.932               
E12  26642481.507 6 140008678.985 6     -2859.353 6        38.639               
E24  27046728.089 6 142133023.570 6     -3275.244 6        38.865               
E25  23735950.082 7 124734779.266 7     -1315.933 7        47.492               
E36  25220906.364 7 132538128.427 7      1795.543 7        43.914               
> 2025 01 06 18 49 28.0000000  0  7                                             
E02  25017131.573 7 131467140.272 7      1478.325 7        44.294               
E10  24678375.701 7 129686967.816 7     -2041.424 7        45.460               
E11  23531501.343 7 123660418.205 7      -630.484 7        43.156               
E12  26643024.538 6 140011538.363 6     -2860.564 6        38.649               
E24  27047344.901 6 142136298.904 6     -3276.456 6        38.864               
E25  23736199.149 7 124736094.912 7     -1316.676 7        47.479               
E36  25220565.646 7 132536332.721 7      1796.282 7        43.905               
> 2025 01 06 18 49 29.0000000  0  7                                             
E02  25016847.956 7 131465662.381 7      1477.474 7        44.231               
E10  24678763.263 7 129689009.802 7     -2042.686 7        45.614               
E11  23531621.852 7 123661049.211 7      -630.923 7        43.268               
E12  26643569.722 6 140014398.489 6     -2863.018 6        38.769               
E24  27047970.049 6 142139575.042 6     -3277.900 6        38.565               
E25  23736448.002 7 124737411.628 7     -1317.534 7        47.515               
E36  25220221.909 7 132534537.933 7      1795.759 7        43.781               
> 2025 01 06 18 49 30.0000000  0  7                                             
E02  25016567.198 7 131464184.812 7      1478.296 7        44.447               
E10  24679150.475 7 129691052.058 7     -2041.633 7        45.516               
E11  23531740.207 7 123661680.596 7      -630.763 7        43.001               
E12  26644109.429 6 140017258.818 6     -2863.886 6        38.311               
E24  27048594.893 6 142142851.352 6     -3275.255 6        38.874               
E25  23736696.757 7 124738728.774 7     -1316.659 7        47.366               
E36  25219878.019 7 132532743.434 7      1796.347 7        43.847               
> 2025 01 06 18 49 31.0000000  0  7                                             
E02  25016284.930 7 131462706.270 7      1477.423 7        44.508               
E10  24679540.244 7 129693093.272 7     -2041.261 7        45.274               
E11  23531860.841 7 123662311.065 7      -630.613 7        43.142               
E12  26644652.334 6 140020117.932 6     -2859.252 6        38.141               
E24  27049215.690 6 142146126.571 6     -3275.367 6        39.130               
E25  23736947.504 7 124740045.060 7     -1316.461 7        47.259               
E36  25219535.426 7 132530947.936 7      1795.449 7        43.703               
> 2025 01 06 18 49 32.0000000  0  7                                             
E02  25016001.992 7 131461228.627 7      1476.875 7        44.295               
E10  24679925.053 7 129695135.351 7     -2042.322 7        45.270               
E11  23531977.383 7 123662942.503 7      -630.402 7        43.290               
E12  26645195.401 6 140022977.770 6     -2858.774 6        38.222               
E24  27049838.443 6 142149402.536 6     -3276.770 6        39.055               
E25  23737196.536 7 124741362.356 7     -1318.862 7        47.279               
E36  25219192.742 7 132529153.292 7      1793.984 7        43.631               
> 2025 01 06 18 49 33.0000000  0  7                                             
E02  25015717.847 7 131459751.017 7      1476.469 7        44.312               
E10  24680314.490 7 129697177.407 7     -2042.192 7        44.813               
E11  23532095.452 7 123663574.023 7      -632.152 7        43.358               
E12  26645742.282 6 140025837.465 6     -2860.581 6        38.903               
E24  27050462.617 6 142152678.385 6     -3275.732 6        39.261               
E25  23737445.952 7 124742679.796 7     -1317.747 7        47.111               
E36  25218850.845 7 132527358.636 7      1795.144 7        44.108               
> 2025 01 06 18 49 34.0000000  0  7                                             
E02  25015435.910 7 131458274.203 7      1477.235 7        44.044               
E10  24680700.810 7 129699220.228 7     -2042.909 7        44.869               
E11  23532218.570 7 123664206.374 7      -633.123 7        43.309               
E12  26646280.381 6 140028697.779 6     -2861.079 6        38.852               
E24  27051086.594 6 142155954.864 6     -3277.403 6        39.368               
E25  23737696.654 7 124743998.145 7     -1318.681 7        47.253               
E36  25218506.509 7 132525564.786 7      1791.075 7        44.181               
