     3.02           OBSERVATION DATA    E                   RINEX VERSION / TYPE
G = GPS  R = GLONASS  E = GALILEO  S = GEO  M = MIXED       COMMENT             
GNSS-SDR            jmfriedt            20250106 194238 UTC PGM / RUN BY / DATE 
GALILEO OBSERVATION DATA FILE GENERATED BY GNSS-SDR         COMMENT             
GNSS-SDR VERSION 0.0.19                                     COMMENT             
See https://gnss-sdr.org                                    COMMENT             
DEFAULT MARKER NAME                                         MARKER NAME         
jmfriedt            CTTC                                    OBSERVER / AGENCY   
GNSS-SDR            Software Receiver   0.0.19              REC # / TYPE / VERS 
Antenna number      Antenna type                            ANT # / TYPE        
        0.0000        0.0000        0.0000                  APPROX POSITION XYZ 
        0.0000        0.0000        0.0000                  ANTENNA: DELTA H/E/N
E    4 C1B L1B D1B S1B                                      SYS / # / OBS TYPES 
DBHZ                                                        SIGNAL STRENGTH UNIT
  2025    01    06    18    45    6.1400000     GAL         TIME OF FIRST OBS   
    18    18   137     7                                    LEAP SECONDS        
                                                            END OF HEADER       
> 2025 01 06 18 45 07.0000000  0  4                                             
E11  23502731.108 7 123507691.766 7      -538.643 7        43.364               
E24  26885912.306 6 141286410.068 6     -3234.523 6        37.815               
E25  23673711.248 7 124406199.297 7     -1211.091 7        47.185               
E36  25311664.436 7 133013702.183 7      1861.215 7        43.822               
> 2025 01 06 18 45 08.0000000  0  4                                             
E11  23502834.561 7 123508231.013 7      -540.417 7        43.917               
E24  26886522.971 6 141289646.038 6     -3234.999 6        37.926               
E25  23673941.749 7 124407410.803 7     -1211.586 7        47.487               
E36  25311309.646 7 133011840.580 7      1861.371 7        43.847               
> 2025 01 06 18 45 09.0000000  0  4                                             
E11  23502934.038 7 123508770.875 7      -538.969 7        43.857               
E24  26887140.587 6 141292882.467 6     -3237.802 6        38.076               
E25  23674170.678 8 124408622.986 8     -1212.817 8        48.010               
E36  25310953.901 7 133009979.497 7      1860.805 7        43.550               
> 2025 01 06 18 45 10.0000000  0  4                                             
E11  23503036.642 7 123509311.105 7      -540.161 7        43.885               
E24  26887753.575 6 141296119.028 6     -3235.934 6        37.975               
E25  23674399.947 7 124409835.567 7     -1213.159 7        47.987               
E36  25310599.531 7 133008118.662 7      1860.095 7        43.318               
> 2025 01 06 18 45 11.0000000  0  4                                             
E11  23503137.128 7 123509851.466 7      -540.646 7        43.872               
E24  26888368.537 6 141299355.504 6     -3236.614 6        37.942               
E25  23674628.393 7 124411048.314 7     -1213.595 7        47.821               
E36  25310245.108 7 133006257.829 7      1860.501 7        43.345               
> 2025 01 06 18 45 12.0000000  0  4                                             
E11  23503241.501 7 123510392.280 7      -542.243 7        44.017               
E24  26888984.438 6 141302592.279 6     -3235.454 6        38.332               
E25  23674859.833 7 124412261.589 7     -1213.444 7        47.822               
E36  25309888.416 7 133004397.390 7      1860.997 7        43.487               
> 2025 01 06 18 45 13.0000000  0  4                                             
E11  23503341.746 7 123510933.449 7      -541.753 7        43.748               
E24  26889599.034 6 141305829.203 6     -3234.722 6        38.265               
E25  23675090.736 7 124413475.272 7     -1214.154 7        47.776               
E36  25309535.351 7 133002537.203 7      1859.240 7        43.491               
> 2025 01 06 18 45 14.0000000  0  4                                             
E11  23503443.868 7 123511474.971 7      -541.718 7        44.226               
E24  26890212.325 6 141309066.289 6     -3238.533 6        38.041               
E25  23675319.460 7 124414689.335 7     -1214.288 7        47.756               
E36  25309180.713 7 133000677.245 7      1859.177 7        43.720               
> 2025 01 06 18 45 15.0000000  0  4                                             
E11  23503545.793 7 123512016.814 7      -542.006 7        44.007               
E24  26890827.761 6 141312303.465 6     -3236.937 6        38.171               
E25  23675548.165 7 124415903.770 7     -1214.129 7        47.549               
E36  25308824.655 7 132998817.523 7      1858.869 7        43.908               
> 2025 01 06 18 45 16.0000000  0  4                                             
E11  23503646.547 7 123512559.262 7      -543.309 7        43.762               
E24  26891448.433 6 141315541.081 6     -3236.723 6        37.914               
E25  23675779.292 7 124417118.873 7     -1215.282 7        47.807               
E36  25308468.409 7 132996958.296 7      1859.001 7        43.675               
> 2025 01 06 18 45 17.0000000  0  4                                             
E11  23503748.240 7 123513102.558 7      -543.386 7        44.064               
E24  26892060.912 6 141318779.357 6     -3238.928 6        38.146               
E25  23676010.214 7 124418334.888 7     -1215.553 7        47.406               
E36  25308115.344 7 132995099.845 7      1858.767 7        43.631               
> 2025 01 06 18 45 18.0000000  0  4                                             
E11  23503852.354 7 123513645.695 7      -542.715 7        43.726               
E24  26892673.194 6 141322017.242 6     -3238.497 6        38.114               
E25  23676240.376 7 124419550.754 7     -1215.705 7        47.436               
E36  25307759.340 7 132993241.095 7      1859.864 7        43.757               
> 2025 01 06 18 45 19.0000000  0  4                                             
E11  23503955.261 7 123514188.738 7      -543.154 7        43.746               
E24  26893291.980 6 141325254.869 6     -3237.823 6        38.011               
E25  23676470.493 7 124420766.592 7     -1215.956 7        47.965               
E36  25307406.221 7 132991382.155 7      1858.588 7        43.526               
> 2025 01 06 18 45 20.0000000  0  4                                             
E11  23504055.194 7 123514732.277 7      -544.907 7        44.064               
E24  26893906.951 6 141328492.785 6     -3238.700 6        38.148               
E25  23676700.726 7 124421982.951 7     -1215.611 7        47.693               
E36  25307052.057 7 132989523.620 7      1858.888 7        43.709               
> 2025 01 06 18 45 21.0000000  0  4                                             
E11  23504156.860 7 123515276.303 7      -543.960 7        44.157               
E24  26894520.136 6 141331731.000 6     -3238.911 6        38.125               
E25  23676931.272 7 124423199.890 7     -1217.403 7        47.895               
E36  25306696.338 7 132987665.494 7      1858.365 7        44.046               
> 2025 01 06 18 45 22.0000000  0  4                                             
E11  23504258.579 7 123515820.726 7      -544.371 7        43.939               
E24  26895138.770 6 141334969.389 6     -3238.072 6        38.250               
E25  23677162.203 7 124424417.236 7     -1217.370 7        47.478               
E36  25306343.005 7 132985807.630 7      1857.842 7        43.875               
> 2025 01 06 18 45 23.0000000  0  4                                             
E11  23504363.301 7 123516365.350 7      -544.634 7        43.806               
E24  26895747.434 6 141338207.774 6     -3239.241 6        38.481               
E25  23677392.829 7 124425634.840 7     -1217.774 7        47.831               
E36  25305989.556 7 132983949.862 7      1857.273 7        43.995               
> 2025 01 06 18 45 24.0000000  0  4                                             
E11  23504466.217 7 123516910.676 7      -545.023 7        44.084               
E24  26896367.310 6 141341446.710 6     -3236.965 6        38.396               
E25  23677623.545 7 124426853.195 7     -1218.163 7        47.553               
E36  25305633.676 7 132982092.704 7      1857.561 7        43.910               
> 2025 01 06 18 45 25.0000000  0  4                                             
E11  23504568.473 7 123517456.631 7      -546.521 7        44.200               
E24  26896983.631 6 141344686.060 6     -3237.923 6        38.451               
E25  23677854.779 7 124428072.242 7     -1219.388 7        47.783               
E36  25305280.522 7 132980236.099 7      1856.150 7        43.967               
> 2025 01 06 18 45 26.0000000  0  4                                             
E11  23504671.282 7 123518002.829 7      -547.735 7        44.051               
E24  26897599.299 6 141347925.467 6     -3238.316 6        38.508               
E25  23678085.120 7 124429291.575 7     -1219.383 7        47.785               
E36  25304924.794 7 132978379.601 7      1855.778 7        44.210               
> 2025 01 06 18 45 27.0000000  0  4                                             
E11  23504774.556 7 123518549.248 7      -545.210 7        43.880               
E24  26898213.270 6 141351164.852 6     -3238.822 6        38.213               
E25  23678314.478 7 124430511.154 7     -1219.566 7        47.710               
E36  25304571.783 7 132976523.232 7      1855.453 7        44.099               
> 2025 01 06 18 45 28.0000000  0  4                                             
E11  23504876.963 7 123519096.190 7      -547.600 7        43.782               
E24  26898830.734 6 141354404.612 6     -3240.645 6        38.392               
E25  23678547.436 7 124431731.322 7     -1220.162 7        47.676               
E36  25304217.994 7 132974667.278 7      1856.489 7        44.212               
> 2025 01 06 18 45 29.0000000  0  4                                             
E11  23504977.950 7 123519642.764 7      -546.324 7        43.752               
E24  26899445.151 6 141357643.813 6     -3237.388 6        38.478               
E25  23678777.866 7 124432951.171 7     -1219.365 7        47.451               
E36  25303861.489 7 132972810.883 7      1856.058 7        44.209               
> 2025 01 06 18 45 30.0000000  0  4                                             
E11  23505082.895 7 123520189.472 7      -546.608 7        43.755               
E24  26900059.506 6 141360882.951 6     -3240.326 6        38.837               
E25  23679008.126 7 124434171.221 7     -1220.074 7        47.290               
E36  25303507.575 7 132970954.505 7      1856.163 7        44.160               
> 2025 01 06 18 45 31.0000000  0  4                                             
E11  23505186.741 7 123520737.005 7      -546.193 7        43.474               
E24  26900675.023 6 141364122.700 6     -3240.217 6        38.763               
E25  23679239.182 7 124435392.126 7     -1221.282 7        47.278               
E36  25303153.331 7 132969098.865 7      1854.938 7        44.406               
> 2025 01 06 18 45 32.0000000  0  4                                             
E11  23505290.265 7 123521284.819 7      -548.389 7        43.413               
E24  26901292.442 6 141367362.516 6     -3240.290 6        38.625               
E25  23679471.014 7 124436613.339 7     -1221.108 7        46.933               
E36  25302800.194 7 132967243.369 7      1855.544 7        44.394               
> 2025 01 06 18 45 33.0000000  0  4                                             
E11  23505391.931 7 123521832.897 7      -549.198 7        43.551               
E24  26901907.762 6 141370602.390 6     -3240.900 6        38.648               
E25  23679702.686 7 124437834.888 7     -1220.988 7        47.095               
E36  25302446.039 7 132965388.064 7      1855.621 7        44.348               
> 2025 01 06 18 45 34.0000000  0  4                                             
E11  23505496.125 7 123522381.352 7      -548.994 7        43.451               
E24  26902524.109 6 141373842.504 6     -3241.137 6        38.244               
E25  23679933.393 7 124439056.865 7     -1222.026 7        47.303               
E36  25302091.848 7 132963533.033 7      1855.200 7        44.271               
> 2025 01 06 18 45 35.0000000  0  4                                             
E11  23505600.203 7 123522930.115 7      -548.339 7        43.578               
E24  26903134.577 6 141377082.696 6     -3243.411 6        38.016               
E25  23680166.191 7 124440279.202 7     -1222.353 7        47.218               
E36  25301735.781 7 132961678.213 7      1854.147 7        44.512               
> 2025 01 06 18 45 36.0000000  0  5                                             
E10  24589753.907 7 129220021.623 7     -1983.937 7        46.448               
E11  23505702.030 7 123523479.163 7      -548.415 7        43.276               
E24  26903748.664 6 141380322.972 6     -3239.916 6        38.351               
E25  23680397.577 7 124441501.857 7     -1222.829 7        47.431               
E36  25301383.762 7 132959823.564 7      1854.631 7        44.380               
> 2025 01 06 18 45 37.0000000  0  5                                             
E10  24590129.237 7 129222005.871 7     -1984.335 7        46.689               
E11  23505807.734 7 123524028.566 7      -550.306 7        43.504               
E24  26904368.701 6 141383563.404 6     -3239.663 6        38.651               
E25  23680629.070 7 124442724.907 7     -1223.605 7        47.441               
E36  25301029.830 7 132957969.161 7      1853.737 7        44.485               
> 2025 01 06 18 45 38.0000000  0  5                                             
E10  24590506.907 7 129223990.677 7     -1985.807 7        46.465               
E11  23505910.642 7 123524578.603 7      -551.111 7        43.294               
E24  26904980.662 6 141386804.291 6     -3241.235 6        38.648               
E25  23680859.884 7 124443948.662 7     -1224.027 7        47.386               
E36  25300675.684 7 132956115.314 7      1854.399 7        44.497               
> 2025 01 06 18 45 39.0000000  0  5                                             
E10  24590882.657 7 129225975.508 7     -1984.961 7        46.356               
E11  23506014.532 7 123525128.784 7      -549.919 7        43.340               
E24  26905600.637 6 141390045.108 6     -3240.954 6        38.919               
E25  23681091.520 7 124445172.606 7     -1224.390 7        47.486               
E36  25300321.957 7 132954261.493 7      1853.385 7        44.399               
> 2025 01 06 18 45 40.0000000  0  5                                             
E10  24591258.398 7 129227960.307 7     -1985.046 7        46.502               
E11  23506117.735 7 123525679.034 7      -549.714 7        43.537               
E24  26906212.722 6 141393285.770 6     -3239.690 6        38.667               
E25  23681323.362 7 124446396.650 7     -1223.280 7        47.530               
E36  25299969.348 7 132952407.650 7      1852.388 7        44.673               
> 2025 01 06 18 45 41.0000000  0  5                                             
E10  24591634.916 7 129229945.030 7     -1985.326 7        46.765               
E11  23506221.179 7 123526229.314 7      -550.831 7        43.680               
E24  26906830.695 6 141396526.305 6     -3241.501 6        38.545               
E25  23681556.044 7 124447620.782 7     -1223.927 7        47.543               
E36  25299615.506 7 132950553.726 7      1854.284 7        44.797               
> 2025 01 06 18 45 42.0000000  0  5                                             
E10  24592011.533 7 129231930.390 7     -1986.064 7        46.560               
E11  23506322.773 7 123526780.307 7      -551.749 7        44.152               
E24  26907446.891 6 141399767.353 6     -3240.412 6        38.249               
E25  23681786.670 7 124448845.698 7     -1225.168 7        47.610               
E36  25299262.512 7 132948700.428 7      1853.026 7        44.723               
> 2025 01 06 18 45 43.0000000  0  5                                             
E10  24592387.899 7 129233916.282 7     -1986.357 7        46.295               
E11  23506427.896 7 123527331.935 7      -551.766 7        43.984               
E24  26908058.172 6 141403008.865 6     -3241.077 6        38.062               
E25  23682018.869 7 124450071.296 7     -1226.429 7        47.544               
E36  25298908.169 7 132946847.681 7      1852.246 7        44.917               
> 2025 01 06 18 45 44.0000000  0  5                                             
E10  24592764.515 7 129235902.397 7     -1986.376 7        46.382               
E11  23506531.876 7 123527883.903 7      -550.154 7        44.009               
E24  26908677.102 6 141406250.482 6     -3241.741 6        38.272               
E25  23682250.175 7 124451297.258 7     -1226.520 7        47.623               
E36  25298553.085 7 132944995.144 7      1851.681 7        44.666               
> 2025 01 06 18 45 45.0000000  0  5                                             
E10  24593141.668 7 129237888.875 7     -1986.990 7        46.249               
E11  23506637.991 7 123528436.348 7      -553.846 7        43.660               
E24  26909292.859 6 141409492.367 6     -3242.121 6        38.070               
E25  23682484.330 7 124452523.732 7     -1226.356 7        47.344               
E36  25298199.377 7 132943142.980 7      1851.512 7        44.668               
> 2025 01 06 18 45 46.0000000  0  5                                             
E10  24593518.669 7 129239875.873 7     -1987.221 7        46.187               
E11  23506738.710 7 123528989.385 7      -553.516 7        43.937               
E24  26909909.269 6 141412734.669 6     -3242.084 6        38.194               
E25  23682715.564 7 124453750.887 7     -1227.268 7        47.714               
E36  25297848.840 7 132941291.331 7      1850.387 7        44.786               
> 2025 01 06 18 45 47.0000000  0  5                                             
E10  24593896.143 7 129241862.988 7     -1986.965 7        46.253               
E11  23506843.414 7 123529542.636 7      -553.505 7        43.901               
E24  26910524.803 6 141415977.004 6     -3242.696 6        38.792               
E25  23682948.996 7 124454978.300 7     -1227.537 7        47.661               
E36  25297493.497 7 132939439.805 7      1851.014 7        44.706               
> 2025 01 06 18 45 48.0000000  0  5                                             
E10  24594271.598 7 129243850.372 7     -1987.617 7        46.118               
E11  23506948.921 7 123530096.283 7      -553.715 7        43.721               
E24  26911138.211 6 141419219.528 6     -3244.162 6        39.017               
E25  23683181.008 7 124456206.137 7     -1228.038 7        47.467               
E36  25297139.592 7 132937588.541 7      1851.222 7        44.907               
> 2025 01 06 18 45 49.0000000  0  5                                             
E10  24594647.928 7 129245837.601 7     -1987.396 7        46.148               
E11  23507054.634 7 123530649.878 7      -553.636 7        43.951               
E24  26911757.203 6 141422461.782 6     -3241.916 6        38.826               
E25  23683413.922 7 124457433.963 7     -1227.087 7        47.640               
E36  25296784.936 7 132935737.129 7      1850.762 7        44.738               
> 2025 01 06 18 45 50.0000000  0  5                                             
E10  24595026.260 7 129247825.442 7     -1987.804 7        46.133               
E11  23507157.962 7 123531204.176 7      -556.387 7        43.953               
E24  26912373.345 6 141425704.559 6     -3242.107 6        38.956               
E25  23683644.101 7 124458662.560 7     -1229.356 7        47.508               
E36  25296432.246 7 132933886.332 7      1850.659 7        44.703               
> 2025 01 06 18 45 51.0000000  0  5                                             
E10  24595402.966 7 129249813.753 7     -1987.950 7        46.270               
E11  23507261.495 7 123531759.013 7      -555.408 7        44.041               
E24  26912987.843 6 141428947.709 6     -3243.965 6        38.931               
E25  23683878.570 7 124459891.764 7     -1229.104 7        47.430               
E36  25296077.886 7 132932035.989 7      1850.489 7        44.507               
> 2025 01 06 18 45 52.0000000  0  5                                             
E10  24595782.299 7 129251802.065 7     -1988.156 7        46.356               
E11  23507365.547 7 123532313.979 7      -555.231 7        43.975               
E24  26913603.439 6 141432190.740 6     -3242.347 6        38.860               
E25  23684112.904 7 124461121.131 7     -1229.767 7        47.194               
E36  25295726.759 7 132930185.674 7      1848.885 7        44.403               
> 2025 01 06 18 45 53.0000000  0  5                                             
E10  24596158.442 7 129253790.327 7     -1988.365 7        46.388               
E11  23507469.973 7 123532869.003 7      -553.792 7        43.925               
E24  26914222.002 6 141435433.654 6     -3242.759 6        38.988               
E25  23684345.023 7 124462350.587 7     -1229.000 7        47.236               
E36  25295368.923 7 132928335.303 7      1850.947 7        44.213               
> 2025 01 06 18 45 54.0000000  0  5                                             
E10  24596534.254 7 129255778.462 7     -1987.975 7        46.338               
E11  23507574.337 7 123533424.003 7      -555.068 7        44.079               
E24  26914837.447 6 141438676.366 6     -3242.999 6        38.929               
E25  23684576.882 7 124463580.091 7     -1229.265 7        47.029               
E36  25295016.680 7 132926484.805 7      1850.242 7        44.001               
> 2025 01 06 18 45 55.0000000  0  5                                             
E10  24596911.809 7 129257766.614 7     -1988.280 7        46.555               
E11  23507681.248 7 123533979.090 7      -556.735 7        43.734               
E24  26915451.561 6 141441918.952 6     -3244.003 6        38.882               
E25  23684811.413 7 124464809.732 7     -1229.944 7        47.504               
E36  25294663.472 7 132924634.312 7      1850.519 7        43.904               
> 2025 01 06 18 45 56.0000000  0  5                                             
E10  24597289.202 7 129259755.443 7     -1989.511 7        46.381               
E11  23507783.646 7 123534534.976 7      -556.350 7        43.869               
E24  26916068.498 6 141445162.142 6     -3243.038 6        38.876               
E25  23685045.301 7 124466040.216 7     -1230.483 7        47.295               
E36  25294310.988 7 132922784.513 7      1849.746 7        44.023               
> 2025 01 06 18 45 57.0000000  0  5                                             
E10  24597665.595 7 129261744.952 7     -1989.656 7        46.258               
E11  23507888.707 7 123535091.655 7      -556.604 7        43.745               
E24  26916686.069 6 141448405.920 6     -3244.190 6        38.937               
E25  23685277.580 7 124467271.534 7     -1231.505 7        47.207               
E36  25293957.583 7 132920935.389 7      1848.396 7        44.083               
> 2025 01 06 18 45 58.0000000  0  5                                             
E10  24598044.079 7 129263734.804 7     -1990.068 7        46.574               
E11  23507993.384 7 123535648.784 7      -557.028 7        43.713               
E24  26917300.764 6 141451649.936 6     -3243.105 6        39.086               
E25  23685510.985 7 124468503.339 7     -1231.400 7        47.366               
E36  25293603.464 7 132919086.619 7      1847.360 7        44.030               
> 2025 01 06 18 45 59.0000000  0  5                                             
E10  24598422.340 7 129265724.854 7     -1990.430 7        46.390               
E11  23508099.061 7 123536206.186 7      -558.320 7        43.573               
E24  26917917.441 6 141454894.061 6     -3246.770 6        38.924               
E25  23685745.945 7 124469735.498 7     -1232.303 7        47.387               
E36  25293249.157 7 132917238.036 7      1847.929 7        44.072               
> 2025 01 06 18 46 00.0000000  0  5                                             
E10  24598800.645 7 129267715.352 7     -1991.691 7        46.342               
E11  23508203.604 7 123536764.121 7      -558.472 7        43.877               
E24  26918532.993 6 141458138.521 6     -3245.012 6        38.855               
E25  23685978.198 7 124470968.239 7     -1233.938 7        47.556               
E36  25292895.681 7 132915389.903 7      1847.837 7        44.294               
> 2025 01 06 18 46 01.0000000  0  5                                             
E10  24599176.761 7 129269706.407 7     -1991.436 7        45.993               
E11  23508310.005 7 123537322.757 7      -557.904 7        43.814               
E24  26919150.082 6 141461383.470 6     -3245.220 6        39.048               
E25  23686211.594 7 124472201.714 7     -1234.071 7        47.615               
E36  25292542.187 7 132913542.335 7      1847.821 7        44.204               
> 2025 01 06 18 46 02.0000000  0  5                                             
E10  24599554.271 7 129271697.463 7     -1991.187 7        46.166               
E11  23508415.164 7 123537881.496 7      -558.559 7        43.879               
E24  26919767.412 6 141464628.307 6     -3245.989 6        39.065               
E25  23686444.856 7 124473435.327 7     -1232.965 7        47.689               
E36  25292191.740 7 132911694.786 7      1846.469 7        44.368               
> 2025 01 06 18 46 03.0000000  0  5                                             
E10  24599931.807 7 129273688.668 7     -1991.241 7        46.199               
E11  23508519.367 7 123538440.466 7      -559.433 7        43.657               
E24  26920379.560 6 141467873.199 6     -3244.087 6        38.680               
E25  23686678.958 7 124474669.236 7     -1234.377 7        47.700               
E36  25291838.147 7 132909847.360 7      1846.934 7        44.306               
> 2025 01 06 18 46 04.0000000  0  6                                             
E10  24600310.104 7 129275679.992 7     -1991.554 7        46.167               
E11  23508624.920 7 123538999.634 7      -558.792 7        43.638               
E12  26532664.371 6 139430070.787 6     -2836.803 6        37.949               
E24  26920993.728 6 141471118.103 6     -3244.200 6        38.330               
E25  23686913.052 7 124475903.419 7     -1234.204 7        47.870               
E36  25291487.048 7 132908000.066 7      1847.675 7        44.451               
> 2025 01 06 18 46 05.0000000  0  6                                             
E10  24600687.202 7 129277671.175 7     -1991.260 7        46.045               
E11  23508728.068 7 123539558.780 7      -559.530 7        43.665               
E12  26533200.299 6 139432907.393 6     -2836.174 6        37.532               
E24  26921614.828 6 141474362.796 6     -3245.449 6        38.295               
E25  23687148.619 7 124477137.606 7     -1233.360 7        47.552               
E36  25291134.036 7 132906152.623 7      1848.158 7        44.467               
> 2025 01 06 18 46 06.0000000  0  6                                             
E10  24601066.901 7 129279662.194 7     -1992.062 7        46.177               
E11  23508834.675 7 123540117.881 7      -558.938 7        43.662               
E12  26533743.615 6 139435743.751 6     -2837.559 6        37.439               
E24  26922229.335 6 141477607.231 6     -3245.094 6        38.341               
E25  23687380.148 7 124478371.787 7     -1234.825 7        47.240               
E36  25290782.169 7 132904305.030 7      1847.191 7        44.381               
> 2025 01 06 18 46 07.0000000  0  6                                             
E10  24601443.795 7 129281653.877 7     -1992.470 7        46.697               
E11  23508939.620 7 123540677.737 7      -560.704 7        43.696               
E12  26534282.366 6 139438580.616 6     -2836.561 6        37.362               
E24  26922845.816 6 141480852.212 6     -3244.721 6        38.594               
E25  23687615.572 7 124479606.791 7     -1235.698 7        47.255               
E36  25290428.264 7 132902458.123 7      1846.563 7        44.231               
> 2025 01 06 18 46 08.0000000  0  6                                             
E10  24601822.028 7 129283646.332 7     -1993.887 7        46.587               
E11  23509046.450 7 123541238.454 7      -562.757 7        43.625               
E12  26534820.188 6 139441418.083 6     -2835.423 6        37.463               
E24  26923467.122 6 141484097.872 6     -3247.093 6        38.481               
E25  23687848.307 7 124480842.691 7     -1236.760 7        47.464               
E36  25290075.350 7 132900611.966 7      1844.408 7        44.075               
> 2025 01 06 18 46 09.0000000  0  6                                             
E10  24602201.700 7 129285639.828 7     -1994.048 7        46.440               
E11  23509153.423 7 123541800.311 7      -561.598 7        43.479               
E12  26535357.536 6 139444256.490 6     -2835.717 6        37.592               
E24  26924083.505 6 141487344.476 6     -3246.460 6        38.748               
E25  23688082.820 7 124482079.803 7     -1237.556 7        47.749               
E36  25289724.188 7 132898766.843 7      1845.308 7        44.136               
> 2025 01 06 18 46 10.0000000  0  6                                             
E10  24602576.575 7 129287633.045 7     -1993.573 7        46.469               
E11  23509259.341 7 123542362.019 7      -560.881 7        43.623               
E12  26535897.074 6 139447094.486 6     -2839.325 6        37.693               
E24  26924697.744 6 141490590.727 6     -3244.312 6        38.743               
E25  23688318.781 7 124483316.786 7     -1237.114 7        47.647               
E36  25289371.802 7 132896921.464 7      1845.486 7        44.313               
> 2025 01 06 18 46 11.0000000  0  6                                             
E10  24602957.140 7 129289626.110 7     -1993.538 7        46.474               
E11  23509364.599 7 123542923.670 7      -561.654 7        43.525               
E12  26536437.326 6 139449932.183 6     -2839.063 6        37.550               
E24  26925317.325 6 141493836.709 6     -3246.486 6        38.336               
E25  23688551.739 7 124484553.772 7     -1237.185 7        47.832               
E36  25289018.675 7 132895075.938 7      1843.716 7        44.512               
> 2025 01 06 18 46 12.0000000  0  6                                             
E10  24603335.106 7 129291619.530 7     -1993.685 7        46.614               
E11  23509470.178 7 123543485.761 7      -562.272 7        43.699               
E12  26536973.432 6 139452770.102 6     -2838.876 6        37.466               
E24  26925931.109 6 141497082.943 6     -3247.030 6        38.404               
E25  23688786.681 7 124485791.254 7     -1238.196 7        47.730               
E36  25288666.780 7 132893230.751 7      1843.046 7        44.691               
> 2025 01 06 18 46 13.0000000  0  6                                             
E10  24603712.687 7 129293612.969 7     -1993.571 7        46.562               
E11  23509573.657 7 123544047.974 7      -562.903 7        43.847               
E12  26537512.934 6 139455607.910 6     -2840.363 6        37.496               
E24  26926544.597 6 141500329.143 6     -3247.062 6        38.292               
E25  23689022.284 7 124487028.918 7     -1237.999 7        47.849               
E36  25288314.546 7 132891385.602 7      1845.767 7        45.055               
> 2025 01 06 18 46 14.0000000  0  6                                             
E10  24604090.599 7 129295606.581 7     -1993.707 7        46.516               
E11  23509680.496 7 123544610.468 7      -562.068 7        43.725               
E12  26538050.014 6 139458445.770 6     -2837.283 6        37.441               
E24  26927164.098 6 141503575.405 6     -3247.832 6        38.329               
E25  23689255.761 7 124488266.892 7     -1238.941 7        47.766               
E36  25287961.070 7 132889540.625 7      1844.417 7        44.696               
> 2025 01 06 18 46 15.0000000  0  6                                             
E10  24604470.512 7 129297600.741 7     -1994.393 7        46.136               
E11  23509786.594 7 123545173.627 7      -564.325 7        43.595               
E12  26538587.273 6 139461284.029 6     -2837.128 6        37.809               
E24  26927781.696 6 141506822.088 6     -3248.322 6        38.425               
E25  23689491.194 7 124489505.574 7     -1239.442 7        47.626               
E36  25287611.275 7 132887696.191 7      1845.115 7        45.029               
> 2025 01 06 18 46 16.0000000  0  6                                             
E10  24604847.692 7 129299595.116 7     -1994.515 7        46.439               
E11  23509891.780 7 123545737.059 7      -564.397 7        43.909               
E12  26539128.418 6 139464122.375 6     -2838.575 6        37.735               
E24  26928398.249 6 141510068.899 6     -3246.928 6        38.450               
E25  23689724.430 7 124490744.607 7     -1238.873 7        47.566               
E36  25287258.924 7 132885851.968 7      1843.534 7        44.979               
> 2025 01 06 18 46 17.0000000  0  6                                             
E10  24605226.578 7 129301589.717 7     -1994.484 7        46.567               
E11  23509999.923 7 123546300.836 7      -564.231 7        44.385               
E12  26539666.901 6 139466960.818 6     -2837.561 6        37.627               
E24  26929012.148 6 141513315.851 6     -3246.277 6        38.385               
E25  23689959.166 7 124491984.035 7     -1239.188 7        47.791               
E36  25286906.806 7 132884007.984 7      1844.502 7        44.970               
> 2025 01 06 18 46 18.0000000  0  6                                             
E10  24605604.963 7 129303584.661 7     -1995.562 7        46.534               
E11  23510105.931 7 123546865.065 7      -563.103 7        44.008               
E12  26540204.714 6 139469799.441 6     -2837.702 6        37.590               
E24  26929626.154 6 141516563.034 6     -3247.188 6        37.993               
E25  23690193.697 7 124493223.947 7     -1240.028 7        47.855               
E36  25286554.563 7 132882164.353 7      1843.422 7        44.914               
> 2025 01 06 18 46 19.0000000  0  6                                             
E10  24605984.519 7 129305579.817 7     -1994.426 7        46.550               
E11  23510211.555 7 123547429.635 7      -563.936 7        44.010               
E12  26540746.682 6 139472638.163 6     -2838.904 6        37.812               
E24  26930245.209 6 141519810.374 6     -3245.955 6        37.996               
E25  23690429.916 7 124494464.234 7     -1239.871 7        47.695               
E36  25286204.518 7 132880320.928 7      1843.983 7        45.134               
> 2025 01 06 18 46 20.0000000  0  6                                             
E10  24606362.663 7 129307574.946 7     -1995.712 7        46.169               
E11  23510319.162 7 123547994.251 7      -565.307 7        43.860               
E12  26541286.416 6 139475476.719 6     -2842.191 6        37.821               
E24  26930860.305 6 141523057.561 6     -3248.360 6        38.248               
E25  23690663.661 7 124495704.629 7     -1240.131 7        47.900               
E36  25285852.784 7 132878477.482 7      1843.217 7        44.645               
> 2025 01 06 18 46 21.0000000  0  6                                             
E10  24606740.834 7 129309570.304 7     -1995.301 7        46.211               
E11  23510425.483 7 123548559.169 7      -565.305 7        43.744               
E12  26541825.444 6 139478315.355 6     -2840.619 6        37.567               
E24  26931480.914 6 141526304.887 6     -3246.212 6        38.230               
E25  23690898.174 7 124496945.404 7     -1239.862 7        47.515               
E36  25285498.969 7 132876634.265 7      1843.378 7        44.542               
> 2025 01 06 18 46 22.0000000  0  6                                             
E10  24607120.426 7 129311566.043 7     -1995.916 7        46.238               
E11  23510531.464 7 123549124.602 7      -565.087 7        43.910               
E12  26542360.710 6 139481154.270 6     -2837.859 6        37.436               
E24  26932101.738 6 141529552.509 6     -3248.147 6        38.387               
E25  23691134.269 7 124498186.735 7     -1242.209 7        47.590               
E36  25285148.896 7 132874791.453 7      1841.900 7        44.656               
> 2025 01 06 18 46 23.0000000  0  6                                             
E10  24607498.740 7 129313562.067 7     -1996.272 7        46.304               
E11  23510637.883 7 123549690.438 7      -565.284 7        43.718               
E12  26542901.355 6 139483993.320 6     -2838.826 6        37.202               
E24  26932714.735 6 141532800.311 6     -3245.755 6        38.406               
E25  23691368.826 7 124499428.482 7     -1241.135 7        47.334               
E36  25284796.242 7 132872948.905 7      1843.239 7        44.723               
> 2025 01 06 18 46 24.0000000  0  6                                             
E10  24607878.144 7 129315558.202 7     -1996.498 7        46.405               
E11  23510744.802 7 123550256.480 7      -566.674 7        43.819               
E12  26543440.482 6 139486832.372 6     -2839.963 6        37.076               
E24  26933332.261 6 141536048.132 6     -3247.521 6        38.790               
E25  23691603.661 7 124500670.500 7     -1242.865 7        47.219               
E36  25284443.803 7 132871106.485 7      1841.845 7        44.452               
> 2025 01 06 18 46 25.0000000  0  6                                             
E10  24608256.664 7 129317555.147 7     -1996.521 7        46.409               
E11  23510852.713 7 123550823.412 7      -567.373 7        43.568               
E12  26543980.233 6 139489672.052 6     -2838.885 6        37.158               
E24  26933951.584 6 141539296.674 6     -3248.742 6        38.652               
E25  23691839.380 7 124501913.480 7     -1242.825 7        47.332               
E36  25284094.437 7 132869264.880 7      1841.986 7        44.081               
> 2025 01 06 18 46 26.0000000  0  6                                             
E10  24608635.156 7 129319551.854 7     -1996.017 7        46.493               
E11  23510959.606 7 123551390.205 7      -565.649 7        43.536               
E12  26544519.324 6 139492511.415 6     -2840.212 6        36.847               
E24  26934566.073 6 141542544.867 6     -3248.532 6        38.571               
E25  23692073.134 7 124503156.376 7     -1242.500 7        47.494               
E36  25283738.914 7 132867423.034 7      1841.192 7        44.173               
> 2025 01 06 18 46 27.0000000  0  6                                             
E10  24609013.059 7 129321548.926 7     -1997.744 7        46.402               
E11  23511066.105 7 123551957.478 7      -566.424 7        43.662               
E12  26545058.504 6 139495350.959 6     -2838.195 6        36.697               
E24  26935185.163 6 141545793.347 6     -3247.635 6        38.481               
E25  23692309.639 7 124504399.776 7     -1244.531 7        47.616               
E36  25283391.049 7 132865581.560 7      1839.952 7        44.760               
> 2025 01 06 18 46 28.0000000  0  6                                             
E10  24609393.580 7 129323546.219 7     -1997.105 7        46.443               
E11  23511172.908 7 123552525.075 7      -568.322 7        43.659               
E12  26545597.407 6 139498190.621 6     -2839.222 6        36.648               
E24  26935803.931 6 141549041.901 6     -3248.680 6        38.610               
E25  23692545.376 7 124505643.562 7     -1243.256 7        47.221               
E36  25283039.199 7 132863740.293 7      1840.526 7        45.087               
> 2025 01 06 18 46 29.0000000  0  6                                             
E10  24609772.126 7 129325544.092 7     -1998.352 7        46.499               
E11  23511279.801 7 123553093.343 7      -568.668 7        43.243               
E12  26546138.266 6 139501030.728 6     -2841.028 6        36.817               
E24  26936421.717 6 141552291.004 6     -3250.030 6        38.931               
E25  23692781.712 7 124506888.079 7     -1245.215 7        47.161               
E36  25282688.252 7 132861899.626 7      1840.567 7        44.560               
> 2025 01 06 18 46 30.0000000  0  6                                             
E10  24610151.673 7 129327542.783 7     -1998.029 7        46.847               
E11  23511386.354 7 123553662.535 7      -569.650 7        43.264               
E12  26546679.430 6 139503871.512 6     -2838.774 6        36.754               
E24  26937038.797 6 141555540.826 6     -3249.168 6        38.543               
E25  23693016.743 7 124508133.575 7     -1245.736 7        46.813               
E36  25282337.036 7 132860059.779 7      1840.517 7        44.208               
> 2025 01 06 18 46 31.0000000  0  6                                             
E10  24610530.809 7 129329540.565 7     -1998.067 7        46.897               
E11  23511494.086 7 123554230.934 7      -567.897 7        43.458               
E12  26547215.938 6 139506711.260 6     -2839.342 6        36.735               
E24  26937652.830 6 141558789.635 6     -3249.086 6        38.775               
E25  23693252.534 7 124509378.309 7     -1244.793 7        46.805               
E36  25281983.462 7 132858219.032 7      1840.859 7        44.652               
> 2025 01 06 18 46 32.0000000  0  6                                             
E10  24610911.027 7 129331538.247 7     -1998.345 7        46.730               
E11  23511598.950 7 123554799.317 7      -568.865 7        43.665               
E12  26547753.269 6 139509550.767 6     -2838.690 6        36.713               
E24  26938270.616 6 141562038.226 6     -3248.882 6        38.801               
E25  23693487.959 7 124510623.066 7     -1245.825 7        46.866               
E36  25281633.399 7 132856378.162 7      1841.329 7        44.614               
> 2025 01 06 18 46 33.0000000  0  6                                             
E10  24611290.002 7 129333536.671 7     -1998.438 7        46.527               
E11  23511707.415 7 123555368.566 7      -569.822 7        43.666               
E12  26548288.151 6 139512390.872 6     -2838.948 6        36.854               
E24  26938889.903 6 141565287.479 6     -3250.411 6        38.868               
E25  23693724.875 7 124511868.745 7     -1246.341 7        47.038               
E36  25281283.979 7 132854538.080 7      1839.411 7        44.375               
> 2025 01 06 18 46 34.0000000  0  6                                             
E10  24611670.371 7 129335535.563 7     -1999.566 7        46.398               
E11  23511815.032 7 123555938.338 7      -569.685 7        43.879               
E12  26548832.799 6 139515231.350 6     -2843.279 6        36.638               
E24  26939505.919 6 141568537.092 6     -3250.626 6        38.716               
E25  23693958.191 7 124513115.028 7     -1247.167 7        47.117               
E36  25280930.940 7 132852698.439 7      1839.515 7        44.268               
> 2025 01 06 18 46 35.0000000  0  6                                             
E10  24612048.667 7 129337534.716 7     -1999.070 7        46.252               
E11  23511921.674 7 123556508.528 7      -570.872 7        43.448               
E12  26549371.434 6 139518071.926 6     -2843.538 6        36.739               
E24  26940122.740 6 141571786.888 6     -3250.613 6        38.448               
E25  23694196.099 7 124514361.745 7     -1247.000 7        47.148               
E36  25280581.235 7 132850859.070 7      1839.172 7        44.666               
> 2025 01 06 18 46 36.0000000  0  7                                             
E02  25066508.472 7 131725388.767 7      1529.096 7        43.638               
E10  24612427.937 7 129339534.069 7     -2000.198 7        46.362               
E11  23512028.129 7 123557079.001 7      -570.285 7        43.252               
E12  26549912.409 6 139520912.542 6     -2839.566 6        36.567               
E24  26940741.527 6 141575036.775 6     -3249.626 6        38.593               
E25  23694431.229 7 124515608.809 7     -1247.283 7        47.238               
E36  25280231.377 7 132849019.921 7      1838.978 7        44.626               
> 2025 01 06 18 46 37.0000000  0  7                                             
E02  25066218.672 7 131723861.370 7      1528.108 7        43.652               
E10  24612806.724 7 129341533.356 7     -1999.043 7        46.769               
E11  23512137.371 7 123557649.490 7      -569.634 7        43.414               
E12  26550452.411 6 139523752.986 6     -2838.073 6        36.322               
E24  26941355.953 6 141578286.495 6     -3248.773 6        38.429               
E25  23694668.467 7 124516855.946 7     -1246.864 7        47.483               
E36  25279882.029 7 132847180.692 7      1839.335 7        44.344               
> 2025 01 06 18 46 38.0000000  0  7                                             
E02  25065928.488 7 131722334.123 7      1526.249 7        43.758               
E10  24613187.335 7 129343532.764 7     -2000.355 7        46.732               
E11  23512244.987 7 123558220.204 7      -572.164 7        43.526               
E12  26550992.922 6 139526593.443 6     -2841.062 6        36.016               
E24  26941976.151 6 141581536.263 6     -3248.772 6        38.549               
E25  23694904.034 7 124518103.369 7     -1247.986 7        47.386               
E36  25279527.766 7 132845341.606 7      1837.991 7        44.593               
> 2025 01 06 18 46 39.0000000  0  7                                             
E02  25065635.249 7 131720807.510 7      1526.934 7        44.254               
E10  24613565.148 7 129345532.772 7     -1999.656 7        46.937               
E11  23512351.871 7 123558791.617 7      -570.618 7        43.781               
E12  26551530.530 6 139529434.322 6     -2840.246 6        36.319               
E24  26942589.005 6 141584786.508 6     -3249.714 6        38.516               
E25  23695140.888 7 124519351.530 7     -1248.627 7        47.431               
E36  25279178.999 7 132843503.090 7      1837.796 7        44.809               
> 2025 01 06 18 46 40.0000000  0  7                                             
E02  25065343.626 7 131719281.227 7      1525.840 7        44.345               
E10  24613946.670 7 129347533.075 7     -2000.798 7        46.878               
E11  23512459.621 7 123559363.461 7      -571.238 7        43.579               
E12  26552073.167 6 139532275.407 6     -2840.300 6        36.481               
E24  26943209.605 6 141588036.974 6     -3249.953 6        38.843               
E25  23695378.296 7 124520600.144 7     -1249.002 7        47.245               
E36  25278826.041 7 132841664.903 7      1837.861 7        44.506               
> 2025 01 06 18 46 41.0000000  0  7                                             
E02  25065054.104 7 131717755.409 7      1525.768 7        44.339               
E10  24614324.367 7 129349533.817 7     -2000.636 7        46.612               
E11  23512568.792 7 123559935.844 7      -573.079 7        43.707               
E12  26552606.942 6 139535116.774 6     -2841.039 6        36.954               
E24  26943827.480 6 141591287.790 6     -3250.344 6        38.906               
E25  23695614.756 7 124521849.359 7     -1249.591 7        47.132               
E36  25278474.790 7 132839827.161 7      1837.936 7        44.726               
> 2025 01 06 18 46 42.0000000  0  7                                             
E02  25064761.364 7 131716229.680 7      1524.598 7        44.128               
E10  24614703.834 7 129351534.610 7     -2000.614 7        46.597               
E11  23512675.264 7 123560508.359 7      -573.620 7        43.142               
E12  26553149.999 6 139537958.058 6     -2841.834 6        37.032               
E24  26944442.898 6 141594538.539 6     -3250.348 6        38.762               
E25  23695851.181 7 124523098.775 7     -1249.389 7        46.943               
E36  25278124.217 7 132837989.461 7      1837.542 7        44.699               
> 2025 01 06 18 46 43.0000000  0  7                                             
E02  25064468.679 7 131714704.362 7      1526.224 7        44.355               
E10  24615085.293 7 129353535.785 7     -2001.281 7        47.024               
E11  23512783.104 7 123561081.369 7      -573.023 7        42.871               
E12  26553692.110 6 139540799.613 6     -2842.082 6        36.737               
E24  26945060.702 6 141597789.623 6     -3251.051 6        38.628               
E25  23696087.481 7 124524348.720 7     -1250.435 7        47.283               
E36  25277775.307 7 132836152.163 7      1837.488 7        44.576               
> 2025 01 06 18 46 44.0000000  0  7                                             
E02  25064179.576 7 131713179.508 7      1524.020 7        44.030               
E10  24615463.660 7 129355537.389 7     -2002.051 7        47.091               
E11  23512890.193 7 123561654.900 7      -572.936 7        43.042               
E12  26554229.217 6 139543641.415 6     -2841.428 6        36.621               
E24  26945680.364 6 141601040.963 6     -3250.563 6        38.536               
E25  23696325.515 7 124525599.245 7     -1251.664 7        47.175               
E36  25277425.145 7 132834315.277 7      1835.827 7        44.916               
> 2025 01 06 18 46 45.0000000  0  7                                             
E02  25063886.658 7 131711655.587 7      1524.177 7        44.564               
E10  24615846.218 7 129357539.895 7     -2003.140 7        47.044               
E11  23512999.390 7 123562229.458 7      -574.888 7        43.514               
E12  26554767.262 6 139546484.021 6     -2844.238 6        36.345               
E24  26946296.112 6 141604293.175 6     -3251.611 6        38.483               
E25  23696562.467 7 124526850.831 7     -1252.076 7        47.054               
E36  25277073.465 7 132832479.322 7      1835.795 7        44.427               
> 2025 01 06 18 46 46.0000000  0  7                                             
E02  25063596.036 7 131710132.128 7      1523.714 7        44.615               
E10  24616223.317 7 129359542.839 7     -2002.646 7        47.206               
E11  23513106.882 7 123562804.538 7      -576.447 7        43.656               
E12  26555307.407 6 139549326.929 6     -2842.598 6        36.531               
E24  26946911.870 6 141607545.722 6     -3253.692 6        38.308               
E25  23696800.080 7 124528103.019 7     -1252.817 7        47.221               
E36  25276721.794 7 132830643.798 7      1835.222 7        44.726               
> 2025 01 06 18 46 47.0000000  0  7                                             
E02  25063303.127 7 131708608.452 7      1523.740 7        44.414               
E10  24616605.303 7 129361545.530 7     -2001.910 7        46.824               
E11  23513216.401 7 123563379.443 7      -573.854 7        43.515               
E12  26555848.579 6 139552169.435 6     -2839.527 6        36.892               
E24  26947531.460 6 141610797.876 6     -3251.283 6        38.360               
E25  23697037.023 7 124529355.074 7     -1252.369 7        47.124               
E36  25276370.551 7 132828808.021 7      1836.872 7        44.710               
> 2025 01 06 18 46 48.0000000  0  7                                             
E02  25063014.721 7 131707083.708 7      1524.071 7        44.336               
E10  24616985.002 7 129363547.132 7     -2001.228 7        47.002               
E11  23513322.016 7 123563953.395 7      -573.437 7        43.692               
E12  26556388.778 6 139555010.709 6     -2841.199 6        36.851               
E24  26948155.018 6 141614048.894 6     -3250.975 6        38.060               
E25  23697273.341 7 124530606.218 7     -1250.663 7        47.426               
E36  25276021.310 7 132826971.161 7      1837.974 7        44.811               
> 2025 01 06 18 46 49.0000000  0  7                                             
E02  25062723.849 7 131705559.001 7      1524.384 7        44.571               
E10  24617365.863 7 129365548.730 7     -2002.144 7        47.207               
E11  23513433.161 7 123564527.440 7      -574.164 7        43.845               
E12  26556931.263 6 139557851.869 6     -2845.341 6        37.274               
E24  26948769.212 6 141617299.779 6     -3252.819 6        37.966               
E25  23697510.544 7 124531857.511 7     -1252.209 7        47.371               
E36  25275671.131 7 132825134.308 7      1836.165 7        45.028               
> 2025 01 06 18 46 50.0000000  0  7                                             
E02  25062431.369 7 131704035.343 7      1522.943 7        44.584               
E10  24617744.552 7 129367551.340 7     -2003.095 7        47.047               
E11  23513542.171 7 123565102.596 7      -576.815 7        43.435               
E12  26557466.986 6 139560693.893 6     -2842.617 6        37.182               
E24  26949383.066 6 141620551.583 6     -3251.313 6        38.334               
E25  23697747.549 7 124533109.955 7     -1252.515 7        47.361               
E36  25275321.881 7 132823298.470 7      1836.055 7        45.129               
> 2025 01 06 18 46 51.0000000  0  7                                             
E02  25062141.238 7 131702512.085 7      1523.478 7        44.343               
E10  24618124.161 7 129369554.324 7     -2003.661 7        46.786               
E11  23513649.519 7 123565678.217 7      -576.458 7        43.606               
E12  26558006.675 6 139563536.153 6     -2842.317 6        37.085               
E24  26950000.021 6 141623803.707 6     -3253.122 6        38.301               
E25  23697985.297 7 124534362.944 7     -1253.508 7        47.212               
E36  25274969.638 7 132821463.010 7      1834.415 7        44.745               
> 2025 01 06 18 46 52.0000000  0  7                                             
E02  25061849.437 7 131700989.320 7      1522.658 7        43.993               
E10  24618506.264 7 129371557.756 7     -2003.336 7        46.905               
E11  23513757.493 7 123566254.400 7      -576.092 7        43.531               
E12  26558547.794 6 139566378.732 6     -2841.673 6        37.219               
E24  26950618.495 6 141627056.178 6     -3252.699 6        38.598               
E25  23698221.409 7 124535616.523 7     -1254.470 7        47.272               
E36  25274618.583 7 132819628.013 7      1834.490 7        44.789               
> 2025 01 06 18 46 53.0000000  0  7                                             
E02  25061560.200 7 131699466.702 7      1522.505 7        43.985               
E10  24618885.891 7 129373561.326 7     -2003.590 7        46.916               
E11  23513866.476 7 123566830.832 7      -575.846 7        43.385               
E12  26559083.757 6 139569221.324 6     -2841.005 6        37.336               
E24  26951235.852 6 141630308.633 6     -3251.449 6        38.569               
E25  23698460.416 7 124536870.385 7     -1254.436 7        47.389               
E36  25274271.182 7 132817793.137 7      1835.499 7        44.667               
> 2025 01 06 18 46 54.0000000  0  7                                             
E02  25061268.060 7 131697944.246 7      1521.265 7        43.994               
E10  24619264.866 7 129375565.000 7     -2004.531 7        46.850               
E11  23513975.504 7 123567407.451 7      -576.881 7        42.901               
E12  26559626.984 6 139572063.893 6     -2844.100 6        37.224               
E24  26951856.407 6 141633561.149 6     -3254.983 6        38.442               
E25  23698697.386 7 124538124.507 7     -1254.395 7        47.309               
E36  25273919.976 7 132815958.394 7      1833.386 7        44.841               
> 2025 01 06 18 46 55.0000000  0  7                                             
E02  25060977.804 7 131696421.981 7      1523.543 7        43.981               
E10  24619645.566 7 129377568.862 7     -2004.111 7        47.054               
E11  23514082.709 7 123567984.376 7      -578.112 7        43.122               
E12  26560171.641 6 139574906.498 6     -2841.142 6        37.517               
E24  26952472.290 6 141636813.742 6     -3252.352 6        38.087               
E25  23698935.294 7 124539378.978 7     -1254.118 7        47.425               
E36  25273566.696 7 132814123.821 7      1836.395 7        44.611               
> 2025 01 06 18 46 56.0000000  0  7                                             
E02  25060686.637 7 131694899.808 7      1521.642 7        43.859               
E10  24620026.560 7 129379572.766 7     -2004.442 7        46.970               
E11  23514192.317 7 123568561.416 7      -576.426 7        43.146               
E12  26560704.397 6 139577749.032 6     -2842.656 6        37.336               
E24  26953085.778 6 141640066.280 6     -3253.369 6        38.281               
E25  23699172.336 7 124540633.647 7     -1255.275 7        47.582               
E36  25273219.027 7 132812289.311 7      1834.294 7        44.684               
> 2025 01 06 18 46 57.0000000  0  7                                             
E02  25060395.051 7 131693377.954 7      1521.691 7        43.897               
E10  24620405.634 7 129381576.962 7     -2004.526 7        46.794               
E11  23514302.105 7 123569138.883 7      -577.228 7        43.193               
E12  26561246.856 6 139580591.731 6     -2843.644 6        37.458               
E24  26953708.621 6 141643319.011 6     -3252.448 6        37.795               
E25  23699411.459 7 124541888.756 7     -1255.630 7        47.625               
E36  25272868.679 7 132810455.097 7      1834.518 7        44.557               
> 2025 01 06 18 46 58.0000000  0  7                                             
E02  25060104.438 7 131691856.585 7      1521.278 7        44.173               
E10  24620787.012 7 129383581.587 7     -2004.451 7        46.799               
E11  23514409.846 7 123569716.885 7      -578.430 7        43.436               
E12  26561788.403 6 139583434.674 6     -2838.407 6        37.392               
E24  26954325.120 6 141646572.082 6     -3253.008 6        37.795               
E25  23699646.893 7 124543144.442 7     -1255.784 7        47.430               
E36  25272518.821 7 132808621.326 7      1833.678 7        44.500               
> 2025 01 06 18 46 59.0000000  0  7                                             
E02  25059815.415 7 131690335.275 7      1521.659 7        44.294               
E10  24621168.292 7 129385586.270 7     -2005.554 7        47.168               
E11  23514519.517 7 123570295.026 7      -578.919 7        43.499               
E12  26562328.718 6 139586277.569 6     -2842.359 6        37.576               
E24  26954946.185 6 141649825.115 6     -3252.579 6        38.141               
E25  23699885.042 7 124544400.338 7     -1255.385 7        47.223               
E36  25272168.758 7 132806787.608 7      1834.271 7        44.494               
> 2025 01 06 18 47 00.0000000  0  7                                             
E02  25059524.240 7 131688814.200 7      1521.496 7        44.396               
E10  24621547.089 7 129387591.141 7     -2004.505 7        47.006               
E11  23514630.028 7 123570873.440 7      -578.677 7        43.546               
E12  26562864.440 6 139589120.524 6     -2843.944 6        37.567               
E24  26955565.346 6 141653078.225 6     -3252.555 6        38.171               
E25  23700125.219 7 124545656.585 7     -1256.210 7        46.764               
E36  25271818.686 7 132804954.081 7      1833.436 7        44.327               
> 2025 01 06 18 47 01.0000000  0  7                                             
E02  25059234.234 7 131687293.236 7      1519.398 7        44.578               
E10  24621928.378 7 129389596.094 7     -2005.699 7        47.210               
E11  23514736.108 7 123571452.060 7      -578.979 7        43.495               
E12  26563409.597 6 139591963.426 6     -2843.821 6        37.493               
E24  26956181.881 6 141656331.342 6     -3253.680 6        38.644               
E25  23700361.135 7 124546913.062 7     -1257.331 7        47.292               
E36  25271467.515 7 132803120.647 7      1832.894 7        44.456               
> 2025 01 06 18 47 02.0000000  0  7                                             
E02  25058942.790 7 131685772.882 7      1518.470 7        44.634               
E10  24622307.398 7 129391601.616 7     -2005.955 7        46.986               
E11  23514845.457 7 123572031.374 7      -580.819 7        43.502               
E12  26563951.708 6 139594806.763 6     -2844.527 6        37.100               
E24  26956795.307 6 141659584.928 6     -3253.411 6        38.456               
E25  23700599.714 7 124548170.273 7     -1257.926 7        47.409               
E36  25271117.872 7 132801287.790 7      1833.053 7        44.397               
> 2025 01 06 18 47 03.0000000  0  7                                             
E02  25058653.455 7 131684252.995 7      1519.177 7        44.356               
E10  24622688.580 7 129393607.573 7     -2005.334 7        47.057               
E11  23514956.790 7 123572611.202 7      -581.382 7        43.684               
E12  26564485.214 6 139597650.409 6     -2843.764 6        37.338               
E24  26957413.861 6 141662838.856 6     -3253.700 6        38.417               
E25  23700838.193 7 124549428.063 7     -1258.038 7        47.176               
E36  25270768.470 7 132799455.386 7      1831.891 7        44.149               
> 2025 01 06 18 47 04.0000000  0  7                                             
E02  25058363.441 7 131682733.230 7      1519.021 7        44.500               
E10  24623071.129 7 129395613.628 7     -2005.803 7        46.747               
E11  23515063.557 7 123573191.209 7      -581.231 7        43.818               
E12  26565025.430 6 139600494.000 6     -2844.240 6        37.327               
E24  26958034.542 6 141666092.790 6     -3255.255 6        38.152               
E25  23701076.816 7 124550686.104 7     -1257.923 7        47.526               
E36  25270417.737 7 132797623.065 7      1833.186 7        44.586               
> 2025 01 06 18 47 05.0000000  0  7                                             
E02  25058072.149 7 131681213.705 7      1518.957 7        44.409               
E10  24623449.854 7 129397619.883 7     -2006.940 7        46.766               
E11  23515173.389 7 123573771.535 7      -579.710 7        43.493               
E12  26565565.638 6 139603337.669 6     -2844.987 6        37.526               
E24  26958654.141 6 141669346.807 6     -3254.911 6        38.214               
E25  23701315.529 7 124551944.488 7     -1258.599 7        47.286               
E36  25270069.264 7 132795790.965 7      1831.110 7        44.540               
> 2025 01 06 18 47 06.0000000  0  7                                             
E02  25057779.187 7 131679694.694 7      1518.798 7        44.327               
E10  24623831.125 7 129399626.620 7     -2006.679 7        46.532               
E11  23515283.364 7 123574352.471 7      -580.191 7        43.389               
E12  26566108.597 6 139606181.686 6     -2843.076 6        37.812               
E24  26959268.952 6 141672601.245 6     -3254.258 6        38.637               
E25  23701555.233 7 124553203.528 7     -1259.994 7        47.266               
E36  25269717.566 7 132793959.339 7      1832.407 7        44.676               
> 2025 01 06 18 47 07.0000000  0  7                                             
E02  25057492.165 7 131678176.058 7      1518.208 7        44.316               
E10  24624209.877 7 129401633.689 7     -2006.975 7        46.214               
E11  23515393.107 7 123574933.840 7      -582.355 7        43.393               
E12  26566648.456 6 139609025.921 6     -2845.960 6        37.931               
E24  26959891.437 6 141675855.897 6     -3255.926 6        38.312               
E25  23701792.453 7 124554463.048 7     -1259.698 7        47.138               
E36  25269368.298 7 132792128.061 7      1830.994 7        44.504               
> 2025 01 06 18 47 08.0000000  0  7                                             
E02  25057201.168 7 131676657.500 7      1517.363 7        44.012               
E10  24624592.060 7 129403640.830 7     -2007.273 7        45.808               
E11  23515501.858 7 123575515.352 7      -581.306 7        43.287               
E12  26567186.358 6 139611870.047 6     -2842.506 6        37.817               
E24  26960511.385 6 141679110.533 6     -3253.523 6        38.298               
E25  23702030.710 7 124555722.785 7     -1260.992 7        47.142               
E36  25269021.755 7 132790296.852 7      1831.192 7        44.287               
> 2025 01 06 18 47 09.0000000  0  7                                             
E02  25056914.621 7 131675139.108 7      1516.823 7        44.201               
E10  24624972.992 7 129405648.070 7     -2006.883 7        45.921               
E11  23515610.698 7 123576097.076 7      -581.306 7        43.570               
E12  26567724.797 6 139614714.165 6     -2843.850 6        37.848               
E24  26961131.484 6 141682365.181 6     -3255.619 6        38.181               
E25  23702269.288 7 124556982.773 7     -1260.041 7        47.257               
E36  25268671.442 7 132788465.766 7      1831.002 7        44.623               
> 2025 01 06 18 47 10.0000000  0  7                                             
E02  25056621.890 7 131673620.904 7      1517.458 7        44.084               
E10  24625353.968 7 129407655.479 7     -2007.635 7        45.740               
E11  23515721.799 7 123576679.092 7      -581.758 7        43.461               
E12  26568266.478 6 139617558.314 6     -2844.454 6        37.698               
E24  26961750.691 6 141685619.899 6     -3255.892 6        38.179               
E25  23702509.224 7 124558243.099 7     -1260.196 7        47.630               
E36  25268321.030 7 132786634.840 7      1829.703 7        44.644               
> 2025 01 06 18 47 11.0000000  0  7                                             
E02  25056332.841 7 131672103.179 7      1517.082 7        43.765               
E10  24625734.400 7 129409663.340 7     -2007.800 7        46.246               
E11  23515831.175 7 123577261.654 7      -583.494 7        43.348               
E12  26568806.846 6 139620402.798 6     -2844.735 6        37.792               
E24  26962364.027 6 141688874.978 6     -3254.693 6        38.161               
E25  23702746.033 7 124559504.027 7     -1261.481 7        47.629               
E36  25267970.744 7 132784804.373 7      1829.605 7        44.618               
> 2025 01 06 18 47 12.0000000  0  7                                             
E02  25056040.781 7 131670585.871 7      1516.333 7        43.729               
E10  24626114.474 7 129411671.564 7     -2008.145 7        46.111               
E11  23515941.713 7 123577844.668 7      -583.992 7        43.080               
E12  26569352.790 6 139623247.489 6     -2842.750 6        37.835               
E24  26962981.768 6 141692130.305 6     -3254.993 6        37.913               
E25  23702985.076 7 124560765.457 7     -1261.035 7        47.314               
E36  25267622.673 7 132782974.273 7      1831.553 7        44.573               
> 2025 01 06 18 47 13.0000000  0  7                                             
E02  25055750.070 7 131669068.757 7      1517.254 7        44.007               
E10  24626494.494 7 129413679.976 7     -2008.120 7        46.178               
E11  23516050.374 7 123578427.954 7      -582.885 7        43.030               
E12  26569889.656 6 139626092.261 6     -2843.449 6        37.646               
E24  26963603.583 6 141695385.726 6     -3255.472 6        38.308               
E25  23703223.485 7 124562027.243 7     -1262.379 7        47.252               
E36  25267273.289 7 132781144.372 7      1830.086 7        44.608               
> 2025 01 06 18 47 14.0000000  0  7                                             
E02  25055460.502 7 131667551.764 7      1516.872 7        44.005               
E10  24626876.266 7 129415688.451 7     -2008.818 7        46.426               
E11  23516160.242 7 123579011.441 7      -582.944 7        43.293               
E12  26570428.639 6 139628936.959 6     -2843.853 6        37.398               
E24  26964218.331 6 141698641.135 6     -3255.048 6        38.430               
E25  23703464.475 7 124563289.246 7     -1262.406 7        47.394               
E36  25266922.761 7 132779314.551 7      1830.674 7        44.452               
> 2025 01 06 18 47 15.0000000  0  7                                             
E02  25055170.184 7 131666035.286 7      1515.630 7        44.254               
E10  24627258.609 7 129417697.413 7     -2009.629 7        46.398               
E11  23516272.164 7 123579595.512 7      -584.199 7        43.350               
E12  26570966.479 6 139631781.988 6     -2845.452 6        37.451               
E24  26964836.716 6 141701896.912 6     -3254.603 6        38.204               
E25  23703704.689 7 124564551.885 7     -1263.387 7        47.516               
E36  25266572.680 7 132777485.213 7      1829.425 7        44.331               
> 2025 01 06 18 47 16.0000000  0  7                                             
E02  25054881.421 7 131664519.046 7      1516.974 7        44.250               
E10  24627637.638 7 129419706.586 7     -2008.521 7        46.348               
E11  23516380.201 7 123580179.887 7      -583.388 7        43.370               
E12  26571508.821 6 139634627.111 6     -2842.180 6        36.983               
E24  26965456.708 6 141705152.813 6     -3254.603 6        38.364               
E25  23703942.588 7 124565814.883 7     -1262.820 7        47.222               
E36  25266223.091 7 132775656.097 7      1829.075 7        44.880               
> 2025 01 06 18 47 17.0000000  0  7                                             
E02  25054591.183 7 131663002.695 7      1515.857 7        44.216               
E10  24628020.562 7 129421715.607 7     -2009.350 7        46.352               
E11  23516491.426 7 123580764.190 7      -584.316 7        43.636               
E12  26572055.470 6 139637471.943 6     -2845.065 6        37.188               
E24  26966075.727 6 141708408.475 6     -3256.788 6        38.208               
E25  23704182.140 7 124567077.897 7     -1263.130 7        47.406               
E36  25265875.333 7 132773826.834 7      1828.185 7        44.800               
> 2025 01 06 18 47 18.0000000  0  7                                             
E02  25054302.241 7 131661487.252 7      1514.673 7        44.146               
E10  24628401.950 7 129423725.500 7     -2009.990 7        46.321               
E11  23516601.348 7 123581349.496 7      -585.027 7        43.641               
E12  26572592.408 6 139640317.493 6     -2844.407 6        37.096               
E24  26966693.620 6 141711664.916 6     -3254.766 6        38.139               
E25  23704418.958 7 124568341.938 7     -1263.974 7        47.014               
E36  25265525.582 7 132771998.450 7      1828.791 7        44.984               
> 2025 01 06 18 47 19.0000000  0  7                                             
E02  25054015.345 7 131659972.398 7      1513.941 7        44.526               
E10  24628782.810 7 129425735.946 7     -2011.024 7        46.297               
E11  23516713.056 7 123581935.473 7      -585.482 7        43.839               
E12  26573128.693 6 139643163.494 6     -2846.541 6        37.368               
E24  26967310.682 6 141714921.807 6     -3255.837 6        38.168               
E25  23704659.225 7 124569606.673 7     -1265.341 7        47.134               
E36  25265178.137 7 132770170.631 7      1827.778 7        44.634               
> 2025 01 06 18 47 20.0000000  0  7                                             
E02  25053727.144 7 131658458.110 7      1513.170 7        44.597               
E10  24629163.822 7 129427746.911 7     -2010.533 7        46.057               
E11  23516823.960 7 123582522.059 7      -587.351 7        43.510               
E12  26573666.613 6 139646009.866 6     -2844.197 6        37.449               
E24  26967933.489 6 141718179.127 6     -3257.655 6        38.489               
E25  23704899.170 7 124570872.090 7     -1265.303 7        47.251               
E36  25264827.600 7 132768343.340 7      1826.450 7        44.966               
> 2025 01 06 18 47 21.0000000  0  7                                             
E02  25053435.120 7 131656944.022 7      1514.561 7        44.262               
E10  24629545.237 7 129429758.062 7     -2011.233 7        46.375               
E11  23516932.863 7 123583108.913 7      -586.435 7        43.457               
E12  26574211.529 6 139648856.288 6     -2848.126 6        37.521               
E24  26968545.083 6 141721436.526 6     -3258.019 6        38.617               
E25  23705139.267 7 124572137.850 7     -1265.729 7        47.060               
E36  25264479.753 7 132766516.235 7      1825.795 7        44.984               
> 2025 01 06 18 47 22.0000000  0  7                                             
E02  25053146.750 7 131655430.183 7      1512.849 7        44.480               
E10  24629927.848 7 129431769.412 7     -2011.137 7        46.212               
E11  23517043.418 7 123583696.094 7      -585.896 7        43.687               
E12  26574751.888 6 139651702.789 6     -2846.235 6        37.511               
E24  26969162.029 6 141724694.050 6     -3257.589 6        38.598               
E25  23705377.810 7 124573403.952 7     -1266.287 7        47.148               
E36  25264131.110 7 132764689.331 7      1826.723 7        44.663               
> 2025 01 06 18 47 23.0000000  0  7                                             
E02  25052858.460 7 131653916.453 7      1513.364 7        44.689               
E10  24630308.280 7 129433780.840 7     -2011.303 7        45.884               
E11  23517154.081 7 123584283.470 7      -587.772 7        43.943               
E12  26575290.559 6 139654549.229 6     -2847.719 6        37.713               
E24  26969785.577 6 141727951.561 6     -3258.879 6        38.518               
E25  23705617.416 7 124574670.294 7     -1266.695 7        47.166               
E36  25263783.460 7 132762862.533 7      1825.462 7        44.494               
> 2025 01 06 18 47 24.0000000  0  7                                             
E02  25052568.696 7 131652402.698 7      1513.137 7        44.907               
E10  24630688.711 7 129435792.200 7     -2011.537 7        46.209               
E11  23517265.825 7 123584870.857 7      -586.592 7        43.981               
E12  26575828.550 6 139657395.457 6     -2844.416 6        37.491               
E24  26970405.498 6 141731208.888 6     -3257.303 6        38.361               
E25  23705857.808 7 124575936.722 7     -1266.711 7        47.034               
E36  25263433.834 7 132761035.655 7      1827.320 7        44.502               
> 2025 01 06 18 47 25.0000000  0  7                                             
E02  25052278.538 7 131650889.089 7      1513.019 7        44.653               
E10  24631070.974 7 129437803.685 7     -2010.718 7        46.071               
E11  23517375.818 7 123585458.470 7      -589.221 7        43.740               
E12  26576375.137 6 139660241.702 6     -2845.881 6        37.566               
E24  26971022.266 6 141734466.252 6     -3258.168 6        38.624               
E25  23706097.762 7 124577203.428 7     -1267.050 7        47.122               
E36  25263086.273 7 132759208.925 7      1826.605 7        44.767               
> 2025 01 06 18 47 26.0000000  0  7                                             
E02  25051988.640 7 131649375.982 7      1511.732 7        45.164               
E10  24631452.505 7 129439815.615 7     -2012.455 7        46.193               
E11  23517486.829 7 123586046.633 7      -588.125 7        43.299               
E12  26576915.094 6 139663088.219 6     -2845.841 6        37.614               
E24  26971640.659 6 141737723.946 6     -3257.547 6        38.665               
E25  23706336.286 7 124578470.740 7     -1267.563 7        47.289               
E36  25262736.183 7 132757382.639 7      1824.947 7        44.817               
> 2025 01 06 18 47 27.0000000  0  7                                             
E02  25051699.287 7 131647863.325 7      1512.913 7        45.056               
E10  24631835.527 7 129441827.992 7     -2012.036 7        46.055               
E11  23517594.874 7 123586635.344 7      -587.700 7        43.214               
E12  26577453.452 6 139665935.041 6     -2844.568 6        37.745               
E24  26972259.427 6 141740982.019 6     -3257.598 6        39.212               
E25  23706577.375 7 124579738.639 7     -1267.987 7        47.005               
E36  25262388.291 7 132755556.791 7      1824.991 7        44.836               
> 2025 01 06 18 47 28.0000000  0  7                                             
E02  25051411.658 7 131646350.782 7      1512.945 7        44.784               
E10  24632217.701 7 129443840.437 7     -2012.584 7        46.186               
E11  23517707.485 7 123587224.252 7      -589.218 7        43.242               
E12  26577995.214 6 139668781.825 6     -2845.342 6        37.813               
E24  26972878.946 6 141744240.053 6     -3258.256 6        39.400               
E25  23706816.230 7 124581006.771 7     -1268.444 7        47.073               
E36  25262039.631 7 132753731.038 7      1825.634 7        44.819               
> 2025 01 06 18 47 29.0000000  0  7                                             
E02  25051121.608 7 131644838.793 7      1510.986 7        44.932               
E10  24632600.268 7 129445853.383 7     -2013.566 7        46.363               
E11  23517818.621 7 123587813.724 7      -591.216 7        43.214               
E12  26578535.806 6 139671628.980 6     -2847.651 6        37.900               
E24  26973503.951 6 141747498.501 6     -3259.135 6        39.445               
E25  23707057.677 7 124582275.558 7     -1269.333 7        46.927               
E36  25261692.310 7 132751905.792 7      1824.494 7        45.082               
> 2025 01 06 18 47 30.0000000  0  7                                             
E02  25050832.452 7 131643327.886 7      1511.198 7        44.671               
E10  24632982.093 7 129447867.390 7     -2013.297 7        46.542               
E11  23517928.623 7 123588404.380 7      -591.363 7        42.965               
E12  26579072.484 6 139674477.059 6     -2848.798 6        37.971               
E24  26974117.904 6 141750757.922 6     -3259.081 6        39.237               
E25  23707298.998 7 124583545.561 7     -1269.992 7        46.986               
E36  25261343.114 7 132750081.620 7      1824.666 7        44.912               
> 2025 01 06 18 47 31.0000000  0  7                                             
E02  25050546.226 7 131641816.108 7      1511.471 7        44.591               
E10  24633363.695 7 129449880.479 7     -2012.787 7        46.585               
E11  23518042.332 7 123588994.222 7      -589.611 7        43.099               
E12  26579620.464 6 139677324.085 6     -2846.829 6        37.807               
E24  26974734.877 6 141754016.315 6     -3258.766 6        38.958               
E25  23707538.443 7 124584814.799 7     -1270.140 7        46.792               
E36  25260993.837 7 132748256.532 7      1826.489 7        44.777               
> 2025 01 06 18 47 32.0000000  0  7                                             
E02  25050257.972 7 131640304.650 7      1510.651 7        44.155               
E10  24633745.565 7 129451893.853 7     -2012.672 7        46.469               
E11  23518152.370 7 123589584.464 7      -590.291 7        43.194               
E12  26580161.145 6 139680171.231 6     -2844.720 6        37.878               
E24  26975350.733 6 141757274.911 6     -3257.183 6        38.829               
E25  23707777.914 7 124586084.481 7     -1270.154 7        46.881               
E36  25260645.186 7 132746431.739 7      1826.963 7        44.554               
> 2025 01 06 18 47 33.0000000  0  7                                             
E02  25049967.404 7 131638792.870 7      1511.019 7        44.260               
E10  24634127.846 7 129453906.874 7     -2013.535 7        46.627               
E11  23518265.293 7 123590174.446 7      -591.608 7        43.496               
E12  26580698.976 6 139683017.938 6     -2846.159 6        37.985               
E24  26975972.360 6 141760533.018 6     -3257.880 6        38.991               
E25  23708018.646 7 124587353.966 7     -1270.876 7        46.820               
E36  25260296.659 7 132744606.608 7      1824.823 7        44.719               
> 2025 01 06 18 47 34.0000000  0  7                                             
E02  25049678.462 7 131637281.872 7      1509.725 7        44.330               
E10  24634509.698 7 129455920.642 7     -2013.873 7        46.776               
E11  23518375.858 7 123590765.252 7      -591.719 7        43.547               
E12  26581239.425 6 139685865.249 6     -2844.995 6        38.349               
E24  26976587.573 6 141763791.812 6     -3258.126 6        38.917               
E25  23708259.815 7 124588624.348 7     -1271.328 7        46.816               
E36  25259948.088 7 132742782.228 7      1823.765 7        44.991               
> 2025 01 06 18 47 35.0000000  0  7                                             
E02  25049391.431 7 131635771.675 7      1509.960 7        44.397               
E10  24634891.014 7 129457935.181 7     -2015.603 7        46.929               
E11  23518486.949 7 123591356.937 7      -592.214 7        43.744               
E12  26581782.786 6 139688713.168 6     -2848.355 6        38.579               
E24  26977209.558 6 141767051.276 6     -3260.337 6        38.998               
E25  23708500.993 7 124589895.645 7     -1271.751 7        47.002               
E36  25259599.205 7 132740958.619 7      1822.337 7        45.000               
> 2025 01 06 18 47 36.0000000  0  7                                             
E02  25049103.401 7 131634262.531 7      1508.920 7        44.493               
E10  24635273.751 7 129459950.721 7     -2016.264 7        47.186               
E11  23518598.568 7 123591949.756 7      -593.034 7        43.588               
E12  26582326.585 6 139691562.001 6     -2849.271 6        38.695               
E24  26977827.853 6 141770311.678 6     -3258.446 6        38.724               
E25  23708741.582 7 124591168.116 7     -1272.429 7        46.925               
E36  25259252.278 7 132739136.016 7      1822.814 7        45.071               
> 2025 01 06 18 47 37.0000000  0  7                                             
E02  25048814.325 7 131632753.594 7      1509.576 7        44.637               
E10  24635656.326 7 129461966.436 7     -2015.531 7        46.536               
E11  23518712.072 7 123592542.842 7      -592.835 7        43.978               
E12  26582862.513 6 139694410.819 6     -2847.063 6        38.403               
E24  26978446.067 6 141773572.127 6     -3259.211 6        38.518               
E25  23708982.564 7 124592440.915 7     -1272.593 7        47.219               
E36  25258904.189 7 132737313.616 7      1821.652 7        45.012               
> 2025 01 06 18 47 38.0000000  0  7                                             
E02  25048526.321 7 131631244.933 7      1509.277 7        44.493               
E10  24636039.027 7 129463982.387 7     -2015.804 7        46.085               
E11  23518822.771 7 123593136.262 7      -594.839 7        43.803               
E12  26583402.559 6 139697259.773 6     -2848.905 6        38.355               
E24  26979065.426 6 141776832.722 6     -3260.477 6        38.617               
E25  23709222.938 7 124593714.094 7     -1273.136 7        47.072               
E36  25258557.235 7 132735491.435 7      1823.638 7        45.442               
> 2025 01 06 18 47 39.0000000  0  7                                             
E02  25048236.717 7 131629736.712 7      1507.785 7        44.769               
E10  24636421.424 7 129465998.745 7     -2017.092 7        46.133               
E11  23518933.193 7 123593730.169 7      -594.850 7        43.509               
E12  26583946.492 6 139700108.992 6     -2846.098 6        38.251               
E24  26979688.795 6 141780093.632 6     -3262.002 6        38.722               
E25  23709466.412 7 124594987.848 7     -1274.464 7        46.968               
E36  25258209.423 7 132733669.695 7      1821.618 7        44.992               
> 2025 01 06 18 47 40.0000000  0  7                                             
E02  25047950.706 7 131628228.810 7      1508.762 7        44.736               
E10  24636804.134 7 129468015.388 7     -2017.092 7        46.114               
E11  23519044.186 7 123594324.503 7      -594.792 7        43.810               
E12  26584484.439 6 139702958.369 6     -2851.313 6        38.497               
E24  26980306.090 6 141783354.731 6     -3260.936 6        38.911               
E25  23709706.715 7 124596262.043 7     -1274.464 7        47.059               
E36  25257862.380 7 132731848.236 7      1820.283 7        44.920               
> 2025 01 06 18 47 41.0000000  0  7                                             
E02  25047661.978 7 131626720.779 7      1508.074 7        44.569               
E10  24637186.254 7 129470031.852 7     -2016.618 7        46.371               
E11  23519158.592 7 123594918.760 7      -594.375 7        43.527               
E12  26585028.113 6 139705807.455 6     -2847.426 6        38.269               
E24  26980924.894 6 141786615.562 6     -3260.872 6        38.864               
E25  23709947.973 7 124597536.206 7     -1274.316 7        46.642               
E36  25257514.506 7 132730026.620 7      1821.708 7        44.823               
> 2025 01 06 18 47 42.0000000  0  7                                             
E02  25047370.981 7 131625212.286 7      1508.510 7        44.489               
E10  24637568.714 7 129472047.824 7     -2016.514 7        46.213               
E11  23519269.854 7 123595512.597 7      -593.792 7        43.574               
E12  26585566.337 6 139708655.869 6     -2849.251 6        37.921               
E24  26981544.556 6 141789875.776 6     -3259.904 6        38.427               
E25  23710191.474 7 124598810.028 7     -1273.356 7        46.467               
E36  25257165.524 7 132728204.497 7      1821.331 7        44.506               
> 2025 01 06 18 47 43.0000000  0  7                                             
E02  25047082.521 7 131623704.227 7      1508.558 7        44.388               
E10  24637950.512 7 129474064.196 7     -2016.455 7        46.525               
E11  23519383.572 7 123596106.953 7      -594.800 7        43.815               
E12  26586108.635 6 139711504.585 6     -2849.301 6        37.865               
E24  26982163.601 6 141793136.337 6     -3260.636 6        38.450               
E25  23710431.455 7 124600084.431 7     -1274.765 7        46.574               
E36  25256820.223 7 132726382.814 7      1821.456 7        44.658               
> 2025 01 06 18 47 44.0000000  0  7                                             
E02  25046796.403 7 131622196.777 7      1506.964 7        44.214               
E10  24638333.651 7 129476081.136 7     -2016.864 7        46.656               
E11  23519495.120 7 123596701.967 7      -593.637 7        43.356               
E12  26586650.540 6 139714353.727 6     -2847.845 6        38.247               
E24  26982780.297 6 141796397.341 6     -3260.720 6        38.499               
E25  23710673.018 7 124601359.520 7     -1275.001 7        46.482               
E36  25256468.150 7 132724561.663 7      1820.513 7        44.872               
> 2025 01 06 18 47 45.0000000  0  7                                             
E02  25046510.981 7 131620689.701 7      1507.025 7        44.158               
E10  24638715.593 7 129478098.414 7     -2018.090 7        46.278               
E11  23519606.319 7 123597297.464 7      -596.237 7        43.399               
E12  26587189.693 6 139717203.063 6     -2848.033 6        38.434               
E24  26983403.604 6 141799658.594 6     -3260.872 6        38.650               
E25  23710913.928 7 124602635.127 7     -1275.670 7        46.620               
E36  25256121.267 7 132722740.885 7      1820.230 7        44.810               
> 2025 01 06 18 47 46.0000000  0  7                                             
E02  25046221.565 7 131619182.234 7      1507.212 7        44.287               
E10  24639100.429 7 129480115.252 7     -2016.388 7        46.490               
E11  23519718.733 7 123597892.590 7      -595.086 7        43.204               
E12  26587729.722 6 139720051.809 6     -2847.561 6        38.059               
E24  26984022.775 6 141802919.327 6     -3260.121 6        38.706               
E25  23711156.187 7 124603910.444 7     -1275.323 7        46.706               
E36  25255774.707 7 132720919.680 7      1822.581 7        45.011               
> 2025 01 06 18 47 47.0000000  0  7                                             
E02  25045933.561 7 131617674.722 7      1508.272 7        44.249               
E10  24639483.514 7 129482132.037 7     -2017.170 7        46.424               
E11  23519832.701 7 123598487.759 7      -595.664 7        43.485               
E12  26588273.682 6 139722900.406 6     -2849.204 6        37.984               
E24  26984642.875 6 141806179.890 6     -3261.550 6        38.880               
E25  23711398.259 7 124605185.851 7     -1275.332 7        46.551               
E36  25255427.967 7 132719098.417 7      1822.441 7        44.917               
> 2025 01 06 18 47 48.0000000  0  7                                             
E02  25045647.067 7 131616168.142 7      1506.355 7        44.166               
E10  24639864.901 7 129484149.683 7     -2018.505 7        46.215               
E11  23519942.649 7 123599083.928 7      -597.658 7        43.488               
E12  26588812.468 6 139725749.727 6     -2852.244 6        38.224               
E24  26985263.814 6 141809441.240 6     -3261.957 6        38.970               
E25  23711640.331 7 124606462.293 7     -1277.124 7        46.396               
E36  25255080.111 7 132717278.044 7      1818.718 7        44.630               
> 2025 01 06 18 47 49.0000000  0  7                                             
E02  25045358.170 7 131614662.605 7      1504.932 7        44.459               
E10  24640249.407 7 129486168.356 7     -2018.629 7        46.127               
E11  23520056.323 7 123599681.196 7      -596.783 7        43.606               
E12  26589355.115 6 139728599.915 6     -2848.739 6        38.546               
E24  26985886.666 6 141812703.496 6     -3263.234 6        38.912               
E25  23711883.975 7 124607739.901 7     -1277.576 7        46.643               
E36  25254731.826 7 132715458.682 7      1818.910 7        44.588               
> 2025 01 06 18 47 50.0000000  0  7                                             
E02  25045072.917 7 131613156.803 7      1505.496 7        44.358               
E10  24640632.715 7 129488186.699 7     -2017.674 7        46.254               
E11  23520169.023 7 123600278.256 7      -598.054 7        43.609               
E12  26589895.635 6 139731449.661 6     -2849.766 6        38.528               
E24  26986500.324 6 141815965.367 6     -3262.898 6        39.018               
E25  23712123.491 7 124609017.353 7     -1278.094 7        46.685               
E36  25254383.013 7 132713639.014 7      1820.642 7        44.761               
> 2025 01 06 18 47 51.0000000  0  7                                             
E02  25044784.904 7 131611650.956 7      1505.430 7        43.857               
E10  24641014.684 7 129490204.984 7     -2018.882 7        46.427               
E11  23520281.571 7 123600875.331 7      -597.087 7        43.587               
E12  26590433.796 6 139734299.192 6     -2850.372 6        38.269               
E24  26987122.380 6 141819227.053 6     -3261.292 6        38.793               
E25  23712366.769 7 124610294.887 7     -1277.795 7        46.635               
E36  25254035.050 7 132711819.284 7      1818.839 7        44.665               
> 2025 01 06 18 47 52.0000000  0  7                                             
E02  25044495.435 7 131610145.577 7      1505.728 7        44.082               
E10  24641397.876 7 129492223.691 7     -2019.274 7        46.417               
E11  23520395.048 7 123601472.956 7      -596.867 7        43.540               
E12  26590978.953 6 139737149.037 6     -2850.128 6        38.418               
E24  26987740.443 6 141822489.072 6     -3262.901 6        38.701               
E25  23712609.001 7 124611573.010 7     -1278.763 7        47.086               
E36  25253689.472 7 132710000.007 7      1819.304 7        44.282               
> 2025 01 06 18 47 53.0000000  0  7                                             
E02  25044207.699 7 131608640.116 7      1505.998 7        44.378               
E10  24641778.361 7 129494242.278 7     -2017.607 7        46.152               
E11  23520506.372 7 123602070.577 7      -596.165 7        43.360               
E12  26591521.457 6 139739998.617 6     -2846.717 6        38.279               
E24  26988362.723 6 141825750.883 6     -3261.195 6        38.624               
E25  23712851.028 7 124612851.162 7     -1276.980 7        46.855               
E36  25253341.919 7 132708180.607 7      1820.182 7        44.055               
> 2025 01 06 18 47 54.0000000  0  7                                             
E02  25043918.427 7 131607134.334 7      1504.811 7        44.568               
E10  24642163.814 7 129496260.503 7     -2019.217 7        46.353               
E11  23520619.144 7 123602667.937 7      -598.931 7        43.777               
E12  26592062.343 6 139742847.705 6     -2849.343 6        38.084               
E24  26988980.491 6 141829012.233 6     -3262.734 6        38.926               
E25  23713094.396 7 124614129.115 7     -1279.364 7        46.888               
E36  25252993.625 7 132706360.857 7      1818.355 7        44.195               
> 2025 01 06 18 47 55.0000000  0  7                                             
E02  25043631.647 7 131605629.720 7      1503.662 7        44.630               
E10  24642547.185 7 129498279.856 7     -2019.697 7        46.646               
E11  23520731.897 7 123603266.501 7      -598.763 7        43.747               
E12  26592605.419 6 139745697.779 6     -2849.605 6        38.064               
E24  26989597.070 6 141832274.624 6     -3263.105 6        39.265               
E25  23713337.334 7 124615408.344 7     -1279.889 7        47.116               
E36  25252645.689 7 132704542.248 7      1818.136 7        44.726               
> 2025 01 06 18 47 56.0000000  0  7                                             
E02  25043345.313 7 131604125.891 7      1503.195 7        44.659               
E10  24642930.046 7 129500299.952 7     -2019.774 7        46.849               
E11  23520842.096 7 123603865.920 7      -599.632 7        43.650               
E12  26593143.750 6 139748548.475 6     -2852.641 6        38.247               
E24  26990220.369 6 141835537.680 6     -3262.177 6        39.309               
E25  23713578.860 7 124616688.478 7     -1280.300 7        47.116               
E36  25252297.734 7 132702724.399 7      1818.133 7        44.367               
> 2025 01 06 18 47 57.0000000  0  7                                             
E02  25043057.229 7 131602622.834 7      1503.177 7        44.409               
E10  24643314.766 7 129502320.795 7     -2020.912 7        46.676               
E11  23520957.110 7 123604466.203 7      -600.916 7        43.354               
E12  26593688.639 6 139751399.781 6     -2850.895 6        38.260               
E24  26990836.662 6 141838801.338 6     -3263.286 6        39.631               
E25  23713821.173 7 124617969.515 7     -1280.610 7        47.137               
E36  25251952.013 7 132700907.288 7      1816.738 7        44.095               
> 2025 01 06 18 47 58.0000000  0  7                                             
E02  25042768.912 7 131601119.877 7      1502.833 7        44.470               
E10  24643696.958 7 129504341.684 7     -2021.046 7        46.359               
E11  23521070.900 7 123605066.642 7      -600.338 7        43.477               
E12  26594227.703 6 139754250.998 6     -2851.614 6        38.230               
E24  26991460.470 6 141842064.997 6     -3263.338 6        39.635               
E25  23714064.907 7 124619250.751 7     -1281.472 7        47.078               
E36  25251606.426 7 132699090.241 7      1816.562 7        43.810               
> 2025 01 06 18 47 59.0000000  0  7                                             
E02  25042482.669 7 131599616.757 7      1504.032 7        44.229               
E10  24644081.106 7 129506362.386 7     -2020.450 7        46.347               
E11  23521186.405 7 123605666.987 7      -600.474 7        43.222               
E12  26594769.036 6 139757101.874 6     -2850.546 6        38.351               
E24  26992079.507 6 141845328.348 6     -3264.026 6        39.329               
E25  23714306.871 7 124620531.957 7     -1282.008 7        47.262               
E36  25251261.215 7 132697273.014 7      1816.702 7        43.842               
> 2025 01 06 18 48 00.0000000  0  7                                             
E02  25042193.673 7 131598113.809 7      1501.722 7        44.097               
E10  24644463.566 7 129508383.211 7     -2020.589 7        46.396               
E11  23521300.293 7 123606267.530 7      -601.214 7        43.255               
E12  26595310.976 6 139759952.763 6     -2852.264 6        38.255               
E24  26992699.767 6 141848591.729 6     -3264.456 6        39.373               
E25  23714548.148 7 124621813.431 7     -1280.902 7        47.275               
E36  25250913.743 7 132695455.924 7      1816.532 7        43.862               
> 2025 01 06 18 48 01.0000000  0  7                                             
E02  25041908.876 7 131596611.016 7      1502.460 7        44.053               
E10  24644847.714 7 129510404.159 7     -2021.146 7        46.431               
E11  23521410.867 7 123606868.348 7      -601.566 7        43.482               
E12  26595852.354 6 139762803.654 6     -2851.644 6        38.556               
E24  26993318.035 6 141851855.158 6     -3263.799 6        39.188               
E25  23714791.086 7 124623095.201 7     -1281.389 7        47.261               
E36  25250567.209 7 132693638.972 7      1817.570 7        43.869               
> 2025 01 06 18 48 02.0000000  0  7                                             
E02  25041623.946 7 131595108.635 7      1501.817 7        44.120               
E10  24645232.398 7 129512425.465 7     -2021.737 7        46.156               
E11  23521522.539 7 123607469.599 7      -600.979 7        43.879               
E12  26596391.141 6 139765654.759 6     -2851.125 6        38.302               
E24  26993940.672 6 141855118.805 6     -3264.030 6        39.040               
E25  23715035.552 7 124624377.478 7     -1282.921 7        47.148               
E36  25250219.772 7 132691822.380 7      1816.218 7        43.967               
> 2025 01 06 18 48 03.0000000  0  7                                             
E02  25041334.771 7 131593606.527 7      1501.982 7        44.172               
E10  24645613.018 7 129514447.019 7     -2021.075 7        45.974               
E11  23521635.757 7 123608071.211 7      -602.255 7        43.705               
E12  26596932.528 6 139768505.954 6     -2852.122 6        38.354               
E24  26994559.468 6 141858382.651 6     -3264.368 6        39.092               
E25  23715277.463 7 124625660.162 7     -1283.206 7        47.139               
E36  25249873.185 7 132690006.040 7      1815.650 7        43.708               
> 2025 01 06 18 48 04.0000000  0  7                                             
E02  25041047.223 7 131592104.562 7      1502.064 7        44.066               
E10  24645998.309 7 129516468.667 7     -2021.797 7        45.796               
E11  23521750.727 7 123608672.998 7      -602.347 7        43.610               
E12  26597479.070 6 139771357.142 6     -2851.764 6        38.631               
E24  26995180.077 6 141861646.483 6     -3264.835 6        39.117               
E25  23715521.804 7 124626943.096 7     -1283.153 7        47.168               
E36  25249525.302 7 132688189.819 7      1816.738 7        43.290               
> 2025 01 06 18 48 05.0000000  0  7                                             
E02  25040761.363 7 131590602.819 7      1502.221 7        43.801               
E10  24646381.752 7 129518490.502 7     -2021.639 7        46.193               
E11  23521862.426 7 123609275.104 7      -601.542 7        43.685               
E12  26598018.902 6 139774208.356 6     -2851.724 6        38.691               
E24  26995800.150 6 141864910.422 6     -3263.065 6        39.111               
E25  23715765.609 7 124628226.374 7     -1283.498 7        47.350               
E36  25249180.027 7 132686373.792 7      1817.771 7        43.360               
> 2025 01 06 18 48 06.0000000  0  7                                             
E02  25040475.289 7 131589101.508 7      1501.350 7        43.569               
E10  24646763.675 7 129520512.721 7     -2022.138 7        46.242               
E11  23521978.199 7 123609877.711 7      -602.936 7        43.427               
E12  26598560.556 6 139777059.840 6     -2852.556 6        38.468               
E24  26996415.836 6 141868174.609 6     -3263.662 6        39.194               
E25  23716006.421 7 124629510.186 7     -1284.304 7        47.445               
E36  25248834.378 7 132684558.145 7      1815.318 7        43.579               
> 2025 01 06 18 48 07.0000000  0  7                                             
E02  25040187.035 7 131587600.420 7      1501.173 7        43.690               
E10  24647148.932 7 129522535.127 7     -2022.873 7        46.126               
E11  23522089.345 7 123610480.578 7      -602.719 7        43.265               
E12  26599100.156 6 139779911.355 6     -2850.780 6        38.289               
E24  26997039.027 6 141871438.925 6     -3263.786 6        39.233               
E25  23716250.413 7 124630794.340 7     -1283.855 7        47.094               
E36  25248486.817 7 132682742.713 7      1813.467 7        43.630               
> 2025 01 06 18 48 08.0000000  0  7                                             
E02  25039898.683 7 131586099.079 7      1501.361 7        43.747               
E10  24647532.946 7 129524557.261 7     -2023.323 7        45.778               
E11  23522205.609 7 123611083.272 7      -604.403 7        43.114               
E12  26599639.872 6 139782762.475 6     -2853.478 6        37.972               
E24  26997657.706 6 141874702.864 6     -3264.893 6        39.214               
E25  23716493.879 7 124632078.376 7     -1285.146 7        47.118               
E36  25248140.694 7 132680927.006 7      1814.944 7        43.652               
> 2025 01 06 18 48 09.0000000  0  7                                             
E02  25039612.966 7 131584598.841 7      1500.631 7        43.906               
E10  24647916.880 7 129526580.431 7     -2023.462 7        45.690               
E11  23522319.247 7 123611687.103 7      -603.799 7        42.967               
E12  26600177.247 6 139785614.502 6     -2852.418 6        37.975               
E24  26998282.103 6 141877967.738 6     -3264.375 6        39.346               
E25  23716736.960 7 124633363.616 7     -1285.467 7        47.229               
E36  25247795.089 7 132679112.336 7      1815.215 7        43.781               
> 2025 01 06 18 48 10.0000000  0  7                                             
E02  25039324.899 7 131583098.243 7      1500.958 7        43.931               
E10  24648300.179 7 129528603.210 7     -2022.573 7        45.755               
E11  23522430.839 7 123612290.679 7      -604.439 7        43.221               
E12  26600725.648 6 139788465.980 6     -2852.690 6        38.306               
E24  26998899.711 6 141881232.127 6     -3264.463 6        39.232               
E25  23716981.444 7 124634648.623 7     -1285.343 7        47.470               
E36  25247446.080 7 132677297.319 7      1815.091 7        43.759               
> 2025 01 06 18 48 11.0000000  0  7                                             
E02  25039040.201 7 131581597.803 7      1500.367 7        43.821               
E10  24648684.622 7 129530626.098 7     -2023.354 7        45.624               
E11  23522544.469 7 123612894.468 7      -604.324 7        43.218               
E12  26601266.713 6 139791317.488 6     -2852.868 6        38.174               
E24  26999520.132 6 141884496.563 6     -3265.345 6        39.344               
E25  23717223.471 7 124635933.898 7     -1285.094 7        47.247               
E36  25247098.528 7 132675482.412 7      1813.732 7        43.687               
> 2025 01 06 18 48 12.0000000  0  7                                             
E02  25038752.778 7 131580098.075 7      1499.628 7        43.719               
E10  24649067.555 7 129532649.670 7     -2023.705 7        45.595               
E11  23522658.303 7 123613499.006 7      -606.436 7        43.147               
E12  26601804.302 6 139794169.501 6     -2852.678 6        37.803               
E24  27000143.287 6 141887761.538 6     -3265.774 6        39.304               
E25  23717469.304 7 124637220.004 7     -1285.972 7        47.393               
E36  25246749.733 7 132673668.194 7      1813.870 7        43.752               
> 2025 01 06 18 48 13.0000000  0  7                                             
E02  25038467.151 7 131578598.704 7      1499.232 7        43.591               
E10  24649451.016 7 129534673.553 7     -2023.844 7        45.982               
E11  23522773.576 7 123614103.972 7      -604.494 7        43.275               
E12  26602350.630 6 139797021.690 6     -2851.120 6        37.767               
E24  27000762.619 6 141891026.765 6     -3264.764 6        39.382               
E25  23717713.243 7 124638506.581 7     -1286.920 7        47.304               
E36  25246407.282 7 132671854.292 7      1814.432 7        43.547               
> 2025 01 06 18 48 14.0000000  0  7                                             
E02  25038183.533 7 131577099.592 7      1499.334 7        43.923               
E10  24649835.905 7 129536697.658 7     -2024.713 7        46.022               
E11  23522885.642 7 123614709.265 7      -605.580 7        43.421               
E12  26602890.006 6 139799873.990 6     -2850.020 6        38.013               
E24  27001382.218 6 141894292.107 6     -3265.268 6        39.518               
E25  23717956.709 7 124639793.526 7     -1287.066 7        47.364               
E36  25246060.802 7 132670040.626 7      1812.876 7        43.748               
> 2025 01 06 18 48 15.0000000  0  7                                             
E02  25037892.742 7 131575600.811 7      1498.703 7        44.128               
E10  24650220.322 7 129538722.047 7     -2024.314 7        45.961               
E11  23523002.711 7 123615314.966 7      -604.739 7        43.186               
E12  26603434.234 6 139802726.424 6     -2852.913 6        37.922               
E24  27002005.382 6 141897557.647 6     -3266.001 6        39.378               
E25  23718200.978 7 124641080.926 7     -1287.553 7        47.455               
E36  25245712.919 7 132668227.251 7      1814.779 7        43.708               
> 2025 01 06 18 48 16.0000000  0  7                                             
E02  25037609.429 7 131574102.368 7      1497.722 7        44.322               
E10  24650603.451 7 129540746.742 7     -2025.311 7        46.089               
E11  23523118.386 7 123615921.064 7      -606.327 7        43.444               
E12  26603973.521 6 139805579.055 6     -2853.903 6        37.755               
E24  27002619.711 6 141900823.386 6     -3266.838 6        38.988               
E25  23718444.140 7 124642368.791 7     -1289.020 7        47.410               
E36  25245367.055 7 132666414.202 7      1811.382 7        43.405               
> 2025 01 06 18 48 17.0000000  0  7                                             
E02  25037322.524 7 131572604.117 7      1497.935 7        44.316               
E10  24650987.314 7 129542771.576 7     -2024.321 7        46.047               
E11  23523229.209 7 123616527.392 7      -606.469 7        43.416               
E12  26604515.274 6 139808431.684 6     -2852.406 6        37.681               
E24  27003240.445 6 141904089.181 6     -3266.287 6        39.012               
E25  23718689.222 7 124643656.939 7     -1288.102 7        47.595               
E36  25245019.717 7 132664601.298 7      1812.460 7        43.338               
> 2025 01 06 18 48 18.0000000  0  7                                             
E02  25037036.074 7 131571106.034 7      1497.821 7        44.349               
E10  24651372.713 7 129544796.546 7     -2024.953 7        46.195               
E11  23523344.384 7 123617133.971 7      -606.658 7        43.413               
E12  26605063.559 6 139811284.307 6     -2851.944 6        37.631               
E24  27003861.590 6 141907354.994 6     -3265.569 6        39.179               
E25  23718932.536 7 124644945.392 7     -1289.320 7        47.421               
E36  25244675.542 7 132662788.536 7      1812.102 7        43.522               
> 2025 01 06 18 48 19.0000000  0  7                                             
E02  25036749.866 7 131569608.298 7      1497.127 7        44.170               
E10  24651756.334 7 129546821.820 7     -2024.998 7        46.303               
E11  23523458.165 7 123617740.962 7      -606.625 7        43.687               
E12  26605601.461 6 139814137.069 6     -2851.702 6        37.810               
E24  27004486.505 6 141910621.039 6     -3265.288 6        39.019               
E25  23719177.663 7 124646234.286 7     -1289.961 7        47.472               
E36  25244329.919 7 132660976.089 7      1811.996 7        43.560               
> 2025 01 06 18 48 20.0000000  0  7                                             
E02  25036462.541 7 131568110.900 7      1496.990 7        44.188               
E10  24652140.205 7 129548847.389 7     -2025.966 7        46.439               
E11  23523573.358 7 123618348.364 7      -607.784 7        43.573               
E12  26606142.526 6 139816990.017 6     -2854.232 6        38.035               
E24  27005100.806 6 141913887.252 6     -3265.375 6        39.219               
E25  23719421.057 7 124647523.655 7     -1289.714 7        47.567               
E36  25243984.270 7 132659163.954 7      1812.424 7        43.697               
> 2025 01 06 18 48 21.0000000  0  7                                             
E02  25036178.701 7 131566613.710 7      1497.367 7        44.465               
E10  24652525.319 7 129550873.118 7     -2026.113 7        46.431               
E11  23523688.265 7 123618956.001 7      -608.215 7        43.453               
E12  26606678.900 6 139819843.020 6     -2852.211 6        37.892               
E24  27005723.497 6 141917153.578 6     -3266.037 6        39.270               
E25  23719665.470 7 124648813.336 7     -1289.754 7        47.535               
E36  25243637.610 7 132657351.994 7      1811.899 7        43.463               
> 2025 01 06 18 48 22.0000000  0  7                                             
E02  25035893.600 7 131565116.957 7      1495.200 7        44.147               
E10  24652909.645 7 129552899.260 7     -2025.457 7        46.533               
E11  23523801.590 7 123619564.161 7      -608.812 7        43.369               
E12  26607223.432 6 139822696.246 6     -2851.199 6        38.149               
E24  27006342.838 6 141920420.180 6     -3265.149 6        39.059               
E25  23719909.829 7 124650103.572 7     -1289.846 7        47.385               
E36  25243292.041 7 132655540.442 7      1811.932 7        43.420               
> 2025 01 06 18 48 23.0000000  0  7                                             
E02  25035604.158 7 131563620.409 7      1496.982 7        44.368               
E10  24653293.651 7 129554925.548 7     -2026.292 7        45.987               
E11  23523918.650 7 123620172.599 7      -608.535 7        43.468               
E12  26607767.579 6 139825549.544 6     -2853.246 6        38.172               
E24  27006964.072 6 141923686.867 6     -3266.100 6        39.264               
E25  23720153.821 7 124651394.134 7     -1291.044 7        47.227               
E36  25242946.115 7 132653729.078 7      1812.653 7        43.359               
> 2025 01 06 18 48 24.0000000  0  7                                             
E02  25035322.390 7 131562124.015 7      1495.880 7        44.591               
E10  24653679.774 7 129556951.952 7     -2026.165 7        46.057               
E11  23524033.566 7 123620781.248 7      -608.966 7        43.584               
E12  26608309.154 6 139828402.807 6     -2854.860 6        38.224               
E24  27007583.922 6 141926953.546 6     -3267.112 6        39.146               
E25  23720398.091 7 124652684.955 7     -1290.741 7        47.013               
E36  25242599.492 7 132651917.820 7      1812.061 7        43.389               
> 2025 01 06 18 48 25.0000000  0  7                                             
E02  25035034.860 7 131560628.041 7      1495.029 7        44.374               
E10  24654064.395 7 129558978.741 7     -2026.776 7        45.831               
E11  23524146.078 7 123621390.358 7      -610.501 7        43.535               
E12  26608853.471 6 139831256.287 6     -2853.440 6        38.171               
E24  27008202.699 6 141930220.541 6     -3267.362 6        39.166               
E25  23720641.922 7 124653976.327 7     -1290.918 7        46.621               
E36  25242255.066 7 132650106.975 7      1810.633 7        43.446               
> 2025 01 06 18 48 26.0000000  0  7                                             
E02  25034748.750 7 131559132.414 7      1495.837 7        44.985               
E10  24654448.865 7 129561005.837 7     -2027.533 7        46.203               
E11  23524261.369 7 123621999.872 7      -609.831 7        43.541               
E12  26609388.675 6 139834109.963 6     -2854.257 6        37.833               
E24  27008823.049 6 141933487.747 6     -3266.615 6        39.298               
E25  23720886.004 7 124655268.149 7     -1292.311 7        46.872               
E36  25241909.774 7 132648296.425 7      1808.336 7        43.674               
> 2025 01 06 18 48 27.0000000  0  7                                             
E02  25034464.257 7 131557637.005 7      1494.598 7        44.902               
E10  24654831.834 7 129563033.097 7     -2027.137 7        46.224               
E11  23524377.133 7 123622609.698 7      -609.426 7        43.610               
E12  26609933.439 6 139836963.708 6     -2853.269 6        37.689               
E24  27009445.615 6 141936755.019 6     -3269.431 6        38.907               
E25  23721129.738 7 124656560.321 7     -1291.900 7        46.875               
E36  25241562.633 7 132646486.072 7      1809.058 7        43.692               
> 2025 01 06 18 48 28.0000000  0  7                                             
E02  25034178.272 7 131556141.946 7      1494.202 7        44.498               
E10  24655217.448 7 129565060.664 7     -2027.784 7        46.394               
E11  23524491.790 7 123623219.936 7      -610.346 7        43.565               
E12  26610474.835 6 139839817.564 6     -2854.962 6        37.673               
E24  27010067.492 6 141940022.493 6     -3267.015 6        38.787               
E25  23721376.303 7 124657852.930 7     -1292.726 7        46.869               
E36  25241219.217 7 132644676.025 7      1810.508 7        43.870               
> 2025 01 06 18 48 29.0000000  0  7                                             
E02  25033892.904 7 131554647.151 7      1494.891 7        44.507               
E10  24655602.400 7 129567088.460 7     -2027.422 7        46.409               
E11  23524607.965 7 123623830.477 7      -611.269 7        43.246               
E12  26611017.785 6 139842671.540 6     -2852.557 6        37.818               
E24  27010687.601 6 141943290.108 6     -3267.783 6        38.751               
E25  23721621.565 7 124659145.936 7     -1292.755 7        46.572               
E36  25240874.229 7 132642866.220 7      1809.515 7        44.064               
> 2025 01 06 18 48 30.0000000  0  7                                             
E02  25033604.409 7 131553152.469 7      1494.304 7        44.291               
E10  24655987.808 7 129569116.337 7     -2027.779 7        46.320               
E11  23524722.533 7 123624441.199 7      -612.340 7        43.570               
E12  26611558.377 6 139845525.461 6     -2854.963 6        37.516               
E24  27011308.192 6 141946557.716 6     -3267.579 6        38.913               
E25  23721865.861 7 124660439.166 7     -1293.325 7        47.092               
E36  25240526.515 7 132641056.514 7      1809.991 7        44.037               
> 2025 01 06 18 48 31.0000000  0  7                                             
E02  25033321.158 7 131551658.002 7      1494.566 7        44.388               
E10  24656372.412 7 129571144.375 7     -2028.832 7        46.172               
E11  23524836.501 7 123625052.199 7      -610.868 7        43.385               
E12  26612104.624 6 139848379.422 6     -2852.119 6        37.754               
E24  27011926.782 6 141949825.369 6     -3268.895 6        39.184               
E25  23722110.104 7 124661732.733 7     -1294.251 7        47.463               
E36  25240182.688 7 132639246.970 7      1809.859 7        44.018               
> 2025 01 06 18 48 32.0000000  0  7                                             
E02  25033035.727 7 131550163.784 7      1493.159 7        44.576               
E10  24656756.703 7 129573172.616 7     -2028.842 7        46.552               
E11  23524950.675 7 123625663.510 7      -610.825 7        43.549               
E12  26612635.986 6 139851233.445 6     -2851.747 6        37.652               
E24  27012548.758 6 141953093.154 6     -3268.299 6        39.052               
E25  23722356.268 7 124663026.644 7     -1292.995 7        47.311               
E36  25239835.940 7 132637437.655 7      1809.855 7        44.186               
> 2025 01 06 18 48 33.0000000  0  7                                             
E02  25032749.715 7 131548669.854 7      1494.132 7        44.540               
E10  24657142.871 7 129575201.103 7     -2028.711 7        46.234               
E11  23525067.968 7 123626275.180 7      -612.732 7        43.441               
E12  26613180.178 6 139854087.600 6     -2855.965 6        37.711               
E24  27013171.217 6 141956361.081 6     -3267.755 6        39.093               
E25  23722602.297 7 124664320.968 7     -1294.719 7        47.025               
E36  25239491.390 7 132635628.592 7      1808.611 7        44.115               
> 2025 01 06 18 48 34.0000000  0  7                                             
E02  25032464.964 7 131547175.905 7      1494.893 7        44.450               
E10  24657526.349 7 129577229.542 7     -2028.217 7        46.381               
E11  23525182.079 7 123626886.871 7      -611.690 7        43.570               
E12  26613724.102 6 139856941.521 6     -2853.268 6        37.429               
E24  27013791.995 6 141959628.851 6     -3267.610 6        39.146               
E25  23722846.879 7 124665615.410 7     -1294.570 7        46.972               
E36  25239142.685 7 132633819.496 7      1809.052 7        44.255               
> 2025 01 06 18 48 35.0000000  0  7                                             
E02  25032180.185 7 131545682.158 7      1492.678 7        44.241               
E10  24657912.749 7 129579258.124 7     -2029.297 7        45.667               
E11  23525298.907 7 123627498.834 7      -611.788 7        43.424               
E12  26614270.349 6 139859795.486 6     -2855.077 6        37.689               
E24  27014412.390 6 141962896.689 6     -3267.109 6        38.985               
E25  23723092.739 7 124666910.137 7     -1295.293 7        47.188               
E36  25238801.574 7 132632010.531 7      1808.420 7        44.155               
> 2025 01 06 18 48 36.0000000  0  7                                             
E02  25031893.164 7 131544188.977 7      1491.821 7        44.315               
E10  24658295.691 7 129581287.240 7     -2029.214 7        45.863               
E11  23525413.394 7 123628111.444 7      -612.265 7        43.699               
E12  26614804.588 6 139862649.843 6     -2856.783 6        37.636               
E24  27015033.839 6 141966164.956 6     -3267.773 6        38.720               
E25  23723336.535 7 124668205.565 7     -1296.175 7        47.150               
E36  25238454.870 7 132630202.147 7      1808.135 7        43.916               
> 2025 01 06 18 48 37.0000000  0  7                                             
E02  25031608.591 7 131542695.766 7      1493.986 7        44.158               
E10  24658680.679 7 129583316.284 7     -2029.138 7        45.842               
E11  23525528.122 7 123628724.080 7      -611.354 7        43.757               
E12  26615350.103 6 139865504.007 6     -2851.548 6        37.524               
E24  27015655.091 6 141969433.055 6     -3267.792 6        38.782               
E25  23723582.511 7 124669501.072 7     -1295.929 7        47.327               
E36  25238110.087 7 132628393.691 7      1808.578 7        43.793               
> 2025 01 06 18 48 38.0000000  0  7                                             
E02  25031324.312 7 131541202.448 7      1493.988 7        44.363               
E10  24659067.463 7 129585345.166 7     -2028.508 7        45.500               
E11  23525645.307 7 123629336.652 7      -614.320 7        43.674               
E12  26615890.909 6 139868357.890 6     -2855.498 6        37.380               
E24  27016274.530 6 141972700.920 6     -3269.245 6        39.177               
E25  23723828.720 7 124670796.587 7     -1296.046 7        47.231               
E36  25237766.198 7 132626585.093 7      1808.220 7        43.962               
> 2025 01 06 18 48 39.0000000  0  7                                             
E02  25031038.998 7 131539709.879 7      1492.395 7        44.273               
E10  24659451.128 7 129587374.767 7     -2030.335 7        45.866               
E11  23525759.955 7 123629950.035 7      -614.395 7        43.319               
E12  26616431.027 6 139871212.337 6     -2854.019 6        37.258               
E24  27016895.112 6 141975969.397 6     -3267.880 6        39.225               
E25  23724073.981 7 124672092.971 7     -1296.339 7        47.040               
E36  25237419.664 7 132624777.214 7      1807.245 7        44.297               
> 2025 01 06 18 48 40.0000000  0  7                                             
E02  25030752.128 7 131538217.847 7      1492.477 7        44.299               
E10  24659837.501 7 129589404.849 7     -2029.334 7        45.786               
E11  23525876.184 7 123630564.026 7      -613.551 7        42.937               
E12  26616974.281 6 139874067.129 6     -2854.532 6        37.294               
E24  27017520.501 6 141979238.276 6     -3269.957 6        38.722               
E25  23724319.448 7 124673390.003 7     -1297.875 7        47.371               
E36  25237075.694 7 132622969.827 7      1808.045 7        44.431               
> 2025 01 06 18 48 41.0000000  0  7                                             
E02  25030469.128 7 131536726.201 7      1491.160 7        44.457               
E10  24660222.391 7 129591435.269 7     -2031.425 7        45.937               
E11  23525992.305 7 123631178.459 7      -615.377 7        43.313               
E12  26617520.322 6 139876922.107 6     -2854.423 6        37.753               
E24  27018137.331 6 141982507.373 6     -3267.727 6        38.570               
E25  23724565.486 7 124674687.517 7     -1297.845 7        47.164               
E36  25236731.135 7 132621162.809 7      1806.228 7        44.192               
> 2025 01 06 18 48 42.0000000  0  7                                             
E02  25030182.169 7 131535234.995 7      1490.289 7        44.684               
E10  24660606.146 7 129593466.091 7     -2031.529 7        45.933               
E11  23526107.391 7 123631793.379 7      -615.618 7        43.065               
E12  26618061.915 6 139879777.380 6     -2855.538 6        37.477               
E24  27018757.386 6 141985776.788 6     -3268.845 6        38.390               
E25  23724811.266 7 124675985.594 7     -1298.222 7        47.102               
E36  25236384.851 7 132619356.173 7      1806.547 7        44.371               
> 2025 01 06 18 48 43.0000000  0  7                                             
E02  25029900.536 7 131533744.054 7      1491.358 7        44.669               
E10  24660994.985 7 129595497.145 7     -2031.317 7        45.914               
E11  23526224.558 7 123632408.623 7      -615.148 7        42.965               
E12  26618603.498 6 139882632.761 6     -2855.974 6        37.363               
E24  27019380.193 6 141989046.336 6     -3269.226 6        38.356               
E25  23725057.170 7 124677284.068 7     -1298.838 7        47.338               
E36  25236040.720 7 132617549.810 7      1806.421 7        44.351               
> 2025 01 06 18 48 44.0000000  0  7                                             
E02  25029613.613 7 131532253.061 7      1491.567 7        44.385               
E10  24661378.365 7 129597528.082 7     -2030.809 7        45.792               
E11  23526339.983 7 123633023.895 7      -614.880 7        42.915               
E12  26619145.090 6 139885487.885 6     -2853.655 6        37.645               
E24  27020001.535 6 141992315.686 6     -3269.114 6        38.612               
E25  23725303.066 7 124678582.587 7     -1298.477 7        47.149               
E36  25235697.948 7 132615743.338 7      1807.113 7        44.675               
> 2025 01 06 18 48 45.0000000  0  7                                             
E02  25029329.808 7 131530762.269 7      1490.083 7        44.511               
E10  24661763.898 7 129599559.189 7     -2031.483 7        45.753               
E11  23526455.006 7 123633639.436 7      -615.144 7        43.248               
E12  26619691.552 6 139888343.048 6     -2854.954 6        37.575               
E24  27020621.974 6 141995585.102 6     -3268.516 6        38.442               
E25  23725548.926 7 124679881.425 7     -1298.857 7        46.791               
E36  25235349.082 7 132613937.044 7      1805.665 7        44.662               
> 2025 01 06 18 48 46.0000000  0  7                                             
E02  25029043.573 7 131529271.539 7      1490.032 7        44.692               
E10  24662149.798 7 129601590.318 7     -2031.001 7        46.005               
E11  23526570.895 7 123634255.082 7      -617.486 7        43.442               
E12  26620227.381 6 139891198.093 6     -2853.583 6        37.389               
E24  27021244.736 6 141998854.430 6     -3269.941 6        38.620               
E25  23725796.599 7 124681180.442 7     -1299.221 7        46.919               
E36  25235003.415 7 132612130.786 7      1806.666 7        44.421               
> 2025 01 06 18 48 47.0000000  0  7                                             
E02  25028758.535 7 131527780.923 7      1490.961 7        44.393               
E10  24662536.859 7 129603621.518 7     -2031.723 7        46.462               
E11  23526689.448 7 123634870.911 7      -616.258 7        43.633               
E12  26620773.074 6 139894053.083 6     -2854.906 6        37.305               
E24  27021864.800 6 142002123.769 6     -3268.702 6        38.526               
E25  23726040.404 7 124682479.700 7     -1299.478 7        46.882               
E36  25234662.786 7 132610324.616 7      1805.887 7        44.196               
> 2025 01 06 18 48 48.0000000  0  7                                             
E02  25028476.642 7 131526290.428 7      1489.812 7        44.652               
E10  24662923.062 7 129605652.795 7     -2031.716 7        46.056               
E11  23526805.346 7 123635486.913 7      -615.242 7        43.672               
E12  26621315.765 6 139896908.009 6     -2854.923 6        37.513               
E24  27022484.221 6 142005393.057 6     -3269.135 6        38.635               
E25  23726287.622 7 124683779.179 7     -1299.485 7        47.078               
E36  25234315.279 7 132608518.525 7      1806.369 7        44.166               
> 2025 01 06 18 48 49.0000000  0  7                                             
E02  25028189.335 7 131524800.227 7      1489.228 7        44.807               
E10  24663307.094 7 129607684.305 7     -2032.008 7        46.034               
E11  23526920.208 7 123636103.284 7      -615.365 7        43.623               
E12  26621857.992 6 139899763.046 6     -2853.755 6        37.079               
E24  27023103.981 6 142008662.491 6     -3269.654 6        38.628               
E25  23726534.501 7 124685079.069 7     -1299.999 7        47.035               
E36  25233970.496 7 132606712.701 7      1806.202 7        44.195               
> 2025 01 06 18 48 50.0000000  0  7                                             
E02  25027907.693 7 131523310.338 7      1490.077 7        44.595               
E10  24663691.814 7 129609716.100 7     -2032.553 7        45.863               
E11  23527036.866 7 123636720.018 7      -617.599 7        43.674               
E12  26622395.358 6 139902618.192 6     -2854.484 6        37.238               
E24  27023725.046 6 142011932.146 6     -3268.455 6        38.422               
E25  23726780.825 7 124686379.371 7     -1300.286 7        47.029               
E36  25233626.151 7 132604907.149 7      1805.416 7        44.381               
> 2025 01 06 18 48 51.0000000  0  7                                             
E02  25027623.620 7 131521820.795 7      1489.862 7        44.770               
E10  24664078.482 7 129611748.196 7     -2032.580 7        45.972               
E11  23527152.738 7 123637337.145 7      -617.528 7        43.796               
E12  26622940.319 6 139905473.541 6     -2857.535 6        37.481               
E24  27024342.153 6 142015201.953 6     -3269.489 6        38.294               
E25  23727027.132 7 124687680.154 7     -1300.126 7        46.943               
E36  25233281.216 7 132603101.927 7      1805.286 7        44.251               
> 2025 01 06 18 48 52.0000000  0  7                                             
E02  25027336.313 7 131520331.402 7      1490.749 7        44.817               
E10  24664461.844 7 129613780.386 7     -2032.227 7        45.746               
E11  23527269.378 7 123637954.494 7      -617.243 7        43.543               
E12  26623485.646 6 139908328.825 6     -2854.110 6        37.302               
E24  27024967.685 6 142018471.838 6     -3269.461 6        38.325               
E25  23727273.367 7 124688981.201 7     -1301.446 7        46.661               
E36  25232938.068 7 132601296.824 7      1803.948 7        44.036               
> 2025 01 06 18 48 53.0000000  0  7                                             
E02  25027052.052 7 131518842.338 7      1488.240 7        44.398               
E10  24664848.681 7 129615812.873 7     -2032.767 7        46.187               
E11  23527386.348 7 123638572.258 7      -617.356 7        43.451               
E12  26624027.336 6 139911184.315 6     -2856.038 6        37.034               
E24  27025584.309 6 142021741.867 6     -3271.580 6        38.198               
E25  23727521.309 7 124690282.689 7     -1302.068 7        46.844               
E36  25232591.981 7 132599492.013 7      1804.087 7        43.936               
> 2025 01 06 18 48 54.0000000  0  7                                             
E02  25026766.327 7 131517353.926 7      1488.234 7        44.334               
E10  24665233.705 7 129617845.957 7     -2033.813 7        46.105               
E11  23527502.006 7 123639190.701 7      -618.533 7        43.740               
E12  26624569.375 6 139914040.249 6     -2856.294 6        36.737               
E24  27026208.563 6 142025012.396 6     -3268.081 6        38.219               
E25  23727767.472 7 124691584.922 7     -1302.737 7        46.860               
E36  25232249.566 7 132597687.826 7      1803.380 7        44.011               
> 2025 01 06 18 48 55.0000000  0  7                                             
E02  25026483.996 7 131515865.475 7      1488.945 7        44.734               
E10  24665619.908 7 129619878.964 7     -2032.802 7        45.984               
E11  23527618.994 7 123639809.172 7      -619.135 7        43.530               
E12  26625111.208 6 139916895.968 6     -2855.061 6        37.235               
E24  27026832.076 6 142028282.786 6     -3270.813 6        38.021               
E25  23728013.162 7 124692887.248 7     -1301.890 7        47.102               
E36  25231904.042 7 132595883.554 7      1804.500 7        44.396               
> 2025 01 06 18 48 56.0000000  0  7                                             
E02  25026201.898 7 131514376.641 7      1488.175 7        44.914               
E10  24666005.048 7 129621911.529 7     -2033.092 7        46.199               
E11  23527736.662 7 123640427.286 7      -618.057 7        43.584               
E12  26625653.971 6 139919751.098 6     -2853.286 6        37.284               
E24  27027455.580 6 142031552.620 6     -3269.515 6        37.921               
E25  23728261.417 7 124694189.291 7     -1302.680 7        47.489               
E36  25231559.044 7 132594078.869 7      1803.513 7        44.136               
> 2025 01 06 18 48 57.0000000  0  7                                             
E02  25025914.090 7 131512888.545 7      1487.212 7        44.876               
E10  24666388.946 7 129623944.799 7     -2032.596 7        46.235               
E11  23527850.827 7 123641046.237 7      -619.059 7        43.664               
E12  26626196.886 6 139922606.814 6     -2858.299 6        37.175               
E24  27028072.132 6 142034823.086 6     -3271.030 6        37.978               
E25  23728507.804 7 124695492.198 7     -1303.301 7        47.298               
E36  25231214.565 7 132592274.908 7      1803.641 7        43.737               
> 2025 01 06 18 48 58.0000000  0  7                                             
E02  25025631.742 7 131511401.028 7      1487.913 7        44.714               
E10  24666776.686 7 129625978.602 7     -2033.129 7        46.503               
E11  23527967.663 7 123641665.835 7      -619.399 7        43.659               
E12  26626734.600 6 139925462.926 6     -2854.796 6        37.316               
E24  27028696.029 6 142038093.973 6     -3271.446 6        37.739               
E25  23728755.093 7 124696795.795 7     -1303.292 7        47.190               
E36  25230869.675 7 132590471.480 7      1802.461 7        43.861               
> 2025 01 06 18 48 59.0000000  0  7                                             
E02  25025346.731 7 131509913.541 7      1487.986 7        44.837               
E10  24667162.854 7 129628012.393 7     -2034.748 7        46.504               
E11  23528083.937 7 123642285.506 7      -620.902 7        43.428               
E12  26627277.068 6 139928318.897 6     -2857.569 6        37.319               
E24  27029318.452 6 142041364.744 6     -3271.739 6        38.274               
E25  23729000.962 7 124698099.539 7     -1304.433 7        47.491               
E36  25230526.715 7 132588668.070 7      1803.994 7        44.083               
> 2025 01 06 18 49 00.0000000  0  7                                             
E02  25025061.908 7 131508426.479 7      1487.203 7        44.948               
E10  24667547.449 7 129630046.559 7     -2034.244 7        46.605               
E11  23528202.811 7 123642905.650 7      -619.932 7        43.582               
E12  26627823.038 6 139931175.116 6     -2857.114 6        37.777               
E24  27029939.990 6 142044635.777 6     -3271.483 6        38.326               
E25  23729248.484 7 124699403.809 7     -1304.018 7        47.671               
E36  25230183.308 7 132586865.024 7      1804.299 7        44.070               
> 2025 01 06 18 49 01.0000000  0  7                                             
E02  25024778.469 7 131506939.465 7      1486.295 7        44.584               
E10  24667933.375 7 129632080.720 7     -2034.528 7        46.328               
E11  23528318.513 7 123643525.918 7      -620.375 7        43.451               
E12  26628362.397 6 139934031.180 6     -2856.600 6        37.916               
E24  27030561.171 6 142047906.754 6     -3270.577 6        38.791               
E25  23729496.220 7 124700708.252 7     -1304.815 7        47.841               
E36  25229837.248 7 132585062.015 7      1801.763 7        44.392               
> 2025 01 06 18 49 02.0000000  0  7                                             
E02  25024495.505 7 131505452.962 7      1486.895 7        44.087               
E10  24668321.017 7 129634115.363 7     -2034.412 7        45.957               
E11  23528436.940 7 123644146.775 7      -621.330 7        43.328               
E12  26628906.544 6 139936887.616 6     -2857.315 6        37.567               
E24  27031181.164 6 142051178.113 6     -3269.971 6        38.727               
E25  23729741.249 7 124702013.324 7     -1305.262 7        47.837               
E36  25229494.234 7 132583259.482 7      1803.078 7        44.388               
> 2025 01 06 18 49 03.0000000  0  7                                             
E02  25024209.752 7 131503966.947 7      1486.150 7        44.160               
E10  24668706.925 7 129636150.429 7     -2035.157 7        45.514               
E11  23528553.097 7 123644768.145 7      -622.038 7        43.494               
E12  26629447.118 6 139939744.305 6     -2856.203 6        37.887               
E24  27031802.103 6 142054449.795 6     -3271.494 6        38.485               
E25  23729989.816 7 124703318.982 7     -1306.015 7        47.609               
E36  25229148.540 7 132581457.402 7      1800.929 7        44.191               
> 2025 01 06 18 49 04.0000000  0  7                                             
E02  25023926.457 7 131502481.374 7      1485.781 7        44.494               
E10  24669094.075 7 129638185.894 7     -2035.442 7        45.910               
E11  23528670.729 7 123645390.015 7      -621.977 7        43.610               
E12  26629992.936 6 139942601.292 6     -2856.325 6        37.683               
E24  27032430.128 6 142057721.774 6     -3270.763 6        38.500               
E25  23730236.855 7 124704625.196 7     -1307.013 7        47.541               
E36  25228807.644 7 132579655.717 7      1802.092 7        44.213               
> 2025 01 06 18 49 05.0000000  0  7                                             
E02  25023645.073 7 131500995.971 7      1485.327 7        44.494               
E10  24669477.964 7 129640221.503 7     -2035.991 7        45.648               
E11  23528785.609 7 123646012.129 7      -621.951 7        43.842               
E12  26630540.541 6 139945458.255 6     -2856.504 6        37.867               
E24  27033044.528 6 142060993.820 6     -3271.288 6        38.427               
E25  23730485.878 7 124705931.696 7     -1307.147 7        47.862               
E36  25228461.521 7 132577854.189 7      1802.198 7        44.384               
> 2025 01 06 18 49 06.0000000  0  7                                             
E02  25023359.213 7 131499511.082 7      1484.595 7        44.756               
E10  24669863.462 7 129642257.546 7     -2036.202 7        45.891               
E11  23528905.644 7 123646634.814 7      -622.626 7        43.880               
E12  26631082.545 6 139948315.565 6     -2857.452 6        37.460               
E24  27033669.175 6 142064266.186 6     -3270.927 6        38.709               
E25  23730733.936 7 124707238.823 7     -1307.498 7        47.813               
E36  25228117.873 7 132576053.136 7      1802.702 7        44.137               
> 2025 01 06 18 49 07.0000000  0  7                                             
E02  25023074.747 7 131498026.171 7      1484.970 7        44.936               
E10  24670252.587 7 129644293.551 7     -2036.274 7        45.775               
E11  23529022.418 7 123647257.540 7      -622.502 7        43.991               
E12  26631619.285 6 139951172.655 6     -2855.349 6        37.368               
E24  27034288.837 6 142067538.424 6     -3272.868 6        39.000               
E25  23730979.349 7 124708546.047 7     -1307.357 7        47.539               
E36  25227776.137 7 132574252.042 7      1801.810 7        44.324               
> 2025 01 06 18 49 08.0000000  0  7                                             
E02  25022792.077 7 131496541.128 7      1484.637 7        44.634               
E10  24670639.665 7 129646329.368 7     -2035.315 7        45.865               
E11  23529140.935 7 123647880.175 7      -623.400 7        43.635               
E12  26632164.755 6 139954029.459 6     -2856.431 6        37.607               
E24  27034913.761 6 142070810.393 6     -3272.377 6        38.662               
E25  23731229.113 7 124709853.254 7     -1307.524 7        47.535               
E36  25227430.996 7 132572450.787 7      1801.180 7        44.693               
> 2025 01 06 18 49 09.0000000  0  7                                             
E02  25022509.568 7 131495056.538 7      1484.179 7        44.666               
E10  24671024.153 7 129648365.588 7     -2037.265 7        45.887               
E11  23529255.225 7 123648503.312 7      -623.964 7        43.439               
E12  26632708.688 6 139956886.536 6     -2860.765 6        38.002               
E24  27035536.005 6 142074082.629 6     -3271.001 6        38.753               
E25  23731476.590 7 124711161.018 7     -1308.261 7        47.354               
E36  25227089.689 7 132570649.930 7      1801.185 7        44.260               
> 2025 01 06 18 49 10.0000000  0  7                                             
E02  25022223.083 7 131493572.630 7      1483.704 7        44.560               
E10  24671411.866 7 129650402.457 7     -2037.056 7        45.781               
E11  23529374.581 7 123649127.236 7      -623.218 7        43.698               
E12  26633251.558 6 139959744.100 6     -2858.924 6        38.042               
E24  27036157.856 6 142077355.470 6     -3271.813 6        38.701               
E25  23731723.531 7 124712469.585 7     -1308.800 7        47.263               
E36  25226742.145 7 132568849.745 7      1800.027 7        44.115               
> 2025 01 06 18 49 11.0000000  0  7                                             
E02  25021940.333 7 131492089.280 7      1483.477 7        44.895               
E10  24671798.159 7 129652439.818 7     -2037.601 7        45.784               
E11  23529491.918 7 123649751.738 7      -625.152 7        43.407               
E12  26633793.552 6 139962602.026 6     -2858.031 6        37.894               
E24  27036777.626 6 142080628.687 6     -3274.400 6        38.925               
E25  23731972.366 7 124713778.817 7     -1309.888 7        47.307               
E36  25226399.775 7 132567050.057 7      1799.930 7        44.070               
> 2025 01 06 18 49 12.0000000  0  7                                             
E02  25021657.493 7 131490606.347 7      1481.632 7        44.442               
E10  24672184.040 7 129654477.566 7     -2037.592 7        45.881               
E11  23529610.104 7 123650376.733 7      -625.298 7        43.055               
E12  26634338.218 6 139965460.207 6     -2855.447 6        38.020               
E24  27037399.164 6 142083902.213 6     -3274.176 6        38.806               
E25  23732219.995 7 124715088.582 7     -1309.530 7        47.529               
E36  25226058.682 7 132565250.795 7      1799.000 7        44.444               
> 2025 01 06 18 49 13.0000000  0  7                                             
E02  25021374.340 7 131489123.262 7      1483.828 7        44.382               
E10  24672571.057 7 129656515.114 7     -2037.107 7        45.949               
E11  23529729.388 7 123651001.614 7      -624.715 7        43.005               
E12  26634878.113 6 139968318.060 6     -2857.768 6        38.161               
E24  27038019.219 6 142087175.436 6     -3271.384 6        39.069               
E25  23732468.097 7 124716398.307 7     -1309.238 7        47.670               
E36  25225712.738 7 132563451.323 7      1799.900 7        44.344               
> 2025 01 06 18 49 14.0000000  0  7                                             
E02  25021091.822 7 131487640.279 7      1482.656 7        44.372               
E10  24672958.528 7 129658552.722 7     -2038.337 7        45.727               
E11  23529846.949 7 123651626.676 7      -624.678 7        42.914               
E12  26635421.939 6 139971175.828 6     -2857.849 6        38.453               
E24  27038639.024 6 142090448.588 6     -3272.456 6        38.861               
E25  23732716.093 7 124717708.246 7     -1310.284 7        47.855               
E36  25225368.161 7 132561651.929 7      1799.067 7        44.442               
> 2025 01 06 18 49 15.0000000  0  7                                             
E02  25020806.981 7 131486157.481 7      1482.145 7        43.916               
E10  24673344.490 7 129660590.449 7     -2037.752 7        46.009               
E11  23529963.329 7 123652251.981 7      -625.909 7        42.806               
E12  26635962.441 6 139974033.608 6     -2857.147 6        38.482               
E24  27039263.841 6 142093721.816 6     -3274.024 6        39.000               
E25  23732965.508 8 124719018.482 8     -1310.338 8        48.011               
E36  25225028.453 7 132559852.688 7      1799.240 7        44.438               
> 2025 01 06 18 49 16.0000000  0  7                                             
E02  25020522.309 7 131484674.857 7      1482.791 7        43.966               
E10  24673731.712 7 129662628.304 7     -2037.300 7        45.673               
E11  23530079.773 7 123652877.511 7      -626.058 7        42.598               
E12  26636510.091 6 139976891.378 6     -2856.409 6        38.576               
E24  27039887.711 6 142096995.063 6     -3273.679 6        39.040               
E25  23733213.164 7 124720329.003 7     -1310.673 7        47.792               
E36  25224683.044 7 132558053.586 7      1798.117 7        44.360               
> 2025 01 06 18 49 17.0000000  0  7                                             
E02  25020239.139 7 131483192.668 7      1481.985 7        44.154               
E10  24674117.540 7 129664666.550 7     -2038.490 7        45.739               
E11  23530198.128 7 123653503.517 7      -626.754 7        42.799               
E12  26637049.387 6 139979749.418 6     -2859.442 6        38.248               
E24  27040505.953 6 142100268.611 6     -3272.415 6        38.948               
E25  23733462.705 7 124721640.063 7     -1311.278 7        47.663               
E36  25224338.288 7 132556254.873 7      1798.273 7        44.021               
> 2025 01 06 18 49 18.0000000  0  7                                             
E02  25019956.424 7 131481711.154 7      1481.316 7        44.083               
E10  24674505.164 7 129666705.434 7     -2039.246 7        45.523               
E11  23530316.529 7 123654130.256 7      -627.320 7        42.620               
E12  26637596.920 6 139982607.935 6     -2859.905 6        38.443               
E24  27041131.538 6 142103542.673 6     -3273.698 6        38.842               
E25  23733709.914 7 124722951.926 7     -1312.194 7        47.479               
E36  25223993.184 7 132554456.819 7      1797.885 7        44.070               
> 2025 01 06 18 49 19.0000000  0  7                                             
E02  25019675.139 7 131480230.067 7      1481.305 7        44.332               
E10  24674891.260 7 129668744.685 7     -2039.297 7        45.862               
E11  23530435.358 7 123654757.516 7      -625.977 7        42.820               
E12  26638138.629 6 139985466.687 6     -2857.130 6        38.588               
E24  27041753.130 6 142106817.032 6     -3273.843 6        38.979               
E25  23733958.687 7 124724264.325 7     -1312.404 7        47.625               
E36  25223652.672 7 132552659.170 7      1797.524 7        43.830               
> 2025 01 06 18 49 20.0000000  0  7                                             
E02  25019393.648 7 131478748.998 7      1480.147 7        44.159               
E10  24675277.919 7 129670783.905 7     -2039.524 7        45.537               
E11  23530552.793 7 123655384.820 7      -628.466 7        42.809               
E12  26638675.763 6 139988325.278 6     -2859.082 6        38.613               
E24  27042371.362 6 142110091.272 6     -3272.928 6        38.782               
E25  23734206.619 7 124725576.832 7     -1312.345 7        47.666               
E36  25223305.361 7 132550861.471 7      1797.075 7        43.914               
> 2025 01 06 18 49 21.0000000  0  7                                             
E02  25019111.193 7 131477268.106 7      1480.303 7        44.215               
E10  24675665.936 7 129672823.270 7     -2039.781 7        45.573               
E11  23530674.383 7 123656012.361 7      -628.195 7        42.726               
E12  26639221.742 6 139991183.870 6     -2857.028 6        38.184               
E24  27042994.125 6 142113365.567 6     -3274.860 6        38.533               
E25  23734456.634 7 124726889.659 7     -1312.530 7        47.729               
E36  25222964.187 7 132549063.946 7      1797.601 7        43.844               
> 2025 01 06 18 49 22.0000000  0  7                                             
E02  25018826.932 7 131475787.539 7      1480.541 7        44.280               
E10  24676051.504 7 129674862.901 7     -2039.783 7        45.548               
E11  23530786.689 7 123656640.273 7      -627.964 7        43.106               
E12  26639764.638 6 139994042.626 6     -2859.468 6        38.611               
E24  27043615.163 6 142116640.011 6     -3275.097 6        38.576               
E25  23734703.879 7 124728202.916 7     -1313.267 7        47.517               
E36  25222621.066 7 132547266.708 7      1797.063 7        43.627               
> 2025 01 06 18 49 23.0000000  0  7                                             
E02  25018543.565 7 131474306.951 7      1480.393 7        44.122               
E10  24676437.851 7 129676902.460 7     -2039.725 7        45.702               
E11  23530908.931 7 123657268.253 7      -628.446 7        43.099               
E12  26640304.149 6 139996901.141 6     -2858.769 6        38.514               
E24  27044242.571 6 142119914.311 6     -3276.384 6        38.712               
E25  23734952.794 7 124729516.258 7     -1313.801 7        47.535               
E36  25222276.328 7 132545469.415 7      1797.569 7        43.792               
> 2025 01 06 18 49 24.0000000  0  7                                             
E02  25018259.868 7 131472827.162 7      1480.485 7        43.954               
E10  24676826.323 7 129678942.779 7     -2040.063 7        45.621               
E11  23531026.063 7 123657897.094 7      -630.017 7        43.337               
E12  26640850.226 6 139999760.297 6     -2859.298 6        38.639               
E24  27044859.776 6 142123189.260 6     -3273.760 6        38.725               
E25  23735201.924 7 124730830.510 7     -1314.348 7        47.470               
E36  25221934.154 7 132543672.887 7      1795.366 7        43.534               
> 2025 01 06 18 49 25.0000000  0  7                                             
E02  25017977.787 7 131471347.598 7      1481.186 7        43.995               
E10  24677213.402 7 129680983.282 7     -2040.160 7        45.289               
E11  23531143.230 7 123658526.208 7      -629.192 7        43.380               
E12  26641395.187 6 140002619.502 6     -2858.703 6        38.777               
E24  27045483.199 6 142126464.277 6     -3273.543 6        38.782               
E25  23735450.982 7 124732145.113 7     -1314.773 7        47.568               
E36  25221591.346 7 132541876.563 7      1795.658 7        43.648               
> 2025 01 06 18 49 26.0000000  0  7                                             
E02  25017694.867 7 131469868.139 7      1479.240 7        44.101               
E10  24677599.632 7 129683023.834 7     -2040.861 7        45.328               
E11  23531263.748 7 123659155.449 7      -629.407 7        43.341               
E12  26641938.950 6 140005478.613 6     -2860.048 6        38.577               
E24  27046103.763 6 142129739.312 6     -3276.600 6        38.767               
E25  23735700.523 7 124733459.914 7     -1314.776 7        47.618               
E36  25221247.939 7 132540080.307 7      1796.846 7        43.829               
> 2025 01 06 18 49 27.0000000  0  7                                             
E02  25017413.144 7 131468389.182 7      1479.147 7        44.454               
E10  24677987.050 7 129685064.836 7     -2040.972 7        45.121               
E11  23531383.390 7 123659785.280 7      -629.543 7        43.046               
E12  26642480.873 6 140008338.070 6     -2859.488 6        38.464               
E24  27046725.623 6 142133014.655 6     -3275.707 6        39.082               
E25  23735949.546 7 124734775.345 7     -1315.834 7        47.497               
E36  25220906.203 7 132538284.503 7      1795.887 7        43.924               
> 2025 01 06 18 49 28.0000000  0  7                                             
E02  25017130.581 7 131466910.353 7      1478.585 7        44.405               
E10  24678375.005 7 129687105.904 7     -2041.223 7        45.178               
E11  23531500.262 7 123660415.290 7      -630.801 7        43.044               
E12  26643025.065 6 140011197.451 6     -2860.896 6        38.593               
E24  27047345.017 6 142136289.988 6     -3276.508 6        39.100               
E25  23736198.721 7 124736090.995 7     -1316.823 7        47.279               
E36  25220564.753 7 132536488.805 7      1795.941 7        43.840               
> 2025 01 06 18 49 29.0000000  0  7                                             
E02  25016847.527 7 131465432.453 7      1477.164 7        44.171               
E10  24678763.048 7 129689147.880 7     -2042.935 7        45.390               
E11  23531621.530 7 123661046.287 7      -631.266 7        43.085               
E12  26643568.846 6 140014057.570 6     -2864.140 6        38.771               
E24  27047971.416 6 142139566.116 6     -3277.506 6        38.617               
E25  23736447.815 7 124737407.703 7     -1317.733 7        47.209               
E36  25220221.015 7 132534694.007 7      1795.262 7        43.721               
> 2025 01 06 18 49 30.0000000  0  7                                             
E02  25016566.510 7 131463954.897 7      1478.436 7        44.305               
E10  24679149.645 7 129691190.144 7     -2041.571 7        45.514               
E11  23531739.912 7 123661677.681 7      -630.539 7        42.867               
E12  26644107.034 6 140016917.910 6     -2863.343 6        38.438               
E24  27048594.964 6 142142842.438 6     -3275.102 6        38.853               
E25  23736695.631 7 124738724.859 7     -1316.420 7        47.188               
E36  25219877.367 7 132532899.523 7      1796.039 7        43.854               
> 2025 01 06 18 49 31.0000000  0  7                                             
E02  25016284.233 7 131462476.354 7      1477.192 7        44.549               
E10  24679539.466 7 129693231.361 7     -2040.856 7        45.277               
E11  23531860.359 7 123662308.150 7      -630.439 7        43.036               
E12  26644652.406 6 140019777.019 6     -2858.927 6        38.203               
E24  27049215.922 6 142146117.660 6     -3275.022 6        39.134               
E25  23736946.906 7 124740041.149 7     -1316.714 7        47.173               
E36  25219534.630 7 132531104.024 7      1795.854 7        43.934               
> 2025 01 06 18 49 32.0000000  0  7                                             
E02  25016002.322 7 131460998.703 7      1476.760 7        44.410               
E10  24679925.107 7 129695273.427 7     -2042.499 7        45.226               
E11  23531977.338 7 123662939.584 7      -630.707 7        43.211               
E12  26645193.230 6 140022636.847 6     -2858.133 6        38.115               
E24  27049838.184 6 142149393.614 6     -3277.401 6        39.020               
E25  23737195.839 7 124741358.432 7     -1318.830 7        47.267               
E36  25219191.804 7 132529309.365 7      1794.721 7        43.934               
> 2025 01 06 18 49 33.0000000  0  7                                             
E02  25015718.258 7 131459521.101 7      1476.907 7        44.294               
E10  24680313.936 7 129697315.491 7     -2041.849 7        44.705               
E11  23532094.889 7 123663571.107 7      -631.703 7        43.298               
E12  26645742.148 6 140025496.547 6     -2860.430 6        38.486               
E24  27050462.795 6 142152669.465 6     -3275.763 6        39.218               
E25  23737445.451 7 124742675.880 7     -1317.555 7        47.085               
E36  25218849.657 7 132527514.718 7      1795.074 7        44.110               
> 2025 01 06 18 49 34.0000000  0  7                                             
E02  25015435.061 7 131458044.277 7      1477.385 7        44.046               
E10  24680701.408 7 129699358.307 7     -2042.819 7        44.933               
E11  23532218.838 7 123664203.455 7      -633.165 7        43.112               
E12  26646280.908 6 140028356.859 6     -2860.661 6        38.592               
E24  27051085.406 6 142155945.940 6     -3277.284 6        39.262               
E25  23737696.717 7 124743994.224 7     -1318.685 7        47.180               
E36  25218506.643 7 132525720.863 7      1791.897 7        44.234               
