     3.02           OBSERVATION DATA    G                   RINEX VERSION / TYPE
G = GPS  R = GLONASS  E = GALILEO  S = GEO  M = MIXED       COMMENT             
GNSS-SDR            jmfriedt            20250106 193233 UTC PGM / RUN BY / DATE 
GPS OBSERVATION DATA FILE GENERATED BY GNSS-SDR             COMMENT             
GNSS-SDR VERSION 0.0.19                                     COMMENT             
See https://gnss-sdr.org                                    COMMENT             
DEFAULT MARKER NAME                                         MARKER NAME         
jmfriedt            CTTC                                    OBSERVER / AGENCY   
GNSS-SDR            Software Receiver   0.0.19              REC # / TYPE / VERS 
Antenna number      Antenna type                            ANT # / TYPE        
        0.0000        0.0000        0.0000                  APPROX POSITION XYZ 
        0.0000        0.0000        0.0000                  ANTENNA: DELTA H/E/N
G    4 C1C L1C D1C S1C                                      SYS / # / OBS TYPES 
DBHZ                                                        SIGNAL STRENGTH UNIT
  2025    01    06    18    45   48.1000000     GPS         TIME OF FIRST OBS   
                                                            END OF HEADER       
> 2025 01 06 18 45 49.0000000  0  5                                             
G27  21028324.934 8 110504589.832 8      1466.838 8        48.745               
G16  20535064.315 7 107912512.660 7      -966.189 7        46.308               
G18  22145643.991 7 116376148.870 7     -2783.535 7        47.862               
G26  21761847.460 8 114359282.396 8     -2979.818 8        48.470               
G23  21774473.623 7 114425618.897 7       916.208 7        47.755               
> 2025 01 06 18 45 50.0000000  0  5                                             
G27  21028043.238 8 110503124.009 8      1465.228 8        48.074               
G16  20535251.153 7 107913480.753 7      -969.834 7        46.253               
G18  22146176.077 7 116378932.640 7     -2785.000 7        46.969               
G26  21762415.106 8 114362261.358 8     -2979.964 8        48.564               
G23  21774296.005 8 114424703.159 8       916.038 8        48.271               
> 2025 01 06 18 45 51.0000000  0  5                                             
G27  21027765.250 8 110501658.737 8      1466.041 8        48.917               
G16  20535432.738 7 107914449.670 7      -969.883 7        46.738               
G18  22146704.822 7 116381716.926 7     -2783.609 7        47.869               
G26  21762980.955 8 114365240.947 8     -2980.602 8        48.248               
G23  21774120.754 8 114423788.228 8       914.924 8        48.303               
> 2025 01 06 18 45 52.0000000  0  5                                             
G27  21027485.850 8 110500193.574 8      1465.532 8        48.932               
G16  20535610.767 7 107915418.981 7      -969.437 7        45.568               
G18  22147234.683 7 116384501.289 7     -2783.694 7        47.605               
G26  21763545.402 8 114368220.712 8     -2978.554 8        48.231               
G23  21773944.584 7 114422873.680 7       914.916 7        47.553               
> 2025 01 06 18 45 53.0000000  0  5                                             
G27  21027206.485 8 110498728.447 8      1465.998 8        48.706               
G16  20535796.802 7 107916388.620 7      -970.259 7        45.605               
G18  22147759.675 7 116387285.664 7     -2783.302 7        47.374               
G26  21764111.475 8 114371200.603 8     -2980.850 8        48.617               
G23  21773770.727 7 114421959.440 7       912.844 7        47.701               
> 2025 01 06 18 45 54.0000000  0  5                                             
G27  21026929.391 8 110497263.301 8      1466.106 8        48.632               
G16  20535979.548 7 107917358.518 7      -971.645 7        46.905               
G18  22148290.277 7 116390069.969 7     -2784.563 7        46.730               
G26  21764678.682 8 114374180.545 8     -2979.756 8        48.142               
G23  21773593.654 7 114421045.444 7       914.250 7        47.419               
> 2025 01 06 18 45 55.0000000  0  5                                             
G27  21026648.472 8 110495798.237 8      1464.359 8        48.549               
G16  20536162.330 7 107918328.808 7      -970.759 7        46.527               
G18  22148815.850 7 116392854.343 7     -2784.211 7        47.324               
G26  21765243.057 8 114377160.653 8     -2980.020 8        48.212               
G23  21773418.493 7 114420131.807 7       912.109 7        47.391               
> 2025 01 06 18 45 56.0000000  0  5                                             
G27  21026369.438 8 110494333.952 8      1464.527 8        49.397               
G16  20536348.499 7 107919300.155 7      -970.449 7        46.634               
G18  22149345.157 7 116395639.462 7     -2785.535 7        47.485               
G26  21765807.727 7 114380141.612 7     -2981.392 7        47.999               
G23  21773246.584 7 114419219.222 7       911.823 7        47.215               
> 2025 01 06 18 45 57.0000000  0  5                                             
G27  21026086.464 8 110492870.450 8      1463.476 8        49.569               
G16  20536532.871 7 107920272.570 7      -972.266 7        46.200               
G18  22149872.133 7 116398425.330 7     -2786.563 7        47.354               
G26  21766372.969 8 114383123.418 8     -2981.917 8        48.356               
G23  21773068.251 7 114418307.678 7       912.013 7        47.650               
> 2025 01 06 18 45 58.0000000  0  5                                             
G27  21025810.414 8 110491407.373 8      1462.660 8        49.251               
G16  20536716.279 7 107921245.714 7      -972.944 7        46.547               
G18  22150403.718 7 116401211.595 7     -2784.859 7        46.911               
G26  21766936.451 7 114386105.739 7     -2982.348 7        47.620               
G23  21772894.180 7 114417396.837 7       911.289 7        47.770               
> 2025 01 06 18 45 59.0000000  0  5                                             
G27  21025531.291 8 110489944.590 8      1464.199 8        49.522               
G16  20536900.812 7 107922219.425 7      -973.486 7        46.538               
G18  22150927.879 7 116403998.115 7     -2784.821 7        46.395               
G26  21767508.778 8 114389088.419 8     -2982.860 8        48.281               
G23  21772719.832 7 114416486.560 7       909.300 7        47.370               
> 2025 01 06 18 46 00.0000000  0  5                                             
G27  21025249.434 8 110488482.349 8      1461.766 8        50.094               
G16  20537085.516 7 107923193.960 7      -976.028 7        46.469               
G18  22151460.162 7 116406785.150 7     -2787.705 7        46.435               
G26  21768073.493 7 114392071.726 7     -2983.431 7        47.613               
G23  21772547.521 7 114415577.083 7       908.949 7        47.011               
> 2025 01 06 18 46 01.0000000  0  5                                             
G27  21024972.965 8 110487020.768 8      1462.253 8        49.263               
G16  20537271.318 7 107924169.443 7      -977.326 7        46.834               
G18  22151985.279 7 116409572.804 7     -2787.578 7        46.867               
G26  21768639.288 7 114395055.763 7     -2984.900 7        47.874               
G23  21772373.262 7 114414668.546 7       908.645 7        46.708               
> 2025 01 06 18 46 02.0000000  0  5                                             
G27  21024693.413 8 110485559.273 8      1461.726 8        48.930               
G16  20537457.236 7 107925145.302 7      -975.717 7        46.112               
G18  22152518.937 7 116412360.517 7     -2789.188 7        46.241               
G26  21769207.407 7 114398039.961 7     -2985.104 7        47.970               
G23  21772194.688 7 114413760.357 7       909.710 7        47.227               
> 2025 01 06 18 46 03.0000000  0  5                                             
G27  21024413.352 8 110484098.011 8      1461.788 8        49.594               
G16  20537639.679 7 107926121.688 7      -977.930 7        46.387               
G18  22153044.376 7 116415148.439 7     -2788.588 7        46.718               
G26  21769775.115 7 114401024.465 7     -2984.040 7        47.580               
G23  21772025.844 7 114412852.675 7       905.923 7        47.960               
> 2025 01 06 18 46 04.0000000  0  5                                             
G27  21024133.299 8 110482636.969 8      1462.633 8        49.349               
G16  20537826.044 7 107927098.579 7      -978.390 7        46.623               
G18  22153577.266 7 116417936.534 7     -2788.967 7        46.774               
G26  21770341.840 7 114404009.257 7     -2985.072 7        47.956               
G23  21771852.103 7 114411945.478 7       907.319 7        47.685               
> 2025 01 06 18 46 05.0000000  0  5                                             
G27  21023851.970 8 110481175.874 8      1463.809 8        49.730               
G16  20538010.246 7 107928075.703 7      -976.260 7        47.186               
G18  22154104.723 7 116420724.544 7     -2787.489 7        47.120               
G26  21770909.557 7 114406994.087 7     -2984.273 7        47.786               
G23  21771676.066 7 114411038.508 7       906.287 7        47.914               
> 2025 01 06 18 46 06.0000000  0  5                                             
G27  21023576.608 8 110479714.724 8      1460.146 8        49.379               
G16  20538192.689 7 107929053.050 7      -978.215 7        47.549               
G18  22154635.943 7 116423512.472 7     -2789.241 7        47.141               
G26  21771478.042 8 114409978.933 8     -2986.672 8        48.205               
G23  21771504.676 8 114410131.737 8       907.717 8        48.185               
> 2025 01 06 18 46 07.0000000  0  5                                             
G27  21023294.429 8 110478254.321 8      1460.239 8        49.812               
G16  20538381.431 7 107930031.451 7      -978.283 7        46.598               
G18  22155165.929 7 116426301.119 7     -2788.163 7        47.417               
G26  21772044.097 8 114412964.598 8     -2986.697 8        48.402               
G23  21771329.917 7 114409226.000 7       904.156 7        47.711               
> 2025 01 06 18 46 08.0000000  0  5                                             
G27  21023016.566 8 110476794.782 8      1458.268 8        49.633               
G16  20538564.892 7 107931010.980 7      -980.422 7        47.365               
G18  22155696.362 7 116429090.595 7     -2790.387 7        47.457               
G26  21772612.591 7 114415951.200 7     -2986.675 7        47.926               
G23  21771157.078 8 114408321.379 8       903.122 8        48.116               
> 2025 01 06 18 46 09.0000000  0  5                                             
G27  21022738.497 8 110475336.370 8      1457.424 8        49.604               
G16  20538749.390 7 107931991.945 7      -981.850 7        47.373               
G18  22156224.606 7 116431881.165 7     -2790.227 7        47.517               
G26  21773181.138 8 114418939.013 8     -2988.743 8        48.482               
G23  21770986.814 8 114407418.176 8       902.335 8        48.310               
> 2025 01 06 18 46 10.0000000  0  5                                             
G27  21022458.892 8 110473877.792 8      1458.770 8        49.046               
G16  20538936.532 7 107932973.019 7      -981.386 7        47.528               
G18  22156755.611 7 116434671.526 7     -2789.605 7        47.079               
G26  21773744.182 8 114421926.719 8     -2987.332 8        48.099               
G23  21770809.472 8 114406515.060 8       901.816 8        48.040               
> 2025 01 06 18 46 11.0000000  0  5                                             
G27  21022178.133 8 110472419.146 8      1458.989 8        49.181               
G16  20539123.987 7 107933954.313 7      -982.494 7        47.239               
G18  22157285.311 7 116437461.785 7     -2789.263 7        46.871               
G26  21774315.053 8 114424914.446 8     -2987.725 8        48.327               
G23  21770636.536 8 114405612.152 8       901.580 8        48.034               
> 2025 01 06 18 46 12.0000000  0  5                                             
G27  21021900.333 8 110470960.938 8      1458.436 8        49.358               
G16  20539308.931 7 107934936.332 7      -981.479 7        47.484               
G18  22157817.987 7 116440252.466 7     -2791.605 7        46.963               
G26  21774879.035 8 114427902.693 8     -2987.665 8        48.387               
G23  21770465.753 7 114404709.964 7       900.911 7        46.868               
> 2025 01 06 18 46 13.0000000  0  5                                             
G27  21021623.586 8 110469502.866 8      1458.850 8        48.925               
G16  20539495.689 8 107935918.772 8      -983.918 8        48.095               
G18  22158343.953 7 116443043.233 7     -2788.171 7        47.383               
G26  21775449.075 8 114430891.132 8     -2988.745 8        48.154               
G23  21770294.630 7 114403808.162 7       902.218 7        47.981               
> 2025 01 06 18 46 14.0000000  0  5                                             
G27  21021343.311 8 110468045.043 8      1457.897 8        49.425               
G16  20539681.688 7 107936901.759 7      -983.663 7        47.957               
G18  22158873.733 7 116445834.219 7     -2791.430 7        47.404               
G26  21776020.294 7 114433879.898 7     -2989.452 7        47.921               
G23  21770127.394 8 114402906.892 8       900.457 8        48.429               
> 2025 01 06 18 46 15.0000000  0  5                                             
G27  21021066.287 8 110466587.862 8      1458.394 8        49.260               
G16  20539865.793 7 107937885.677 7      -984.732 7        46.849               
G18  22159409.715 7 116448625.825 7     -2791.068 7        47.525               
G26  21776584.383 8 114436869.391 8     -2989.762 8        48.635               
G23  21769951.554 7 114402006.536 7       901.171 7        47.911               
> 2025 01 06 18 46 16.0000000  0  5                                             
G27  21020787.495 8 110465130.984 8      1457.336 8        49.116               
G16  20540053.730 7 107938870.179 7      -985.895 7        46.901               
G18  22159937.986 7 116451417.690 7     -2791.754 7        47.242               
G26  21777151.305 8 114439859.253 8     -2992.064 8        48.332               
G23  21769779.332 7 114401106.751 7       900.235 7        47.411               
> 2025 01 06 18 46 17.0000000  0  5                                             
G27  21020508.121 8 110463674.439 8      1455.405 8        48.606               
G16  20540239.934 7 107939855.302 7      -985.656 7        47.414               
G18  22160472.394 7 116454209.856 7     -2792.128 7        46.734               
G26  21777721.237 7 114442849.528 7     -2990.705 7        47.691               
G23  21769606.950 7 114400207.571 7       897.911 7        47.445               
> 2025 01 06 18 46 18.0000000  0  5                                             
G27  21020232.072 8 110462218.331 8      1457.074 8        48.587               
G16  20540427.586 7 107940841.142 7      -986.659 7        47.360               
G18  22161000.531 7 116457002.425 7     -2793.611 7        46.925               
G26  21778285.166 8 114445840.304 8     -2990.974 8        49.054               
G23  21769432.021 8 114399309.084 8       898.242 8        48.171               
> 2025 01 06 18 46 19.0000000  0  5                                             
G27  21019954.066 8 110460762.531 8      1456.320 8        49.451               
G16  20540612.182 7 107941827.582 7      -983.825 7        47.342               
G18  22161530.035 7 116459795.265 7     -2792.561 7        47.370               
G26  21778854.526 8 114448831.460 8     -2990.087 8        48.094               
G23  21769262.283 8 114398411.190 8       899.135 8        48.459               
> 2025 01 06 18 46 20.0000000  0  5                                             
G27  21019676.711 8 110459306.786 8      1454.744 8        49.749               
G16  20540801.692 7 107942814.359 7      -986.343 7        47.627               
G18  22162062.344 8 116462588.133 8     -2792.683 8        48.156               
G26  21779422.145 8 114451822.766 8     -2991.501 8        48.650               
G23  21769088.230 8 114397513.616 8       896.978 8        48.740               
> 2025 01 06 18 46 21.0000000  0  5                                             
G27  21019397.571 8 110457851.362 8      1455.497 8        49.033               
G16  20540982.821 7 107943801.756 7      -989.348 7        47.430               
G18  22162589.472 7 116465381.285 7     -2790.725 7        47.553               
G26  21779991.300 8 114454814.449 8     -2991.169 8        48.401               
G23  21768918.671 8 114396616.637 8       897.842 8        48.580               
> 2025 01 06 18 46 22.0000000  0  5                                             
G27  21019120.261 8 110456396.433 8      1454.472 8        48.878               
G16  20541171.893 7 107944789.928 7      -988.821 7        46.635               
G18  22163121.575 7 116468174.891 7     -2792.006 7        47.689               
G26  21780561.340 8 114457806.705 8     -2992.182 8        48.306               
G23  21768746.288 7 114395720.423 7       896.572 7        47.792               
> 2025 01 06 18 46 23.0000000  0  5                                             
G27  21018841.040 8 110454941.869 8      1454.914 8        49.455               
G16  20541359.562 7 107945778.754 7      -988.771 7        47.302               
G18  22163651.517 7 116470968.828 7     -2794.839 7        47.237               
G26  21781130.236 8 114460799.400 8     -2992.448 8        48.299               
G23  21768576.935 8 114394824.840 8       894.668 8        48.869               
> 2025 01 06 18 46 24.0000000  0  5                                             
G27  21018562.515 8 110453487.512 8      1455.137 8        49.909               
G16  20541545.159 7 107946768.076 7      -988.816 7        47.968               
G18  22164181.074 7 116473762.946 7     -2795.155 7        47.394               
G26  21781701.473 8 114463792.372 8     -2992.721 8        48.468               
G23  21768405.517 8 114393929.737 8       894.864 8        48.404               
> 2025 01 06 18 46 25.0000000  0  5                                             
G27  21018287.046 8 110452034.068 8      1453.802 8        50.537               
G16  20541736.518 7 107947758.581 7      -991.909 7        47.256               
G18  22164716.046 7 116476557.934 7     -2793.641 7        47.457               
G26  21782266.250 8 114466786.329 8     -2994.576 8        48.096               
G23  21768233.188 8 114393035.814 8       892.058 8        48.734               
> 2025 01 06 18 46 26.0000000  0  5                                             
G27  21018009.692 8 110450580.480 8      1453.864 8        50.487               
G16  20541925.912 7 107948749.255 7      -991.028 7        47.419               
G18  22165244.487 7 116479352.749 7     -2793.941 7        47.493               
G26  21782834.619 8 114469780.221 8     -2994.262 8        48.806               
G23  21768063.986 8 114392142.018 8       893.248 8        48.334               
> 2025 01 06 18 46 27.0000000  0  5                                             
G27  21017733.134 8 110449127.349 8      1452.518 8        50.264               
G16  20542110.088 7 107949740.648 7      -991.497 7        46.766               
G18  22165775.116 7 116482147.970 7     -2794.847 7        47.025               
G26  21783405.910 8 114472774.630 8     -2993.673 8        48.494               
G23  21767894.311 8 114391248.944 8       892.506 8        48.279               
> 2025 01 06 18 46 28.0000000  0  5                                             
G27  21017457.138 8 110447674.537 8      1452.672 8        50.031               
G16  20542297.972 7 107950732.651 7      -991.666 7        47.348               
G18  22166303.745 7 116484943.488 7     -2794.688 7        47.584               
G26  21783972.259 8 114475769.436 8     -2995.628 8        48.036               
G23  21767723.957 8 114390356.455 8       891.190 8        48.250               
> 2025 01 06 18 46 29.0000000  0  5                                             
G27  21017177.595 8 110446222.396 8      1450.239 8        49.597               
G16  20542481.764 7 107951725.620 7      -994.107 7        47.354               
G18  22166837.215 7 116487739.643 7     -2798.318 7        47.272               
G26  21784544.282 8 114478765.001 8     -2997.639 8        48.525               
G23  21767556.649 8 114389464.924 8       890.206 8        48.236               
> 2025 01 06 18 46 30.0000000  0  5                                             
G27  21016897.274 8 110444771.176 8      1451.698 8        49.489               
G16  20542673.820 7 107952719.794 7      -993.332 7        47.147               
G18  22167370.150 7 116490536.684 7     -2796.253 7        47.454               
G26  21785110.462 8 114481761.537 8     -2997.878 8        48.010               
G23  21767383.123 8 114388574.575 8       889.485 8        48.499               
> 2025 01 06 18 46 31.0000000  0  5                                             
G27  21016624.352 8 110443319.147 8      1452.199 8        49.302               
G16  20542862.982 7 107953713.436 7      -991.181 7        47.348               
G18  22167899.850 7 116493332.868 7     -2793.772 7        47.477               
G26  21785679.609 8 114484757.347 8     -2994.692 8        48.372               
G23  21767212.313 8 114387683.681 8       890.419 8        48.690               
> 2025 01 06 18 46 32.0000000  0  5                                             
G27  21016347.498 8 110441867.084 8      1452.569 8        49.040               
G16  20543047.327 7 107954707.337 7      -994.170 7        46.909               
G18  22168432.589 7 116496128.991 7     -2793.804 7        46.693               
G26  21786246.235 7 114487753.193 7     -2996.482 7        47.733               
G23  21767037.411 7 114386793.036 7       888.864 7        47.859               
> 2025 01 06 18 46 33.0000000  0  5                                             
G27  21016069.000 8 110440415.895 8      1451.134 8        49.524               
G16  20543232.879 7 107955702.399 7      -996.532 7        46.468               
G18  22168960.627 7 116498925.951 7     -2797.774 7        46.879               
G26  21786818.875 8 114490749.985 8     -2997.294 8        48.506               
G23  21766866.994 8 114385903.518 8       888.351 8        48.697               
> 2025 01 06 18 46 34.0000000  0  5                                             
G27  21015792.495 8 110438965.239 8      1451.930 8        49.039               
G16  20543422.443 7 107956698.281 7      -994.923 7        46.864               
G18  22169491.355 7 116501723.416 7     -2797.579 7        47.336               
G26  21787386.529 8 114493747.392 8     -2998.779 8        48.652               
G23  21766698.829 8 114385014.826 8       888.005 8        48.768               
> 2025 01 06 18 46 35.0000000  0  5                                             
G27  21015512.890 8 110437514.959 8      1449.426 8        48.522               
G16  20543614.401 7 107957694.831 7      -996.413 7        47.264               
G18  22170023.387 7 116504521.217 7     -2797.358 7        47.663               
G26  21787953.621 7 114496745.231 7     -2998.619 7        47.799               
G23  21766528.090 8 114384126.773 8       887.587 8        48.274               
> 2025 01 06 18 46 36.0000000  0  5                                             
G27  21015235.393 8 110436064.975 8      1449.741 8        48.975               
G16  20543800.873 7 107958691.960 7      -998.493 7        47.417               
G18  22170557.323 7 116507319.273 7     -2798.050 7        47.783               
G26  21788525.099 7 114499743.447 7     -2999.101 7        47.525               
G23  21766358.924 7 114383239.282 7       886.328 7        47.993               
> 2025 01 06 18 46 37.0000000  0  5                                             
G27  21014958.905 8 110434615.007 8      1451.396 8        49.123               
G16  20543987.524 7 107959689.392 7      -999.059 7        46.254               
G18  22171087.657 7 116510117.313 7     -2797.902 7        47.686               
G26  21789099.784 8 114502741.756 8     -2999.512 8        48.332               
G23  21766191.893 8 114382352.083 8       887.522 8        48.103               
> 2025 01 06 18 46 38.0000000  0  5                                             
G27  21014679.014 8 110433165.279 8      1449.242 8        48.947               
G16  20544182.502 7 107960687.337 7      -997.769 7        46.603               
G18  22171619.145 8 116512915.544 8     -2798.804 8        48.030               
G26  21789663.597 8 114505740.359 8     -3000.003 8        48.225               
G23  21766017.510 7 114381465.381 7       885.793 7        47.838               
> 2025 01 06 18 46 39.0000000  0  5                                             
G27  21014404.608 8 110431716.216 8      1448.416 8        48.970               
G16  20544371.520 7 107961686.251 7      -998.624 7        47.359               
G18  22172149.542 7 116515714.423 7     -2798.104 7        47.608               
G26  21790230.929 8 114508739.714 8     -2999.978 8        48.131               
G23  21765847.263 8 114380579.625 8       885.560 8        48.163               
> 2025 01 06 18 46 40.0000000  0  5                                             
G27  21014128.380 8 110430267.569 8      1448.394 8        49.249               
G16  20544556.751 7 107962685.856 7     -1001.434 7        47.151               
G18  22172681.485 7 116518513.664 7     -2800.646 7        47.702               
G26  21790803.176 7 114511739.546 7     -3000.489 7        47.985               
G23  21765676.828 8 114379694.546 8       883.443 8        48.168               
> 2025 01 06 18 46 41.0000000  0  5                                             
G27  21013848.104 8 110428819.458 8      1449.286 8        49.351               
G16  20544747.163 7 107963686.289 7     -1000.740 7        46.507               
G18  22173209.756 7 116521313.410 7     -2799.946 7        47.708               
G26  21791370.964 8 114514739.984 8     -3001.591 8        48.619               
G23  21765510.387 8 114378810.279 8       885.231 8        48.363               
> 2025 01 06 18 46 42.0000000  0  5                                             
G27  21013572.939 8 110427371.478 8      1448.856 8        49.068               
G16  20544936.012 7 107964687.137 7     -1001.505 7        47.144               
G18  22173743.995 7 116524113.265 7     -2801.652 7        47.281               
G26  21791940.789 8 114517740.635 8     -3001.347 8        48.285               
G23  21765340.890 8 114377926.422 8       884.356 8        48.706               
> 2025 01 06 18 46 43.0000000  0  5                                             
G27  21013297.050 8 110425923.992 8      1448.075 8        49.420               
G16  20545122.100 7 107965688.755 7     -1001.538 7        47.218               
G18  22174274.115 7 116526913.562 7     -2802.227 7        47.218               
G26  21792511.892 8 114520741.851 8     -3002.652 8        48.363               
G23  21765170.813 8 114377043.321 8       881.691 8        48.638               
> 2025 01 06 18 46 44.0000000  0  5                                             
G27  21013018.955 8 110424477.019 8      1445.953 8        49.351               
G16  20545313.870 7 107966691.169 7     -1002.613 7        46.509               
G18  22174806.558 7 116529714.340 7     -2800.256 7        46.702               
G26  21793082.495 8 114523743.644 8     -3001.695 8        48.390               
G23  21765005.140 8 114376161.001 8       881.310 8        48.993               
> 2025 01 06 18 46 45.0000000  0  5                                             
G27  21012742.253 8 110423031.054 8      1445.903 8        49.489               
G16  20545503.451 7 107967694.898 7     -1005.534 7        46.869               
G18  22175335.741 7 116532516.091 7     -2801.378 7        46.404               
G26  21793653.044 8 114526746.520 8     -3002.852 8        48.429               
G23  21764833.562 8 114375279.966 8       881.063 8        48.127               
> 2025 01 06 18 46 46.0000000  0  5                                             
G27  21012468.080 8 110421585.628 8      1444.997 8        48.690               
G16  20545694.757 7 107968699.444 7     -1005.202 7        46.446               
G18  22175871.820 7 116535318.342 7     -2802.199 7        46.651               
G26  21794222.932 7 114529749.996 7     -3003.145 7        47.648               
G23  21764663.342 7 114374399.735 7       878.721 7        47.574               
> 2025 01 06 18 46 47.0000000  0  5                                             
G27  21012191.923 8 110420140.025 8      1445.297 8        48.725               
G16  20545884.607 7 107969704.084 7     -1003.101 7        47.135               
G18  22176403.415 7 116538120.372 7     -2803.762 7        46.311               
G26  21794791.497 7 114532753.382 7     -3002.958 7        47.539               
G23  21764496.114 7 114373519.603 7       880.783 7        47.083               
> 2025 01 06 18 46 48.0000000  0  5                                             
G27  21011915.212 8 110418693.445 8      1447.011 8        48.606               
G16  20546076.618 7 107970708.049 7     -1003.838 7        46.818               
G18  22176936.314 7 116540921.394 7     -2800.114 7        46.162               
G26  21795361.296 7 114535755.845 7     -3001.545 7        47.400               
G23  21764325.277 7 114372638.760 7       882.366 7        47.259               
> 2025 01 06 18 46 49.0000000  0  5                                             
G27  21011638.421 8 110417246.963 8      1445.085 8        49.355               
G16  20546265.672 7 107971712.391 7     -1005.825 7        47.020               
G18  22177466.362 7 116543722.474 7     -2803.645 7        46.999               
G26  21795930.460 7 114538758.478 7     -3003.426 7        47.503               
G23  21764160.891 7 114371758.285 7       880.216 7        47.774               
> 2025 01 06 18 46 50.0000000  0  5                                             
G27  21011363.050 8 110415801.579 8      1444.990 8        49.148               
G16  20546456.737 7 107972718.116 7     -1005.901 7        47.138               
G18  22177998.296 7 116546524.603 7     -2801.771 7        46.589               
G26  21796504.288 7 114541762.294 7     -3005.118 7        47.865               
G23  21763989.742 7 114370879.181 7       877.861 7        47.953               
> 2025 01 06 18 46 51.0000000  0  5                                             
G27  21011090.137 8 110414356.678 8      1444.168 8        49.224               
G16  20546646.640 7 107973724.605 7     -1006.674 7        47.127               
G18  22178531.374 7 116549327.194 7     -2803.673 7        46.451               
G26  21797073.702 7 114544766.659 7     -3006.604 7        47.741               
G23  21763821.407 8 114370000.829 8       878.358 8        48.351               
> 2025 01 06 18 46 52.0000000  0  5                                             
G27  21010807.708 8 110412912.321 8      1443.596 8        49.576               
G16  20546835.480 7 107974731.928 7     -1007.922 7        46.607               
G18  22179064.085 7 116552130.281 7     -2803.135 7        46.706               
G26  21797646.735 8 114547771.618 8     -3005.227 8        48.188               
G23  21763649.507 7 114369123.289 7       876.392 7        47.793               
> 2025 01 06 18 46 53.0000000  0  5                                             
G27  21010534.642 8 110411468.177 8      1444.051 8        49.439               
G16  20547031.512 7 107975739.756 7     -1008.292 7        47.176               
G18  22179597.726 7 116554933.552 7     -2805.528 7        46.930               
G26  21798215.774 8 114550776.874 8     -3006.069 8        48.395               
G23  21763484.781 8 114368246.245 8       877.255 8        48.321               
> 2025 01 06 18 46 54.0000000  0  5                                             
G27  21010259.531 8 110410024.249 8      1443.445 8        49.472               
G16  20547219.798 7 107976748.078 7     -1010.389 7        47.573               
G18  22180127.596 7 116557736.996 7     -2805.096 7        47.119               
G26  21798787.395 8 114553782.424 8     -3005.689 8        48.300               
G23  21763314.409 8 114367369.672 8       875.285 8        48.353               
> 2025 01 06 18 46 55.0000000  0  5                                             
G27  21009977.656 8 110408580.602 8      1443.547 8        49.560               
G16  20547409.996 7 107977756.966 7     -1009.216 7        46.420               
G18  22180666.624 7 116560540.692 7     -2803.857 7        47.490               
G26  21799358.873 8 114556788.325 8     -3005.004 8        48.424               
G23  21763147.146 7 114366493.672 7       874.444 7        47.715               
> 2025 01 06 18 46 56.0000000  0  5                                             
G27  21009707.181 8 110407137.100 8      1443.249 8        49.306               
G16  20547605.644 7 107978766.296 7     -1010.865 7        46.903               
G18  22181195.806 8 116563344.486 8     -2803.257 8        48.396               
G26  21799928.135 8 114559794.434 8     -3006.985 8        48.460               
G23  21762976.952 7 114365618.072 7       876.041 7        47.706               
> 2025 01 06 18 46 57.0000000  0  5                                             
G27  21009431.391 8 110405693.986 8      1442.704 8        48.228               
G16  20547791.124 7 107979776.271 7     -1008.877 7        46.820               
G18  22181727.436 7 116566148.624 7     -2804.122 7        46.854               
G26  21800499.765 8 114562801.012 8     -3006.776 8        48.679               
G23  21762809.618 8 114364743.134 8       875.137 8        48.354               
> 2025 01 06 18 46 58.0000000  0  5                                             
G27  21009157.664 8 110404251.403 8      1442.370 8        48.666               
G16  20547983.431 7 107980787.083 7     -1010.631 7        46.935               
G18  22182257.190 7 116568953.269 7     -2805.693 7        47.451               
G26  21801071.520 8 114565808.176 8     -3006.373 8        48.391               
G23  21762641.560 8 114363868.997 8       875.080 8        48.235               
> 2025 01 06 18 46 59.0000000  0  5                                             
G27  21008880.971 8 110402808.973 8      1442.155 8        49.551               
G16  20548169.822 7 107981798.321 7     -1011.297 7        47.950               
G18  22182790.420 7 116571758.017 7     -2803.483 7        47.582               
G26  21801644.089 8 114568815.563 8     -3006.988 8        48.756               
G23  21762473.832 7 114362995.284 7       871.900 7        47.766               
> 2025 01 06 18 47 00.0000000  0  5                                             
G27  21008607.960 8 110401366.821 8      1442.243 8        49.157               
G16  20548367.132 7 107982810.135 7     -1011.439 7        47.398               
G18  22183326.678 7 116574563.010 7     -2804.500 7        47.092               
G26  21802214.405 8 114571823.299 8     -3005.420 8        48.726               
G23  21762306.927 7 114362122.122 7       872.464 7        47.701               
> 2025 01 06 18 47 01.0000000  0  5                                             
G27  21008332.964 8 110399924.854 8      1441.665 8        49.189               
G16  20548557.410 7 107983822.420 7     -1012.424 7        47.241               
G18  22183855.181 7 116577368.154 7     -2804.521 7        47.814               
G26  21802785.598 7 114574831.291 7     -3008.466 7        47.985               
G23  21762139.771 7 114361249.410 7       872.047 7        47.804               
> 2025 01 06 18 47 02.0000000  0  5                                             
G27  21008055.557 8 110398483.567 8      1442.539 8        49.756               
G16  20548748.940 7 107984835.650 7     -1012.012 7        47.137               
G18  22184387.410 7 116580173.921 7     -2806.070 7        47.637               
G26  21803358.353 8 114577840.026 8     -3006.734 8        48.489               
G23  21761974.661 7 114360377.650 7       869.917 7        47.205               
> 2025 01 06 18 47 03.0000000  0  5                                             
G27  21007779.838 8 110397042.802 8      1442.679 8        49.343               
G16  20548939.897 7 107985849.711 7     -1013.061 7        46.819               
G18  22184922.641 7 116582980.183 7     -2805.989 7        47.660               
G26  21803929.939 8 114580849.353 8     -3009.558 8        48.262               
G23  21761807.148 7 114359506.686 7       868.896 7        47.095               
> 2025 01 06 18 47 04.0000000  0  5                                             
G27  21007502.582 8 110395602.235 8      1439.991 8        49.675               
G16  20549132.239 7 107986864.236 7     -1016.042 7        47.004               
G18  22185454.906 7 116585786.597 7     -2805.714 7        47.390               
G26  21804499.478 8 114583858.959 8     -3010.540 8        48.558               
G23  21761641.297 7 114358636.190 7       870.007 7        47.450               
> 2025 01 06 18 47 05.0000000  0  5                                             
G27  21007227.426 8 110394161.971 8      1440.359 8        48.894               
G16  20549322.848 7 107987879.353 7     -1014.940 7        47.033               
G18  22185993.612 8 116588593.277 8     -2807.470 8        48.145               
G26  21805073.029 8 114586868.924 8     -3010.167 8        48.693               
G23  21761473.221 7 114357766.260 7       870.955 7        47.908               
> 2025 01 06 18 47 06.0000000  0  5                                             
G27  21006952.797 8 110392722.270 8      1439.273 8        49.510               
G16  20549515.217 7 107988895.330 7     -1017.868 7        47.798               
G18  22186523.018 8 116591400.494 8     -2806.563 8        48.198               
G26  21805646.580 8 114589879.528 8     -3010.548 8        49.047               
G23  21761305.725 7 114356897.186 7       869.492 7        47.860               
> 2025 01 06 18 47 07.0000000  0  5                                             
G27  21006675.746 8 110391283.021 8      1438.750 8        49.047               
G16  20549706.764 7 107989912.037 7     -1016.539 7        47.902               
G18  22187053.549 7 116594208.114 7     -2806.468 7        47.391               
G26  21806219.121 8 114592890.654 8     -3009.251 8        49.050               
G23  21761141.375 8 114356028.823 8       866.960 8        48.379               
> 2025 01 06 18 47 08.0000000  0  5                                             
G27  21006400.269 8 110389843.929 8      1438.502 8        49.516               
G16  20549902.867 7 107990929.175 7     -1015.986 7        47.629               
G18  22187589.718 7 116597015.846 7     -2808.771 7        47.770               
G26  21806789.563 8 114595901.986 8     -3011.638 8        48.560               
G23  21760975.595 7 114355160.874 7       868.259 7        47.883               
> 2025 01 06 18 47 09.0000000  0  5                                             
G27  21006126.220 8 110388405.037 8      1438.642 8        49.217               
G16  20550095.692 7 107991946.812 7     -1018.144 7        47.289               
G18  22188121.875 7 116599823.750 7     -2808.212 7        47.864               
G26  21807361.479 8 114598913.606 8     -3012.004 8        48.573               
G23  21760813.103 7 114354293.418 7       867.515 7        47.869               
> 2025 01 06 18 47 10.0000000  0  5                                             
G27  21005853.119 8 110386966.420 8      1437.670 8        48.948               
G16  20550286.506 7 107992965.001 7     -1019.833 7        47.036               
G18  22188655.560 8 116602631.876 8     -2809.868 8        48.383               
G26  21807934.154 8 114601925.562 8     -3013.430 8        49.269               
G23  21760643.732 7 114353426.495 7       866.089 7        47.869               
> 2025 01 06 18 47 11.0000000  0  5                                             
G27  21005577.078 8 110385528.349 8      1438.255 8        49.244               
G16  20550479.313 7 107993984.017 7     -1020.335 7        47.213               
G18  22189189.076 8 116605440.507 8     -2808.488 8        48.199               
G26  21808504.936 8 114604938.128 8     -3012.831 8        49.509               
G23  21760476.111 7 114352560.390 7       866.136 7        47.947               
> 2025 01 06 18 47 12.0000000  0  5                                             
G27  21005302.735 8 110384090.736 8      1436.452 8        49.755               
G16  20550670.181 7 107995003.789 7     -1020.031 7        47.556               
G18  22189724.512 8 116608249.565 8     -2810.221 8        48.480               
G26  21809077.817 8 114607951.223 8     -3012.286 8        48.971               
G23  21760310.698 7 114351695.010 7       865.737 7        47.401               
> 2025 01 06 18 47 13.0000000  0  5                                             
G27  21005030.554 8 110382653.409 8      1437.472 8        49.120               
G16  20550867.071 7 107996024.123 7     -1019.945 7        47.806               
G18  22190257.581 7 116611058.869 7     -2808.230 7        47.996               
G26  21809652.368 8 114610964.674 8     -3013.732 8        48.593               
G23  21760146.374 7 114350830.192 7       865.620 7        47.871               
> 2025 01 06 18 47 14.0000000  0  5                                             
G27  21004755.720 8 110381216.255 8      1437.270 8        49.795               
G16  20551060.726 7 107997044.913 7     -1022.619 7        47.388               
G18  22190789.729 8 116613868.303 8     -2810.747 8        48.244               
G26  21810222.068 8 114613978.375 8     -3013.666 8        48.945               
G23  21759978.664 7 114349965.821 7       863.562 7        46.785               
> 2025 01 06 18 47 15.0000000  0  5                                             
G27  21004482.637 8 110379779.686 8      1436.344 8        49.283               
G16  20551253.676 7 107998066.570 7     -1021.804 7        47.095               
G18  22191326.238 8 116616678.263 8     -2809.312 8        48.049               
G26  21810795.316 8 114616992.707 8     -3014.446 8        49.007               
G23  21759813.894 7 114349102.294 7       862.498 7        47.144               
> 2025 01 06 18 47 16.0000000  0  5                                             
G27  21004207.740 8 110378343.420 8      1436.493 8        49.740               
G16  20551447.332 7 107999088.822 7     -1023.811 7        47.228               
G18  22191856.349 7 116619488.508 7     -2810.665 7        47.537               
G26  21811369.126 8 114620007.415 8     -3014.742 8        49.282               
G23  21759648.677 7 114348239.340 7       862.909 7        47.949               
> 2025 01 06 18 47 17.0000000  0  5                                             
G27  21003933.093 8 110376907.103 8      1435.711 8        49.669               
G16  20551635.466 7 108000111.312 7     -1023.912 7        46.988               
G18  22192393.421 8 116622298.657 8     -2811.491 8        48.063               
G26  21811941.971 8 114623022.153 8     -3014.418 8        48.562               
G23  21759482.299 7 114347376.631 7       862.205 7        47.835               
> 2025 01 06 18 47 18.0000000  0  5                                             
G27  21003661.591 8 110375471.761 8      1435.715 8        49.523               
G16  20551834.348 7 108001135.058 7     -1024.313 7        46.538               
G18  22192927.517 7 116625109.736 7     -2810.222 7        47.516               
G26  21812514.369 8 114626037.924 8     -3016.332 8        49.290               
G23  21759318.047 7 114346515.146 7       862.754 7        47.281               
> 2025 01 06 18 47 19.0000000  0  5                                             
G27  21003385.050 8 110374037.074 8      1433.453 8        49.951               
G16  20552029.487 7 108002159.728 7     -1023.864 7        46.359               
G18  22193461.720 8 116627921.429 8     -2810.555 8        48.269               
G26  21813087.938 8 114629054.411 8     -3016.069 8        49.155               
G23  21759151.132 7 114345654.583 7       862.038 7        46.645               
> 2025 01 06 18 47 20.0000000  0  5                                             
G27  21003108.098 8 110372603.007 8      1434.368 8        49.791               
G16  20552221.811 7 108003185.312 7     -1024.911 7        46.967               
G18  22193993.877 8 116630733.694 8     -2811.234 8        48.071               
G26  21813660.622 8 114632071.588 8     -3016.535 8        49.325               
G23  21758986.960 7 114344794.918 7       858.747 7        47.419               
> 2025 01 06 18 47 21.0000000  0  5                                             
G27  21002835.568 8 110371169.213 8      1432.696 8        50.184               
G16  20552415.717 7 108004211.472 7     -1027.067 7        47.490               
G18  22194527.974 8 116633546.204 8     -2812.024 8        48.286               
G26  21814233.244 8 114635089.122 8     -3018.070 8        48.618               
G23  21758823.977 7 114343935.809 7       858.808 7        47.610               
> 2025 01 06 18 47 22.0000000  0  5                                             
G27  21002558.625 8 110369735.721 8      1434.772 8        50.041               
G16  20552612.723 7 108005238.201 7     -1026.635 7        46.952               
G18  22195059.809 8 116636358.973 8     -2812.138 8        48.794               
G26  21814810.271 8 114638107.003 8     -3017.002 8        48.750               
G23  21758657.581 7 114343077.264 7       856.523 7        47.284               
> 2025 01 06 18 47 23.0000000  0  5                                             
G27  21002289.643 8 110368302.414 8      1433.878 8        49.381               
G16  20552801.116 7 108006265.386 7     -1025.680 7        46.998               
G18  22195595.934 7 116639171.887 7     -2813.091 7        47.378               
G26  21815381.061 8 114641125.147 8     -3017.842 8        48.574               
G23  21758496.679 7 114342219.178 7       857.350 7        47.270               
> 2025 01 06 18 47 24.0000000  0  5                                             
G27  21002014.129 8 110366869.145 8      1432.940 8        49.355               
G16  20552998.291 7 108007292.898 7     -1027.246 7        47.362               
G18  22196128.931 7 116641984.784 7     -2812.632 7        47.829               
G26  21815954.308 8 114644143.384 8     -3017.679 8        49.028               
G23  21758334.562 7 114341361.388 7       858.225 7        47.323               
> 2025 01 06 18 47 25.0000000  0  5                                             
G27  21001741.698 8 110365436.088 8      1434.625 8        50.030               
G16  20553193.350 7 108008320.912 7     -1027.730 7        47.481               
G18  22196664.653 8 116644797.862 8     -2813.656 8        48.302               
G26  21816528.342 8 114647161.917 8     -3019.984 8        48.647               
G23  21758170.659 7 114340504.096 7       857.515 7        46.984               
> 2025 01 06 18 47 26.0000000  0  5                                             
G27  21001467.480 8 110364003.586 8      1431.973 8        49.756               
G16  20553386.264 7 108009349.765 7     -1031.546 7        47.646               
G18  22197198.106 7 116647611.454 7     -2813.723 7        47.500               
G26  21817099.864 8 114650181.048 8     -3019.307 8        49.465               
G23  21758003.432 7 114339647.620 7       854.185 7        47.553               
> 2025 01 06 18 47 27.0000000  0  5                                             
G27  21001191.234 8 110362571.616 8      1433.013 8        49.804               
G16  20553580.491 7 108010379.423 7     -1029.909 7        47.841               
G18  22197732.765 7 116650425.529 7     -2814.916 7        47.570               
G26  21817674.175 8 114653200.789 8     -3020.707 8        48.984               
G23  21757839.394 7 114338791.946 7       856.361 7        47.797               
> 2025 01 06 18 47 28.0000000  0  5                                             
G27  21000920.429 8 110361139.836 8      1431.550 8        49.950               
G16  20553774.665 7 108011409.556 7     -1032.078 7        47.524               
G18  22198262.778 7 116653239.756 7     -2814.310 7        47.409               
G26  21818246.975 8 114656220.783 8     -3020.323 8        49.136               
G23  21757678.055 7 114337936.735 7       852.312 7        47.466               
> 2025 01 06 18 47 29.0000000  0  5                                             
G27  21000645.362 8 110359708.644 8      1430.938 8        49.878               
G16  20553971.546 7 108012440.558 7     -1031.224 7        46.921               
G18  22198801.199 8 116656054.528 8     -2813.334 8        48.485               
G26  21818819.213 8 114659241.428 8     -3022.314 8        49.033               
G23  21757513.365 7 114337082.390 7       853.441 7        47.262               
> 2025 01 06 18 47 30.0000000  0  5                                             
G27  21000373.708 8 110358278.618 8      1430.358 8        50.256               
G16  20554166.550 7 108013473.019 7     -1033.836 7        47.713               
G18  22199336.501 7 116658870.423 7     -2816.194 7        47.895               
G26  21819393.738 8 114662263.308 8     -3022.088 8        48.235               
G23  21757347.219 7 114336229.473 7       853.655 7        46.870               
> 2025 01 06 18 47 31.0000000  0  5                                             
G27  21000099.151 8 110356847.775 8      1431.152 8        50.369               
G16  20554359.563 7 108014504.933 7     -1032.281 7        47.852               
G18  22199870.847 8 116661685.457 8     -2814.437 8        48.175               
G26  21819968.048 8 114665284.436 8     -3020.637 8        48.445               
G23  21757184.905 7 114335376.013 7       853.202 7        47.501               
> 2025 01 06 18 47 32.0000000  0  5                                             
G27  20999828.516 8 110355417.315 8      1431.214 8        49.470               
G16  20554556.997 7 108015537.527 7     -1032.700 7        47.683               
G18  22200407.981 8 116664500.844 8     -2814.548 8        48.436               
G26  21820541.304 7 114668306.030 7     -3021.600 7        47.951               
G23  21757022.351 7 114334523.208 7       853.172 7        47.034               
> 2025 01 06 18 47 33.0000000  0  5                                             
G27  20999555.557 8 110353986.609 8      1429.863 8        49.723               
G16  20554752.154 7 108016570.152 7     -1033.935 7        47.353               
G18  22200941.068 8 116667315.928 8     -2816.440 8        48.304               
G26  21821116.651 8 114671327.422 8     -3022.457 8        48.383               
G23  21756860.717 7 114333670.426 7       852.555 7        46.665               
> 2025 01 06 18 47 34.0000000  0  5                                             
G27  20999281.268 8 110352556.739 8      1430.185 8        50.316               
G16  20554948.409 7 108017603.902 7     -1034.328 7        47.371               
G18  22201474.878 8 116670131.816 8     -2815.530 8        48.109               
G26  21821686.691 8 114674349.724 8     -3021.936 8        48.583               
G23  21756697.724 7 114332818.763 7       849.838 7        47.286               
> 2025 01 06 18 47 35.0000000  0  5                                             
G27  20999004.325 8 110351127.746 8      1427.482 8        50.141               
G16  20555146.747 7 108018638.807 7     -1035.535 7        47.223               
G18  22202010.448 8 116672948.533 8     -2819.148 8        48.164               
G26  21822260.170 8 114677372.962 8     -3022.744 8        48.644               
G23  21756531.658 7 114331968.234 7       849.089 7        47.605               
> 2025 01 06 18 47 36.0000000  0  5                                             
G27  20998733.314 8 110349699.863 8      1428.459 8        50.488               
G16  20555343.243 7 108019675.113 7     -1036.858 7        47.581               
G18  22202546.278 7 116675766.306 7     -2818.717 7        47.812               
G26  21822836.062 8 114680397.373 8     -3026.419 8        48.231               
G23  21756367.683 8 114331119.090 8       850.392 8        48.234               
> 2025 01 06 18 47 37.0000000  0  5                                             
G27  20998459.775 8 110348272.254 8      1426.540 8        50.267               
G16  20555537.015 7 108020711.977 7     -1037.375 7        47.512               
G18  22203079.382 8 116678584.324 8     -2817.384 8        48.050               
G26  21823408.746 8 114683422.130 8     -3025.156 8        48.543               
G23  21756206.826 7 114330270.496 7       848.767 7        47.943               
> 2025 01 06 18 47 38.0000000  0  5                                             
G27  20998186.701 8 110346844.976 8      1426.415 8        49.974               
G16  20555733.279 7 108021749.445 7     -1037.306 7        46.830               
G18  22203616.159 8 116681402.622 8     -2817.574 8        48.175               
G26  21823982.065 8 114686447.281 8     -3027.360 8        48.285               
G23  21756045.844 7 114329422.502 7       847.576 7        47.789               
> 2025 01 06 18 47 39.0000000  0  5                                             
G27  20997914.457 8 110345418.216 8      1427.589 8        49.120               
G16  20555929.410 7 108022787.714 7     -1038.865 7        47.251               
G18  22204151.613 7 116684221.393 7     -2819.201 7        47.291               
G26  21824558.520 7 114689473.009 7     -3026.881 7        47.465               
G23  21755883.915 7 114328575.287 7       847.399 7        47.952               
> 2025 01 06 18 47 40.0000000  0  5                                             
G27  20997641.419 8 110343991.838 8      1426.413 8        49.936               
G16  20556128.810 7 108023826.660 7     -1038.349 7        47.096               
G18  22204686.540 8 116687040.507 8     -2818.719 8        48.117               
G26  21825133.634 7 114692499.192 7     -3026.058 7        47.193               
G23  21755721.111 7 114327728.734 7       846.269 7        46.567               
> 2025 01 06 18 47 41.0000000  0  5                                             
G27  20997369.077 8 110342565.392 8      1427.678 8        49.394               
G16  20556322.957 8 108024865.794 8     -1039.478 8        48.147               
G18  22205219.126 7 116689859.506 7     -2819.089 7        47.853               
G26  21825706.649 7 114695525.361 7     -3026.698 7        47.763               
G23  21755557.618 7 114326882.376 7       848.052 7        46.778               
> 2025 01 06 18 47 42.0000000  0  5                                             
G27  20997096.413 8 110341138.536 8      1426.710 8        49.754               
G16  20556518.158 7 108025904.833 7     -1040.678 7        47.807               
G18  22205754.956 7 116692678.059 7     -2818.722 7        47.691               
G26  21826284.033 7 114698551.183 7     -3027.246 7        47.275               
G23  21755399.325 7 114326035.897 7       845.624 7        46.902               
> 2025 01 06 18 47 43.0000000  0  5                                             
G27  20996823.607 8 110339712.198 8      1425.662 8        49.747               
G16  20556714.682 7 108026944.660 7     -1039.248 7        46.959               
G18  22206288.962 8 116695497.091 8     -2821.411 8        48.168               
G26  21826855.636 7 114701577.612 7     -3026.501 7        47.676               
G23  21755231.973 7 114325190.206 7       844.222 7        47.972               
> 2025 01 06 18 47 44.0000000  0  5                                             
G27  20996552.525 8 110338286.515 8      1425.486 8        49.779               
G16  20556915.181 7 108027985.425 7     -1039.589 7        47.023               
G18  22206825.364 8 116698316.724 8     -2820.769 8        48.140               
G26  21827430.956 8 114704604.741 8     -3029.779 8        48.182               
G23  21755072.197 7 114324345.430 7       843.458 7        47.971               
> 2025 01 06 18 47 45.0000000  0  5                                             
G27  20996282.408 8 110336861.276 8      1424.189 8        50.347               
G16  20557110.007 7 108029026.921 7     -1041.162 7        47.605               
G18  22207360.836 8 116701136.763 8     -2820.767 8        48.207               
G26  21828011.074 8 114707632.393 8     -3027.824 8        48.074               
G23  21754909.937 7 114323501.373 7       842.949 7        47.686               
> 2025 01 06 18 47 46.0000000  0  5                                             
G27  20996005.572 8 110335435.722 8      1425.735 8        49.936               
G16  20557306.969 8 108030068.367 8     -1040.344 8        48.116               
G18  22207898.631 8 116703956.423 8     -2820.436 8        48.329               
G26  21828584.750 8 114710659.760 8     -3027.292 8        48.772               
G23  21754744.997 7 114322657.256 7       845.602 7        47.214               
> 2025 01 06 18 47 47.0000000  0  5                                             
G27  20995734.285 8 110334010.177 8      1424.900 8        49.802               
G16  20557507.075 8 108031110.140 8     -1041.845 8        48.531               
G18  22208433.540 7 116706776.081 7     -2819.528 7        47.689               
G26  21829160.660 8 114713687.244 8     -3027.517 8        48.338               
G23  21754588.215 7 114321813.446 7       842.400 7        47.585               
> 2025 01 06 18 47 48.0000000  0  5                                             
G27  20995466.079 8 110332585.634 8      1423.538 8        50.159               
G16  20557704.796 7 108032153.178 7     -1043.747 7        47.887               
G18  22208966.385 7 116709596.672 7     -2821.270 7        47.591               
G26  21829736.042 7 114716715.755 7     -3030.260 7        47.989               
G23  21754425.669 7 114320970.886 7       843.117 7        47.989               
> 2025 01 06 18 47 49.0000000  0  5                                             
G27  20995188.761 8 110331162.187 8      1422.953 8        49.294               
G16  20557902.409 8 108033197.610 8     -1043.717 8        48.013               
G18  22209500.794 7 116712418.334 7     -2822.104 7        46.610               
G26  21830309.548 7 114719745.449 7     -3030.440 7        47.892               
G23  21754267.796 8 114320129.714 8       839.650 8        48.069               
> 2025 01 06 18 47 50.0000000  0  5                                             
G27  20994918.975 8 110329738.534 8      1425.232 8        49.834               
G16  20558100.371 8 108034242.111 8     -1045.022 8        48.576               
G18  22210040.680 7 116715239.731 7     -2821.661 7        47.634               
G26  21830885.074 7 114722774.988 7     -3029.039 7        47.796               
G23  21754105.956 8 114319288.604 8       840.855 8        48.424               
> 2025 01 06 18 47 51.0000000  0  5                                             
G27  20994645.185 8 110328314.918 8      1424.283 8        49.334               
G16  20558293.750 7 108035286.924 7     -1044.709 7        47.608               
G18  22210575.625 7 116718061.123 7     -2821.825 7        46.950               
G26  21831462.726 7 114725804.632 7     -3030.603 7        47.790               
G23  21753945.242 8 114318447.789 8       840.643 8        48.274               
> 2025 01 06 18 47 52.0000000  0  5                                             
G27  20994372.897 8 110326891.824 8      1422.723 8        49.224               
G16  20558494.767 7 108036332.547 7     -1045.266 7        47.430               
G18  22211111.633 7 116720882.994 7     -2823.955 7        47.329               
G26  21832038.189 7 114728834.863 7     -3030.926 7        47.795               
G23  21753784.243 7 114317607.781 7       838.770 7        47.958               
> 2025 01 06 18 47 53.0000000  0  5                                             
G27  20994104.326 8 110325468.717 8      1426.569 8        49.644               
G16  20558690.406 8 108037378.437 8     -1044.664 8        48.036               
G18  22211644.997 8 116723704.810 8     -2821.580 8        48.015               
G26  21832610.828 7 114731865.144 7     -3028.659 7        47.980               
G23  21753622.421 7 114316768.022 7       841.045 7        47.970               
> 2025 01 06 18 47 54.0000000  0  5                                             
G27  20993828.634 8 110324045.358 8      1421.606 8        49.367               
G16  20558891.111 7 108038424.353 7     -1047.561 7        47.753               
G18  22212183.015 8 116726526.323 8     -2821.671 8        48.179               
G26  21833190.160 8 114734895.230 8     -3030.986 8        48.341               
G23  21753457.007 8 114315928.286 8       838.794 8        48.011               
> 2025 01 06 18 47 55.0000000  0  5                                             
G27  20993560.607 8 110322623.221 8      1420.350 8        49.386               
G16  20559090.672 7 108039471.771 7     -1046.828 7        47.627               
G18  22212720.542 7 116729349.013 7     -2823.114 7        47.496               
G26  21833763.077 8 114737926.604 8     -3032.308 8        48.417               
G23  21753297.624 7 114315090.041 7       836.951 7        47.904               
> 2025 01 06 18 47 56.0000000  0  5                                             
G27  20993287.997 8 110321201.946 8      1422.161 8        48.875               
G16  20559287.535 7 108040520.332 7     -1050.261 7        47.685               
G18  22213253.843 7 116732172.524 7     -2826.099 7        47.554               
G26  21834340.577 8 114740958.920 8     -3032.907 8        48.462               
G23  21753137.920 8 114314252.922 8       837.233 8        48.181               
> 2025 01 06 18 47 57.0000000  0  5                                             
G27  20993012.636 8 110319781.498 8      1419.757 8        48.802               
G16  20559484.765 7 108041570.013 7     -1052.013 7        47.823               
G18  22213793.782 8 116734996.817 8     -2823.843 8        48.259               
G26  21834918.756 8 114743992.096 8     -3033.024 8        48.519               
G23  21752976.992 7 114313416.920 7       834.706 7        47.654               
> 2025 01 06 18 47 58.0000000  0  5                                             
G27  20992745.646 8 110318361.220 8      1420.807 8        49.566               
G16  20559686.166 7 108042620.136 7     -1049.920 7        47.351               
G18  22214327.226 8 116737821.222 8     -2824.509 8        48.281               
G26  21835491.708 8 114747025.515 8     -3032.812 8        49.273               
G23  21752819.503 7 114312581.340 7       834.998 7        47.982               
> 2025 01 06 18 47 59.0000000  0  5                                             
G27  20992475.100 8 110316940.835 8      1420.414 8        49.822               
G16  20559880.394 7 108043670.441 7     -1051.480 7        47.761               
G18  22214864.816 8 116740645.490 8     -2825.076 8        48.498               
G26  21836072.880 8 114750058.901 8     -3032.541 8        48.727               
G23  21752657.574 7 114311745.938 7       834.872 7        47.791               
> 2025 01 06 18 48 00.0000000  0  5                                             
G27  20992203.535 8 110315520.689 8      1419.953 8        49.857               
G16  20560079.571 7 108044721.275 7     -1050.741 7        47.824               
G18  22215400.404 7 116743469.944 7     -2824.117 7        47.711               
G26  21836646.029 8 114753092.572 8     -3033.104 8        48.169               
G23  21752502.819 7 114310911.046 7       835.548 7        47.852               
> 2025 01 06 18 48 01.0000000  0  5                                             
G27  20991930.979 8 110314100.774 8      1420.681 8        50.284               
G16  20560277.524 7 108045772.607 7     -1052.255 7        47.838               
G18  22215936.162 8 116746294.585 8     -2824.594 8        48.004               
G26  21837222.010 8 114756126.547 8     -3034.047 8        48.843               
G23  21752343.937 8 114310076.653 8       834.632 8        48.361               
> 2025 01 06 18 48 02.0000000  0  5                                             
G27  20991658.441 8 110312681.317 8      1420.017 8        49.849               
G16  20560474.333 8 108046824.683 8     -1053.528 8        48.213               
G18  22216471.625 7 116749119.635 7     -2826.369 7        47.873               
G26  21837799.600 8 114759161.032 8     -3035.248 8        49.076               
G23  21752184.858 8 114309242.990 8       832.762 8        48.136               
> 2025 01 06 18 48 03.0000000  0  5                                             
G27  20991386.313 8 110311262.208 8      1419.087 8        49.655               
G16  20560677.370 7 108047877.386 7     -1052.626 7        46.887               
G18  22217009.483 7 116751944.998 7     -2823.885 7        47.774               
G26  21838376.528 8 114762195.932 8     -3034.798 8        49.287               
G23  21752023.134 8 114308409.948 8       833.310 8        48.160               
> 2025 01 06 18 48 04.0000000  0  5                                             
G27  20991116.974 8 110309843.298 8      1418.624 8        49.683               
G16  20560874.573 7 108048930.573 7     -1053.676 7        46.559               
G18  22217542.828 7 116754770.503 7     -2827.347 7        47.751               
G26  21838948.748 8 114765231.103 8     -3035.733 8        48.608               
G23  21751864.046 8 114307577.379 8       831.515 8        48.229               
> 2025 01 06 18 48 05.0000000  0  5                                             
G27  20990847.545 8 110308424.684 8      1418.596 8        49.896               
G16  20561073.857 7 108049984.331 7     -1053.990 7        47.553               
G18  22218081.883 7 116757596.265 7     -2825.927 7        47.804               
G26  21839527.552 8 114768266.617 8     -3036.222 8        48.624               
G23  21751704.905 8 114306745.366 8       830.995 8        48.488               
> 2025 01 06 18 48 06.0000000  0  5                                             
G27  20990572.058 8 110307006.548 8      1416.549 8        49.812               
G16  20561276.286 7 108051038.860 7     -1054.959 7        47.684               
G18  22218617.883 7 116760422.455 7     -2824.291 7        47.717               
G26  21840103.676 8 114771302.674 8     -3037.379 8        49.045               
G23  21751546.192 8 114305914.110 8       830.456 8        48.461               
> 2025 01 06 18 48 07.0000000  0  5                                             
G27  20990306.730 8 110305588.708 8      1419.252 8        49.998               
G16  20561473.694 7 108052093.955 7     -1056.084 7        47.345               
G18  22219156.151 7 116763248.888 7     -2825.848 7        47.626               
G26  21840678.523 8 114774339.096 8     -3035.968 8        48.325               
G23  21751387.006 8 114305083.422 8       831.247 8        48.413               
> 2025 01 06 18 48 08.0000000  0  5                                             
G27  20990036.523 8 110304170.690 8      1417.005 8        49.584               
G16  20561674.149 7 108053149.159 7     -1056.329 7        47.175               
G18  22219693.687 7 116766075.109 7     -2826.690 7        47.934               
G26  21841257.318 8 114777375.403 8     -3037.821 8        48.408               
G23  21751226.819 8 114304252.837 8       828.722 8        48.610               
> 2025 01 06 18 48 09.0000000  0  5                                             
G27  20989764.485 8 110302753.807 8      1418.531 8        49.790               
G16  20561873.156 7 108054205.777 7     -1056.786 7        46.470               
G18  22220228.480 7 116768902.414 7     -2826.928 7        47.673               
G26  21841837.141 8 114780412.915 8     -3035.995 8        48.523               
G23  21751067.919 8 114303423.652 8       829.972 8        48.445               
> 2025 01 06 18 48 10.0000000  0  5                                             
G27  20989493.743 8 110301336.654 8      1417.080 8        49.675               
G16  20562075.317 7 108055262.404 7     -1056.930 7        47.112               
G18  22220766.695 7 116771729.408 7     -2827.137 7        46.886               
G26  21842412.032 8 114783450.201 8     -3037.238 8        48.587               
G23  21750906.025 7 114302594.468 7       827.686 7        47.553               
> 2025 01 06 18 48 11.0000000  0  5                                             
G27  20989224.582 8 110299919.727 8      1418.176 8        50.082               
G16  20562276.219 7 108056319.537 7     -1058.324 7        47.282               
G18  22221300.657 7 116774556.560 7     -2828.033 7        47.389               
G26  21842987.290 8 114786487.767 8     -3037.622 8        48.772               
G23  21750747.858 7 114301765.771 7       827.257 7        47.826               
> 2025 01 06 18 48 12.0000000  0  5                                             
G27  20988953.401 8 110298503.571 8      1415.883 8        50.375               
G16  20562475.646 7 108057377.718 7     -1059.027 7        47.616               
G18  22221835.388 7 116777384.452 7     -2829.547 7        47.485               
G26  21843566.880 8 114789526.170 8     -3038.699 8        49.294               
G23  21750589.118 7 114300938.127 7       828.335 7        47.840               
> 2025 01 06 18 48 13.0000000  0  5                                             
G27  20988684.035 8 110297087.828 8      1415.317 8        49.886               
G16  20562677.575 7 108058436.605 7     -1059.764 7        47.175               
G18  22222372.522 7 116780212.712 7     -2827.696 7        47.020               
G26  21844143.139 8 114792565.056 8     -3038.273 8        48.182               
G23  21750431.379 7 114300111.171 7       827.131 7        47.355               
> 2025 01 06 18 48 14.0000000  0  5                                             
G27  20988411.121 8 110295672.418 8      1415.413 8        49.651               
G16  20562878.619 7 108059496.098 7     -1061.433 7        46.213               
G18  22222911.353 7 116783041.253 7     -2827.508 7        47.395               
G26  21844723.140 8 114795604.334 8     -3040.151 8        48.103               
G23  21750276.017 7 114299284.807 7       824.447 7        46.744               
> 2025 01 06 18 48 15.0000000  0  5                                             
G27  20988140.137 8 110294257.386 8      1415.008 8        49.669               
G16  20563078.064 7 108060556.256 7     -1061.707 7        46.559               
G18  22223450.962 7 116785870.135 7     -2828.275 7        47.426               
G26  21845299.649 8 114798644.062 8     -3039.962 8        48.419               
G23  21750115.768 7 114298459.109 7       825.410 7        47.307               
> 2025 01 06 18 48 16.0000000  0  5                                             
G27  20987869.431 8 110292842.770 8      1414.453 8        49.827               
G16  20563276.250 7 108061617.116 7     -1060.666 7        46.840               
G18  22223988.239 7 116788699.378 7     -2829.259 7        47.494               
G26  21845875.317 8 114801684.253 8     -3040.549 8        48.556               
G23  21749953.187 7 114297634.101 7       824.197 7        47.828               
> 2025 01 06 18 48 17.0000000  0  5                                             
G27  20987600.002 8 110291428.407 8      1414.098 8        50.025               
G16  20563479.286 7 108062678.498 7     -1060.871 7        47.731               
G18  22224525.408 7 116791528.822 7     -2827.567 7        47.009               
G26  21846452.442 8 114804724.753 8     -3040.536 8        48.084               
G23  21749794.885 7 114296809.611 7       824.670 7        47.917               
> 2025 01 06 18 48 18.0000000  0  5                                             
G27  20987326.793 8 110290014.278 8      1413.602 8        49.795               
G16  20563682.815 7 108063740.402 7     -1060.701 7        47.809               
G18  22225065.142 7 116794358.451 7     -2831.170 7        46.785               
G26  21847027.967 7 114807765.541 7     -3039.128 7        47.900               
G23  21749637.477 7 114295985.614 7       824.295 7        47.591               
> 2025 01 06 18 48 19.0000000  0  5                                             
G27  20987055.756 8 110288600.555 8      1413.482 8        49.574               
G16  20563879.070 7 108064802.982 7     -1060.766 7        47.516               
G18  22225600.123 7 116797188.438 7     -2829.773 7        46.926               
G26  21847608.353 8 114810806.804 8     -3041.922 8        48.007               
G23  21749475.985 8 114295162.306 8       822.890 8        48.094               
> 2025 01 06 18 48 20.0000000  0  5                                             
G27  20986788.650 8 110287187.241 8      1412.226 8        49.352               
G16  20564082.822 7 108065866.263 7     -1062.578 7        47.618               
G18  22226141.438 7 116800018.793 7     -2832.217 7        46.583               
G26  21848182.110 8 114813848.540 8     -3041.108 8        48.253               
G23  21749323.384 7 114294339.673 7       823.888 7        47.941               
> 2025 01 06 18 48 21.0000000  0  5                                             
G27  20986518.318 8 110285774.186 8      1412.623 8        49.735               
G16  20564283.518 7 108066930.081 7     -1064.787 7        47.372               
G18  22226671.076 7 116802849.358 7     -2830.221 7        47.345               
G26  21848762.406 7 114816890.593 7     -3042.445 7        47.302               
G23  21749164.073 8 114293517.582 8       820.120 8        48.017               
> 2025 01 06 18 48 22.0000000  0  5                                             
G27  20986248.514 8 110284361.653 8      1412.254 8        49.471               
G16  20564483.499 7 108067994.693 7     -1066.359 7        47.074               
G18  22227212.016 7 116805680.390 7     -2831.006 7        47.210               
G26  21849338.360 7 114819933.224 7     -3042.599 7        47.767               
G23  21749005.807 8 114292696.274 8       820.406 8        48.092               
> 2025 01 06 18 48 23.0000000  0  5                                             
G27  20985979.612 8 110282949.375 8      1412.173 8        49.956               
G16  20564688.474 7 108069059.843 7     -1064.888 7        46.951               
G18  22227753.072 7 116808511.631 7     -2832.059 7        47.802               
G26  21849917.013 8 114822976.166 8     -3043.637 8        48.315               
G23  21748851.758 7 114291875.490 7       822.637 7        47.723               
> 2025 01 06 18 48 24.0000000  0  5                                             
G27  20985710.138 8 110281537.313 8      1411.729 8        49.628               
G16  20564885.882 7 108070125.498 7     -1067.014 7        46.719               
G18  22228286.328 7 116811343.043 7     -2830.824 7        47.601               
G26  21850491.377 8 114826019.387 8     -3042.532 8        48.526               
G23  21748692.268 8 114291055.198 8       819.633 8        48.176               
> 2025 01 06 18 48 25.0000000  0  5                                             
G27  20985438.949 8 110280125.740 8      1411.813 8        49.586               
G16  20565090.116 7 108071191.911 7     -1067.992 7        47.411               
G18  22228827.304 8 116814174.888 8     -2832.092 8        48.386               
G26  21851069.860 8 114829063.161 8     -3043.517 8        48.858               
G23  21748535.530 7 114290235.672 7       818.228 7        47.855               
> 2025 01 06 18 48 26.0000000  0  5                                             
G27  20985169.555 8 110278714.569 8      1412.143 8        49.538               
G16  20565292.063 7 108072259.021 7     -1067.279 7        47.386               
G18  22229363.446 7 116817007.102 7     -2831.668 7        47.354               
G26  21851650.156 8 114832107.405 8     -3044.852 8        48.519               
G23  21748380.552 8 114289416.817 8       819.738 8        48.071               
> 2025 01 06 18 48 27.0000000  0  5                                             
G27  20984897.794 8 110277303.697 8      1411.652 8        49.438               
G16  20565495.395 7 108073326.698 7     -1067.843 7        47.134               
G18  22229899.437 7 116819839.547 7     -2831.535 7        46.994               
G26  21852226.861 8 114835151.981 8     -3044.001 8        48.946               
G23  21748220.517 7 114288598.531 7       818.480 7        47.861               
> 2025 01 06 18 48 28.0000000  0  5                                             
G27  20984631.939 8 110275893.219 8      1412.344 8        49.278               
G16  20565695.537 7 108074395.053 7     -1069.044 7        46.573               
G18  22230438.348 7 116822672.349 7     -2831.937 7        47.415               
G26  21852805.800 8 114838197.027 8     -3045.145 8        48.071               
G23  21748069.032 7 114287780.913 7       818.161 7        47.666               
> 2025 01 06 18 48 29.0000000  0  5                                             
G27  20984358.954 8 110274483.080 8      1409.499 8        49.694               
G16  20565899.619 7 108075464.026 7     -1069.492 7        46.762               
G18  22230975.598 7 116825505.429 7     -2832.503 7        47.830               
G26  21853385.372 8 114841242.461 8     -3044.524 8        48.192               
G23  21747908.577 8 114286963.900 8       816.590 8        48.289               
> 2025 01 06 18 48 30.0000000  0  5                                             
G27  20984090.910 8 110273073.118 8      1409.442 8        49.907               
G16  20566098.814 7 108076533.467 7     -1068.468 7        47.725               
G18  22231514.081 8 116828338.650 8     -2832.268 8        48.155               
G26  21853961.747 8 114844288.143 8     -3045.083 8        48.147               
G23  21747755.913 8 114286147.334 8       816.569 8        48.304               
> 2025 01 06 18 48 31.0000000  0  5                                             
G27  20983820.766 8 110271663.432 8      1409.189 8        50.357               
G16  20566301.118 7 108077603.459 7     -1070.665 7        46.870               
G18  22232054.423 7 116831172.086 7     -2834.079 7        47.748               
G26  21854540.721 8 114847334.151 8     -3049.185 8        48.004               
G23  21747595.959 7 114285331.321 7       816.005 7        47.735               
> 2025 01 06 18 48 32.0000000  0  5                                             
G27  20983551.185 8 110270254.044 8      1409.286 8        49.499               
G16  20566500.876 7 108078674.034 7     -1070.544 7        47.138               
G18  22232589.913 8 116834005.781 8     -2833.688 8        48.540               
G26  21855118.552 8 114850380.529 8     -3047.758 8        48.847               
G23  21747440.141 8 114284515.891 8       814.277 8        48.448               
> 2025 01 06 18 48 33.0000000  0  5                                             
G27  20983282.381 8 110268845.022 8      1408.362 8        49.352               
G16  20566706.700 7 108079745.255 7     -1070.599 7        47.243               
G18  22233126.135 8 116836839.790 8     -2834.313 8        48.433               
G26  21855701.001 8 114853427.315 8     -3047.262 8        48.446               
G23  21747287.289 8 114283701.085 8       815.610 8        48.427               
> 2025 01 06 18 48 34.0000000  0  5                                             
G27  20983013.899 8 110267436.053 8      1407.471 8        49.101               
G16  20566910.005 7 108080816.814 7     -1072.705 7        47.574               
G18  22233666.102 7 116839673.801 7     -2833.882 7        47.867               
G26  21856279.252 7 114856474.226 7     -3047.482 7        47.763               
G23  21747130.471 7 114282886.604 7       813.335 7        47.650               
> 2025 01 06 18 48 35.0000000  0  5                                             
G27  20982744.389 8 110266027.326 8      1408.197 8        49.259               
G16  20567111.487 7 108081888.877 7     -1072.599 7        47.952               
G18  22234204.996 7 116842508.007 7     -2834.800 7        47.818               
G26  21856855.903 7 114859521.437 7     -3047.860 7        47.288               
G23  21746973.456 7 114282072.644 7       812.336 7        47.876               
> 2025 01 06 18 48 36.0000000  0  5                                             
G27  20982474.826 8 110264619.251 8      1406.479 8        49.331               
G16  20567315.122 7 108082961.888 7     -1072.659 7        46.994               
G18  22234744.810 7 116845342.811 7     -2835.460 7        47.551               
G26  21857436.128 7 114862569.342 7     -3048.924 7        47.915               
G23  21746816.869 8 114281259.605 8       812.382 8        48.127               
> 2025 01 06 18 48 37.0000000  0  5                                             
G27  20982207.434 8 110263211.202 8      1407.853 8        49.168               
G16  20567515.800 7 108084035.195 7     -1073.308 7        46.853               
G18  22235282.247 7 116848177.602 7     -2837.050 7        47.884               
G26  21858014.959 8 114865617.349 8     -3047.749 8        48.203               
G23  21746659.354 8 114280446.861 8       813.722 8        48.267               
> 2025 01 06 18 48 38.0000000  0  5                                             
G27  20981937.728 8 110261803.115 8      1407.356 8        49.278               
G16  20567720.160 7 108085108.740 7     -1074.311 7        47.306               
G18  22235821.722 7 116851012.294 7     -2834.635 7        47.946               
G26  21858592.334 8 114868665.363 8     -3049.048 8        48.094               
G23  21746502.321 8 114279634.349 8       812.629 8        48.228               
> 2025 01 06 18 48 39.0000000  0  5                                             
G27  20981666.074 8 110260395.831 8      1407.785 8        48.668               
G16  20567922.544 7 108086183.385 7     -1075.642 7        47.275               
G18  22236361.233 7 116853847.748 7     -2836.557 7        47.791               
G26  21859172.658 7 114871714.243 7     -3048.923 7        47.735               
G23  21746347.271 7 114278822.922 7       810.015 7        47.862               
> 2025 01 06 18 48 40.0000000  0  5                                             
G27  20981397.664 8 110258989.145 8      1407.572 8        49.332               
G16  20568129.986 7 108087258.888 7     -1076.116 7        47.155               
G18  22236899.769 8 116856683.743 8     -2836.463 8        48.555               
G26  21859752.909 7 114874763.786 7     -3049.233 7        47.645               
G23  21746189.479 7 114278012.355 7       809.187 7        47.917               
> 2025 01 06 18 48 41.0000000  0  5                                             
G27  20981132.353 8 110257582.901 8      1406.662 8        49.640               
G16  20568333.228 7 108088335.127 7     -1078.128 7        46.484               
G18  22237434.777 8 116859520.124 8     -2836.821 8        48.221               
G26  21860331.053 8 114877813.827 8     -3050.484 8        48.115               
G23  21746035.993 7 114277202.505 7       809.460 7        47.139               
> 2025 01 06 18 48 42.0000000  0  5                                             
G27  20980863.264 8 110256177.173 8      1406.000 8        50.068               
G16  20568538.364 7 108089412.156 7     -1077.547 7        47.043               
G18  22237973.590 8 116862356.979 8     -2837.840 8        48.595               
G26  21860910.545 8 114880864.433 8     -3051.741 8        48.023               
G23  21745879.782 7 114276393.438 7       809.314 7        47.251               
> 2025 01 06 18 48 43.0000000  0  5                                             
G27  20980594.773 8 110254771.770 8      1405.361 8        49.836               
G16  20568741.365 7 108090489.796 7     -1077.330 7        47.114               
G18  22238516.558 7 116865194.119 7     -2838.156 7        47.958               
G26  21861490.270 7 114883915.420 7     -3051.621 7        47.853               
G23  21745725.921 8 114275584.982 8       808.782 8        48.020               
> 2025 01 06 18 48 44.0000000  0  5                                             
G27  20980322.913 8 110253366.383 8      1406.437 8        49.789               
G16  20568943.491 7 108091567.721 7     -1079.775 7        47.424               
G18  22239054.184 8 116868031.208 8     -2836.391 8        48.044               
G26  21862068.252 8 114886966.478 8     -3051.790 8        48.094               
G23  21745575.070 8 114274776.800 8       808.117 8        48.802               
> 2025 01 06 18 48 45.0000000  0  5                                             
G27  20980056.683 8 110251961.251 8      1405.660 8        49.175               
G16  20569148.743 7 108092646.195 7     -1078.262 7        46.749               
G18  22239592.792 7 116870868.511 7     -2837.945 7        47.422               
G26  21862648.004 8 114890017.853 8     -3052.849 8        48.370               
G23  21745415.831 8 114273969.159 8       805.855 8        48.140               
> 2025 01 06 18 48 46.0000000  0  5                                             
G27  20979789.523 8 110250556.261 8      1404.898 8        49.069               
G16  20569353.031 7 108093725.072 7     -1079.357 7        46.766               
G18  22240131.811 7 116873705.885 7     -2837.310 7        47.924               
G26  21863225.897 8 114893069.417 8     -3052.008 8        48.326               
G23  21745261.648 7 114273161.913 7       806.190 7        46.541               
> 2025 01 06 18 48 47.0000000  0  5                                             
G27  20979519.165 8 110249151.440 8      1404.292 8        49.886               
G16  20569554.433 7 108094804.417 7     -1080.717 7        47.789               
G18  22240670.267 8 116876543.403 8     -2837.172 8        48.056               
G26  21863806.685 8 114896121.237 8     -3054.740 8        48.142               
G23  21745107.894 7 114272355.128 7       806.129 7        47.554               
> 2025 01 06 18 48 48.0000000  0  5                                             
G27  20979251.942 8 110247746.812 8      1404.249 8        50.093               
G16  20569764.751 7 108095884.214 7     -1079.167 7        47.657               
G18  22241204.685 7 116879381.043 7     -2838.570 7        47.932               
G26  21864383.318 8 114899173.281 8     -3052.883 8        48.128               
G23  21744956.668 8 114271548.783 8       806.505 8        48.057               
> 2025 01 06 18 48 49.0000000  0  5                                             
G27  20978986.873 8 110246342.532 8      1403.292 8        50.018               
G16  20569967.815 7 108096964.650 7     -1082.453 7        47.643               
G18  22241743.722 7 116882218.985 7     -2837.731 7        47.973               
G26  21864967.778 7 114902225.734 7     -3053.377 7        47.642               
G23  21744800.457 8 114270743.073 8       806.649 8        48.900               
> 2025 01 06 18 48 50.0000000  0  5                                             
G27  20978715.362 8 110244938.627 8      1404.443 8        49.286               
G16  20570170.217 8 108098045.739 8     -1081.933 8        48.206               
G18  22242282.803 7 116885057.254 7     -2839.596 7        47.485               
G26  21865548.262 7 114905278.622 7     -3052.670 7        47.828               
G23  21744643.201 8 114269938.009 8       803.737 8        48.275               
> 2025 01 06 18 48 51.0000000  0  5                                             
G27  20978449.436 8 110243535.132 8      1402.961 8        49.072               
G16  20570376.792 7 108099127.520 7     -1082.852 7        47.767               
G18  22242822.519 8 116887895.878 8     -2839.378 8        48.112               
G26  21866127.228 7 114908331.973 7     -3054.460 7        47.906               
G23  21744491.314 7 114269133.625 7       804.078 7        47.759               
> 2025 01 06 18 48 52.0000000  0  5                                             
G27  20978178.532 8 110242131.857 8      1402.499 8        49.209               
G16  20570581.473 7 108100209.792 7     -1081.803 7        47.734               
G18  22243363.486 7 116890734.674 7     -2837.723 7        47.518               
G26  21866705.076 7 114911385.597 7     -3052.309 7        47.969               
G23  21744336.390 7 114268329.732 7       803.110 7        47.730               
> 2025 01 06 18 48 53.0000000  0  5                                             
G27  20977910.560 8 110240728.980 8      1403.348 8        49.834               
G16  20570786.493 7 108101292.745 7     -1083.470 7        46.608               
G18  22243904.042 7 116893573.818 7     -2839.540 7        47.478               
G26  21867288.491 8 114914439.682 8     -3054.528 8        48.196               
G23  21744182.350 8 114267526.512 8       802.582 8        48.185               
> 2025 01 06 18 48 54.0000000  0  5                                             
G27  20977641.675 8 110239326.800 8      1402.671 8        50.275               
G16  20570990.709 7 108102376.679 7     -1085.513 7        46.329               
G18  22244443.436 7 116896413.602 7     -2841.260 7        46.759               
G26  21867867.733 8 114917494.523 8     -3055.288 8        48.413               
G23  21744031.741 8 114266724.260 8       801.941 8        48.926               
> 2025 01 06 18 48 55.0000000  0  5                                             
G27  20977374.659 8 110237924.651 8      1402.602 8        49.439               
G16  20571199.625 7 108103460.924 7     -1083.198 7        47.041               
G18  22244983.188 7 116899253.365 7     -2840.344 7        47.383               
G26  21868446.940 8 114920549.441 8     -3056.004 8        48.317               
G23  21743877.290 8 114265922.306 8       800.288 8        48.470               
> 2025 01 06 18 48 56.0000000  0  5                                             
G27  20977104.336 8 110236522.178 8      1403.043 8        49.535               
G16  20571403.805 7 108104545.122 7     -1083.447 7        47.363               
G18  22245517.847 7 116902092.755 7     -2839.631 7        47.121               
G26  21869027.817 7 114923604.092 7     -3054.219 7        47.204               
G23  21743721.946 7 114265120.306 7       802.563 7        47.951               
> 2025 01 06 18 48 57.0000000  0  5                                             
G27  20976838.785 8 110235120.504 8      1401.750 8        49.534               
G16  20571607.369 7 108105630.408 7     -1085.147 7        47.498               
G18  22246059.511 7 116904932.894 7     -2838.963 7        47.218               
G26  21869611.625 8 114926659.614 8     -3054.407 8        48.247               
G23  21743569.335 8 114264319.389 8       799.785 8        48.044               
> 2025 01 06 18 48 58.0000000  0  5                                             
G27  20976569.543 8 110233719.476 8      1400.670 8        49.783               
G16  20571813.077 7 108106716.613 7     -1086.311 7        46.614               
G18  22246596.001 7 116907773.621 7     -2839.206 7        46.826               
G26  21870187.659 8 114929715.826 8     -3057.254 8        48.290               
G23  21743413.678 8 114263519.385 8       799.472 8        48.046               
> 2025 01 06 18 48 59.0000000  0  5                                             
G27  20976303.000 8 110232318.550 8      1401.182 8        50.295               
G16  20572018.607 7 108107803.210 7     -1085.788 7        46.616               
G18  22247140.211 7 116910614.401 7     -2841.856 7        47.056               
G26  21870768.974 7 114932772.192 7     -3055.493 7        47.714               
G23  21743260.719 7 114262719.739 7       799.857 7        47.410               
> 2025 01 06 18 49 00.0000000  0  5                                             
G27  20976037.475 8 110230918.101 8      1400.343 8        49.852               
G16  20572223.153 7 108108890.554 7     -1088.103 7        47.632               
G18  22247679.892 7 116913455.601 7     -2841.805 7        46.867               
G26  21871349.244 7 114935829.101 7     -3057.138 7        47.718               
G23  21743108.502 8 114261920.855 8       799.617 8        48.459               
> 2025 01 06 18 49 01.0000000  0  5                                             
G27  20975769.600 8 110229517.767 8      1400.359 8        49.392               
G16  20572431.301 8 108109978.291 8     -1088.409 8        48.303               
G18  22248214.274 7 116916296.864 7     -2842.268 7        46.456               
G26  21871929.023 7 114938886.173 7     -3057.974 7        47.349               
G23  21742955.034 8 114261122.356 8       798.904 8        48.081               
> 2025 01 06 18 49 02.0000000  0  5                                             
G27  20975504.969 8 110228118.012 8      1399.179 8        50.058               
G16  20572637.080 8 108111066.891 8     -1088.462 8        48.417               
G18  22248754.767 7 116919138.663 7     -2843.016 7        46.685               
G26  21872509.453 8 114941943.870 8     -3058.508 8        48.081               
G23  21742800.217 8 114260324.711 8       797.467 8        48.608               
> 2025 01 06 18 49 03.0000000  0  5                                             
G27  20975235.084 8 110226718.800 8      1398.745 8        49.336               
G16  20572843.879 7 108112156.305 7     -1090.571 7        47.492               
G18  22249296.556 7 116921980.947 7     -2842.835 7        46.074               
G26  21873090.107 7 114945002.179 7     -3058.179 7        46.609               
G23  21742648.982 8 114259527.873 8       796.441 8        48.418               
> 2025 01 06 18 49 04.0000000  0  5                                             
G27  20974966.567 8 110225320.083 8      1398.521 8        50.439               
G16  20573050.525 7 108113246.499 7     -1091.248 7        47.099               
G18  22249837.844 7 116924823.678 7     -2843.097 7        46.704               
G26  21873673.432 7 114948061.045 7     -3058.804 7        47.273               
G23  21742497.444 8 114258731.815 8       795.882 8        48.302               
> 2025 01 06 18 49 05.0000000  0  5                                             
G27  20974703.016 8 110223921.613 8      1399.104 8        49.908               
G16  20573257.207 7 108114337.211 7     -1090.854 7        47.112               
G18  22250377.114 7 116927666.600 7     -2842.637 7        47.088               
G26  21874254.685 7 114951120.201 7     -3059.849 7        47.993               
G23  21742344.619 8 114257936.258 8       795.736 8        48.386               
> 2025 01 06 18 49 06.0000000  0  5                                             
G27  20974433.543 8 110222523.721 8      1397.976 8        49.057               
G16  20573462.701 7 108115428.766 7     -1092.408 7        47.184               
G18  22250915.731 7 116930510.035 7     -2843.651 7        47.980               
G26  21874834.740 7 114954179.987 7     -3059.673 7        47.446               
G23  21742194.394 8 114257141.573 8       794.385 8        48.435               
> 2025 01 06 18 49 07.0000000  0  5                                             
G27  20974166.570 8 110221125.871 8      1396.996 8        49.790               
G16  20573667.212 7 108116520.663 7     -1091.294 7        47.636               
G18  22251457.108 7 116933353.470 7     -2844.002 7        47.876               
G26  21875414.563 8 114957239.876 8     -3060.649 8        48.191               
G23  21742038.335 8 114256347.184 8       795.104 8        48.325               
> 2025 01 06 18 49 08.0000000  0  5                                             
G27  20973901.340 8 110219727.963 8      1396.413 8        49.803               
G16  20573877.887 7 108117612.766 7     -1092.046 7        47.836               
G18  22251997.611 8 116936196.786 8     -2844.095 8        48.005               
G26  21875999.541 8 114960299.747 8     -3059.861 8        48.098               
G23  21741887.047 8 114255553.014 8       792.922 8        49.422               
> 2025 01 06 18 49 09.0000000  0  5                                             
G27  20973631.661 8 110218330.541 8      1396.811 8        49.897               
G16  20574083.739 7 108118705.649 7     -1093.176 7        47.656               
G18  22252536.612 7 116939040.554 7     -2843.630 7        47.857               
G26  21876576.970 8 114963360.183 8     -3061.957 8        48.617               
G23  21741736.742 8 114254759.622 8       792.970 8        48.453               
> 2025 01 06 18 49 10.0000000  0  5                                             
G27  20973364.233 8 110216933.890 8      1396.127 8        49.803               
G16  20574291.198 7 108119799.565 7     -1094.144 7        47.972               
G18  22253079.178 7 116941885.018 7     -2844.062 7        47.952               
G26  21877157.901 7 114966421.431 7     -3060.509 7        47.867               
G23  21741584.480 8 114253967.247 8       793.213 8        48.106               
> 2025 01 06 18 49 11.0000000  0  5                                             
G27  20973097.547 8 110215537.839 8      1395.460 8        49.932               
G16  20574497.692 7 108120894.365 7     -1094.403 7        47.224               
G18  22253616.035 7 116944730.036 7     -2844.572 7        47.043               
G26  21877740.556 7 114969483.335 7     -3061.687 7        47.750               
G23  21741432.298 8 114253175.758 8       790.144 8        48.596               
> 2025 01 06 18 49 12.0000000  0  5                                             
G27  20972831.451 8 110214142.280 8      1394.598 8        49.531               
G16  20574703.293 7 108121989.947 7     -1094.918 7        47.295               
G18  22254155.804 7 116947575.506 7     -2846.076 7        47.009               
G26  21878323.318 7 114972545.784 7     -3060.848 7        47.829               
G23  21741282.047 8 114252385.030 8       791.575 8        48.540               
> 2025 01 06 18 49 13.0000000  0  5                                             
G27  20972565.426 8 110212746.639 8      1396.067 8        49.745               
G16  20574909.975 7 108123085.714 7     -1096.589 7        46.714               
G18  22254698.165 7 116950420.821 7     -2845.147 7        46.798               
G26  21878904.571 7 114975608.203 7     -3061.886 7        47.728               
G23  21741130.884 8 114251594.498 8       789.663 8        48.919               
> 2025 01 06 18 49 14.0000000  0  5                                             
G27  20972298.811 8 110211351.158 8      1394.654 8        49.692               
G16  20575120.312 7 108124181.915 7     -1095.575 7        47.061               
G18  22255238.283 7 116953266.244 7     -2845.345 7        47.307               
G26  21879486.940 8 114978670.831 8     -3062.889 8        48.455               
G23  21740980.650 8 114250804.385 8       789.599 8        48.742               
> 2025 01 06 18 49 15.0000000  0  5                                             
G27  20972030.579 8 110209955.912 8      1395.350 8        49.663               
G16  20575325.457 7 108125278.643 7     -1096.946 7        47.159               
G18  22255776.721 7 116956111.854 7     -2846.555 7        47.029               
G26  21880066.683 8 114981733.766 8     -3063.903 8        48.575               
G23  21740827.316 8 114250014.783 8       789.090 8        48.280               
> 2025 01 06 18 49 16.0000000  0  5                                             
G27  20971765.760 8 110208560.922 8      1393.882 8        48.825               
G16  20575532.461 7 108126375.887 7     -1095.938 7        47.446               
G18  22256318.608 7 116958957.665 7     -2845.131 7        47.421               
G26  21880649.070 8 114984796.991 8     -3062.940 8        48.281               
G23  21740675.938 8 114249225.710 8       787.955 8        49.553               
> 2025 01 06 18 49 17.0000000  0  5                                             
G27  20971499.038 8 110207166.420 8      1393.430 8        49.194               
G16  20575742.172 7 108127473.905 7     -1100.472 7        47.893               
G18  22256859.155 7 116961803.898 7     -2845.654 7        47.568               
G26  21881234.629 7 114987860.758 7     -3063.603 7        47.929               
G23  21740528.742 8 114248437.394 8       789.544 8        48.711               
> 2025 01 06 18 49 18.0000000  0  5                                             
G27  20971228.260 8 110205772.649 8      1394.475 8        49.389               
G16  20575949.738 8 108128572.940 8     -1099.854 8        48.048               
G18  22257400.229 7 116964650.830 7     -2847.150 7        47.571               
G26  21881810.869 8 114990925.324 8     -3064.829 8        48.549               
G23  21740376.346 8 114247650.103 8       786.269 8        48.581               
> 2025 01 06 18 49 19.0000000  0  5                                             
G27  20970963.727 8 110204379.384 8      1392.045 8        49.456               
G16  20576156.590 7 108129672.737 7     -1098.614 7        47.224               
G18  22257940.276 8 116967498.194 8     -2847.256 8        48.173               
G26  21882396.205 8 114993990.438 8     -3064.628 8        48.356               
G23  21740222.673 8 114246863.563 8       785.786 8        48.338               
> 2025 01 06 18 49 20.0000000  0  5                                             
G27  20970696.906 8 110202986.171 8      1392.502 8        49.207               
G16  20576364.487 7 108130772.879 7     -1101.384 7        47.572               
G18  22258478.625 8 116970345.568 8     -2845.880 8        48.354               
G26  21882977.761 8 114997055.659 8     -3063.795 8        48.629               
G23  21740072.600 8 114246077.365 8       784.940 8        48.711               
> 2025 01 06 18 49 21.0000000  0  5                                             
G27  20970430.006 8 110201593.231 8      1391.784 8        49.335               
G16  20576570.463 7 108131873.568 7     -1103.133 7        47.230               
G18  22259020.825 7 116973193.148 7     -2848.516 7        47.892               
G26  21883559.228 7 115000121.206 7     -3066.970 7        47.847               
G23  21739924.555 8 114245291.693 8       786.408 8        48.996               
> 2025 01 06 18 49 22.0000000  0  5                                             
G27  20970165.991 8 110200200.675 8      1392.579 8        49.027               
G16  20576781.345 7 108132974.912 7     -1103.042 7        47.583               
G18  22259564.034 7 116976041.061 7     -2846.436 7        47.964               
G26  21884139.980 8 115003187.176 8     -3065.897 8        48.522               
G23  21739769.309 8 114244506.684 8       783.952 8        48.680               
> 2025 01 06 18 49 23.0000000  0  5                                             
G27  20969899.305 8 110198808.139 8      1392.165 8        49.868               
G16  20576988.965 7 108134076.572 7     -1103.098 7        47.589               
G18  22260104.250 8 116978888.955 8     -2848.606 8        48.051               
G26  21884724.145 8 115006253.256 8     -3067.282 8        48.963               
G23  21739622.148 8 114243721.991 8       784.258 8        48.532               
> 2025 01 06 18 49 24.0000000  0  5                                             
G27  20969632.994 8 110197416.479 8      1390.968 8        49.588               
G16  20577197.443 7 108135179.376 7     -1101.757 7        47.590               
G18  22260645.851 7 116981737.642 7     -2849.413 7        47.916               
G26  21885305.291 8 115009320.235 8     -3066.186 8        48.500               
G23  21739474.050 8 114242938.427 8       783.133 8        48.891               
> 2025 01 06 18 49 25.0000000  0  5                                             
G27  20969368.497 8 110196025.119 8      1391.922 8        49.415               
G16  20577408.252 7 108136282.748 7     -1104.145 7        46.577               
G18  22261186.979 7 116984586.589 7     -2849.177 7        47.781               
G26  21885889.411 8 115012387.580 8     -3066.163 8        48.710               
G23  21739323.655 8 114242155.431 8       783.958 8        48.868               
> 2025 01 06 18 49 26.0000000  0  5                                             
G27  20969101.864 8 110194633.914 8      1391.449 8        50.122               
G16  20577616.176 7 108137386.562 7     -1103.516 7        47.532               
G18  22261727.445 7 116987435.630 7     -2847.566 7        47.211               
G26  21886472.236 8 115015455.115 8     -3068.527 8        48.085               
G23  21739173.002 8 114241372.861 8       781.584 8        48.904               
> 2025 01 06 18 49 27.0000000  0  5                                             
G27  20968838.760 8 110193243.270 8      1389.875 8        49.998               
G16  20577824.672 7 108138491.210 7     -1104.570 7        47.496               
G18  22262270.699 7 116990285.183 7     -2849.957 7        47.952               
G26  21887054.471 7 115018523.277 7     -3066.759 7        47.428               
G23  21739021.633 8 114240591.137 8       782.085 8        48.603               
> 2025 01 06 18 49 28.0000000  0  5                                             
G27  20968572.155 8 110191852.815 8      1389.666 8        49.511               
G16  20578034.526 7 108139596.330 7     -1106.304 7        46.512               
G18  22262810.648 7 116993134.855 7     -2849.178 7        47.201               
G26  21887639.325 8 115021591.674 8     -3069.377 8        48.115               
G23  21738870.166 8 114239809.862 8       781.429 8        48.808               
> 2025 01 06 18 49 29.0000000  0  5                                             
G27  20968306.978 8 110190463.368 8      1388.710 8        50.184               
G16  20578244.549 7 108140702.726 7     -1107.071 7        47.237               
G18  22263351.597 7 116995985.484 7     -2850.990 7        47.845               
G26  21888221.453 8 115024661.123 8     -3070.444 8        48.658               
G23  21738718.717 8 114239029.866 8       779.489 8        48.325               
> 2025 01 06 18 49 30.0000000  0  5                                             
G27  20968043.705 8 110189074.321 8      1389.013 8        49.924               
G16  20578453.572 7 108141809.812 7     -1105.884 7        47.936               
G18  22263891.563 7 116998836.460 7     -2849.882 7        47.429               
G26  21888803.045 8 115027731.043 8     -3070.354 8        48.767               
G23  21738570.816 8 114238250.545 8       780.565 8        48.673               
> 2025 01 06 18 49 31.0000000  0  5                                             
G27  20967777.385 8 110187684.347 8      1388.027 8        50.097               
G16  20578664.641 7 108142916.237 7     -1107.533 7        47.259               
G18  22264432.351 7 117001686.450 7     -2851.084 7        47.659               
G26  21889388.916 8 115030800.068 8     -3069.627 8        48.241               
G23  21738419.599 8 114237470.582 8       778.406 8        48.659               
> 2025 01 06 18 49 32.0000000  0  5                                             
G27  20967508.706 8 110186295.326 8      1388.343 8        50.043               
G16  20578870.099 7 108144023.896 7     -1107.254 7        47.179               
G18  22264974.095 7 117004537.343 7     -2851.470 7        47.808               
G26  21889974.306 7 115033870.115 7     -3070.977 7        47.994               
G23  21738274.940 8 114236691.830 8       778.020 8        48.060               
> 2025 01 06 18 49 33.0000000  0  5                                             
G27  20967242.967 8 110184906.411 8      1388.773 8        50.362               
G16  20579082.428 7 108145131.947 7     -1108.102 7        47.027               
G18  22265516.983 7 117007388.288 7     -2849.536 7        47.452               
G26  21890555.004 8 115036940.313 8     -3070.660 8        48.259               
G23  21738126.350 8 114235913.471 8       777.946 8        48.479               
> 2025 01 06 18 49 34.0000000  0  5                                             
G27  20966981.651 8 110183518.357 8      1387.667 8        50.018               
G16  20579292.362 7 108146241.131 7     -1111.616 7        46.895               
G18  22266055.805 8 117010240.030 8     -2851.599 8        48.090               
G26  21891137.507 8 115040011.427 8     -3070.617 8        48.142               
G23  21737975.813 8 114235136.232 8       776.201 8        48.215               
