     3.02           OBSERVATION DATA    G                   RINEX VERSION / TYPE
G = GPS  R = GLONASS  E = GALILEO  S = GEO  M = MIXED       COMMENT             
GNSS-SDR            jmfriedt            20250106 185845 UTC PGM / RUN BY / DATE 
GPS OBSERVATION DATA FILE GENERATED BY GNSS-SDR             COMMENT             
GNSS-SDR VERSION 0.0.19                                     COMMENT             
See https://gnss-sdr.org                                    COMMENT             
DEFAULT MARKER NAME                                         MARKER NAME         
jmfriedt            CTTC                                    OBSERVER / AGENCY   
GNSS-SDR            Software Receiver   0.0.19              REC # / TYPE / VERS 
Antenna number      Antenna type                            ANT # / TYPE        
        0.0000        0.0000        0.0000                  APPROX POSITION XYZ 
        0.0000        0.0000        0.0000                  ANTENNA: DELTA H/E/N
G    4 C1C L1C D1C S1C                                      SYS / # / OBS TYPES 
DBHZ                                                        SIGNAL STRENGTH UNIT
  2025    01    06    18    45   18.1000000     GPS         TIME OF FIRST OBS   
                                                            END OF HEADER       
> 2025 01 06 18 45 19.0000000  0  5                                             
G26  21744913.979 8 114270309.996 8     -2964.636 8        48.546               
G16  20529633.034 7 107883956.370 7      -949.374 7        46.657               
G18  22129819.381 7 116292970.055 7     -2775.933 7        47.182               
G27  21036759.587 8 110548940.512 8      1475.335 8        49.110               
G23  21779792.069 8 114453579.700 8       933.989 8        48.204               
> 2025 01 06 18 45 20.0000000  0  5                                             
G26  21745476.469 8 114273276.129 8     -2966.695 8        48.545               
G16  20529810.929 7 107884905.327 7      -949.021 7        47.036               
G18  22130343.176 7 116295744.233 7     -2774.409 7        47.045               
G27  21036474.612 8 110547464.232 8      1475.627 8        49.588               
G23  21779613.058 8 114452645.403 8       933.645 8        48.081               
> 2025 01 06 18 45 21.0000000  0  5                                             
G26  21746038.361 8 114276242.856 8     -2965.352 8        48.557               
G16  20529989.646 7 107885855.096 7      -950.831 7        47.507               
G18  22130872.992 7 116298518.904 7     -2775.755 7        47.680               
G27  21036198.419 8 110545988.453 8      1475.324 8        49.083               
G23  21779432.080 8 114451711.896 8       931.587 8        48.272               
> 2025 01 06 18 45 22.0000000  0  5                                             
G26  21746602.504 8 114279210.016 8     -2967.225 8        48.879               
G16  20530168.712 7 107886805.485 7      -948.947 7        47.449               
G18  22131399.977 7 116301293.886 7     -2775.388 7        47.466               
G27  21035913.730 8 110544513.032 8      1476.496 8        49.359               
G23  21779252.309 8 114450778.990 8       932.628 8        48.012               
> 2025 01 06 18 45 23.0000000  0  5                                             
G26  21747168.049 8 114282177.459 8     -2967.777 8        48.562               
G16  20530351.932 7 107887756.392 7      -950.378 7        47.776               
G18  22131927.247 7 116304069.057 7     -2776.241 7        47.599               
G27  21035628.665 8 110543037.814 8      1474.960 8        49.086               
G23  21779076.567 7 114449846.581 7       931.862 7        47.876               
> 2025 01 06 18 45 24.0000000  0  5                                             
G26  21747730.369 8 114285145.669 8     -2968.972 8        48.555               
G16  20530528.763 7 107888708.247 7      -951.530 7        47.087               
G18  22132454.562 8 116306844.879 8     -2777.592 8        48.262               
G27  21035349.006 8 110541563.279 8      1474.416 8        48.749               
G23  21778896.679 7 114448915.118 7       930.901 7        47.819               
> 2025 01 06 18 45 25.0000000  0  5                                             
G26  21748295.522 8 114288114.589 8     -2967.392 8        48.900               
G16  20530709.884 7 107889661.041 7      -952.592 7        46.882               
G18  22132981.734 7 116309621.307 7     -2776.847 7        47.314               
G27  21035067.319 8 110540089.373 8      1473.969 8        48.631               
G23  21778715.488 7 114447984.550 7       929.730 7        47.946               
> 2025 01 06 18 45 26.0000000  0  5                                             
G26  21748859.459 8 114291083.801 8     -2969.528 8        48.280               
G16  20530893.613 7 107890614.336 7      -953.540 7        47.293               
G18  22133507.807 7 116312397.921 7     -2776.042 7        47.848               
G27  21034785.212 8 110538615.696 8      1473.327 8        48.824               
G23  21778540.166 7 114447054.474 7       929.419 7        47.534               
> 2025 01 06 18 45 27.0000000  0  5                                             
G26  21749424.121 8 114294053.302 8     -2968.969 8        49.021               
G16  20531073.116 7 107891568.130 7      -953.973 7        46.720               
G18  22134036.301 7 116315174.708 7     -2775.688 7        47.403               
G27  21034503.658 8 110537142.211 8      1472.122 8        49.279               
G23  21778364.835 7 114446124.868 7       929.425 7        47.112               
> 2025 01 06 18 45 28.0000000  0  5                                             
G26  21749989.094 8 114297023.414 8     -2970.106 8        49.110               
G16  20531249.144 7 107892522.738 7      -954.687 7        46.314               
G18  22134561.713 7 116317952.005 7     -2776.140 7        46.608               
G27  21034225.071 8 110535669.260 8      1472.747 8        48.756               
G23  21778184.894 7 114445196.062 7       927.862 7        47.055               
> 2025 01 06 18 45 29.0000000  0  5                                             
G26  21750554.390 8 114299993.229 8     -2969.963 8        49.023               
G16  20531432.918 7 107893477.253 7      -953.790 7        46.853               
G18  22135089.278 7 116320728.891 7     -2777.521 7        47.724               
G27  21033942.098 8 110534195.932 8      1473.926 8        48.344               
G23  21778006.856 7 114444267.149 7       929.267 7        47.626               
> 2025 01 06 18 45 30.0000000  0  5                                             
G26  21751116.344 8 114302963.245 8     -2970.551 8        49.245               
G16  20531611.573 7 107894432.191 7      -954.062 7        47.423               
G18  22135619.041 7 116323505.872 7     -2777.305 7        47.662               
G27  21033661.170 8 110532722.733 8      1472.974 8        48.823               
G23  21777830.399 7 114443338.635 7       927.714 7        47.527               
> 2025 01 06 18 45 31.0000000  0  5                                             
G26  21751681.711 8 114305934.155 8     -2971.251 8        49.216               
G16  20531790.826 7 107895388.224 7      -956.076 7        46.818               
G18  22136145.042 7 116326283.635 7     -2778.395 7        47.802               
G27  21033374.104 8 110531250.343 8      1472.077 8        48.427               
G23  21777652.048 7 114442411.194 7       927.567 7        47.573               
> 2025 01 06 18 45 32.0000000  0  5                                             
G26  21752247.927 8 114308905.391 8     -2970.926 8        48.950               
G16  20531973.992 7 107896344.797 7      -957.040 7        46.780               
G18  22136670.204 7 116329061.623 7     -2777.711 7        47.436               
G27  21033096.911 8 110529778.197 8      1473.084 8        48.619               
G23  21777475.342 7 114441484.270 7       926.630 7        47.704               
> 2025 01 06 18 45 33.0000000  0  5                                             
G26  21752810.667 8 114311876.971 8     -2972.264 8        49.059               
G16  20532154.559 7 107897301.934 7      -957.753 7        46.572               
G18  22137197.849 7 116331839.847 7     -2778.952 7        47.398               
G27  21032816.644 8 110528306.325 8      1472.696 8        48.874               
G23  21777293.962 8 114440557.889 8       926.969 8        48.263               
> 2025 01 06 18 45 34.0000000  0  5                                             
G26  21753376.007 8 114314849.011 8     -2973.159 8        49.213               
G16  20532335.170 7 107898259.731 7      -958.519 7        46.998               
G18  22137727.657 7 116334618.419 7     -2779.240 7        47.693               
G27  21032533.849 8 110526834.834 8      1473.137 8        48.424               
G23  21777116.478 7 114439632.157 7       926.824 7        47.415               
> 2025 01 06 18 45 35.0000000  0  5                                             
G26  21753939.632 8 114317821.420 8     -2972.285 8        48.379               
G16  20532515.486 7 107899218.107 7      -957.425 7        47.114               
G18  22138255.713 7 116337397.253 7     -2778.633 7        47.228               
G27  21032251.366 8 110525363.637 8      1471.097 8        48.156               
G23  21776943.417 7 114438706.985 7       924.426 7        47.586               
> 2025 01 06 18 45 36.0000000  0  5                                             
G26  21754504.221 8 114320794.167 8     -2972.938 8        49.165               
G16  20532698.009 7 107900177.035 7      -957.984 7        46.905               
G18  22138782.045 7 116340176.323 7     -2778.636 7        47.509               
G27  21031970.456 8 110523892.701 8      1470.325 8        48.891               
G23  21776766.165 7 114437782.348 7       924.596 7        47.809               
> 2025 01 06 18 45 37.0000000  0  5                                             
G26  21755069.106 8 114323767.346 8     -2975.410 8        49.130               
G16  20532876.905 7 107901136.593 7      -960.647 7        46.404               
G18  22139309.610 7 116342955.709 7     -2779.603 7        47.188               
G27  21031689.448 8 110522422.103 8      1469.176 8        48.832               
G23  21776586.992 7 114436858.318 7       924.291 7        47.923               
> 2025 01 06 18 45 38.0000000  0  5                                             
G26  21755633.043 8 114326741.239 8     -2973.856 8        48.966               
G16  20533061.965 7 107902097.083 7      -962.050 7        46.621               
G18  22139837.917 7 116345735.711 7     -2780.020 7        47.784               
G27  21031410.799 8 110520952.143 8      1470.312 8        49.297               
G23  21776412.858 7 114435935.205 7       921.946 7        47.143               
> 2025 01 06 18 45 39.0000000  0  5                                             
G26  21756201.912 8 114329715.340 8     -2974.236 8        49.389               
G16  20533237.278 7 107903057.984 7      -959.139 7        45.935               
G18  22140366.232 7 116348515.803 7     -2780.352 7        47.462               
G27  21031126.735 8 110519482.322 8      1469.448 8        48.512               
G23  21776237.063 7 114435012.487 7       920.241 7        47.235               
> 2025 01 06 18 45 40.0000000  0  5                                             
G26  21756766.672 8 114332689.554 8     -2974.072 8        49.146               
G16  20533415.924 7 107904019.204 7      -961.623 7        45.731               
G18  22140890.429 7 116351295.906 7     -2780.453 7        47.763               
G27  21030845.878 8 110518012.526 8      1469.399 8        48.365               
G23  21776061.759 8 114434090.068 8       921.886 8        48.439               
> 2025 01 06 18 45 41.0000000  0  5                                             
G26  21757328.438 8 114335663.874 8     -2974.220 8        49.087               
G16  20533602.494 7 107904980.761 7      -962.279 7        46.627               
G18  22141419.808 7 116354076.017 7     -2780.429 7        47.781               
G27  21030564.271 8 110516542.773 8      1468.827 8        48.883               
G23  21775883.828 8 114433167.956 8       920.697 8        48.535               
> 2025 01 06 18 45 42.0000000  0  5                                             
G26  21757890.991 8 114338639.004 8     -2974.992 8        48.667               
G16  20533784.437 7 107905943.323 7      -961.767 7        46.567               
G18  22141950.089 7 116356856.814 7     -2780.609 7        47.493               
G27  21030284.192 8 110515073.732 8      1468.750 8        48.819               
G23  21775707.416 8 114432246.842 8       920.011 8        48.450               
> 2025 01 06 18 45 43.0000000  0  5                                             
G26  21758458.645 8 114341614.832 8     -2975.687 8        48.327               
G16  20533970.033 7 107906906.792 7      -964.602 7        45.952               
G18  22142481.004 7 116359638.200 7     -2781.307 7        47.309               
G27  21030003.961 8 110513605.328 8      1467.540 8        48.867               
G23  21775529.879 7 114431326.612 7       920.717 7        47.827               
> 2025 01 06 18 45 44.0000000  0  5                                             
G26  21759020.822 8 114344591.060 8     -2976.977 8        49.136               
G16  20534151.038 7 107907870.872 7      -963.301 7        45.007               
G18  22143006.148 7 116362419.878 7     -2783.145 7        47.612               
G27  21029723.587 8 110512137.233 8      1467.437 8        49.384               
G23  21775352.001 7 114430406.979 7       919.875 7        47.803               
> 2025 01 06 18 45 45.0000000  0  5                                             
G26  21759586.529 8 114347567.811 8     -2977.461 8        48.678               
G16  20534328.656 7 107908835.697 7      -964.841 7        45.817               
G18  22143533.838 7 116365201.972 7     -2783.341 7        47.639               
G27  21029446.832 8 110510669.587 8      1467.234 8        48.841               
G23  21775176.787 7 114429488.057 7       916.468 7        47.987               
> 2025 01 06 18 45 46.0000000  0  5                                             
G26  21760154.147 8 114350545.255 8     -2978.873 8        49.144               
G16  20534515.548 7 107909801.417 7      -966.863 7        45.885               
G18  22144062.413 7 116367984.653 7     -2785.833 7        47.570               
G27  21029163.563 8 110509202.562 8      1468.410 8        48.477               
G23  21774998.829 8 114428570.027 8       916.714 8        48.093               
> 2025 01 06 18 45 47.0000000  0  5                                             
G26  21760716.173 8 114353522.969 8     -2976.884 8        48.879               
G16  20534696.534 7 107910767.635 7      -965.510 7        46.047               
G18  22144589.040 7 116370767.502 7     -2783.263 7        47.201               
G27  21028887.094 8 110507735.733 8      1467.318 8        48.840               
G23  21774823.936 7 114427652.462 7       917.760 7        47.940               
> 2025 01 06 18 45 48.0000000  0  5                                             
G26  21761282.317 8 114356501.145 8     -2978.484 8        48.339               
G16  20534883.882 7 107911734.506 7      -965.693 7        46.086               
G18  22145116.274 7 116373550.704 7     -2784.477 7        47.286               
G27  21028604.620 8 110506269.278 8      1466.424 8        48.481               
G23  21774649.070 7 114426735.544 7       916.521 7        47.603               
> 2025 01 06 18 45 49.0000000  0  5                                             
G26  21761848.702 8 114359479.317 8     -2979.962 8        48.308               
G16  20535065.083 7 107912701.580 7      -966.722 7        46.297               
G18  22145643.545 7 116376333.787 7     -2783.141 7        47.972               
G27  21028325.569 8 110504802.749 8      1467.171 8        48.716               
G23  21774474.266 7 114425818.816 7       916.423 7        47.693               
> 2025 01 06 18 45 50.0000000  0  5                                             
G26  21762415.785 8 114362458.279 8     -2979.454 8        48.548               
G16  20535252.091 7 107913669.675 7      -969.885 7        46.146               
G18  22146177.766 7 116379117.561 7     -2785.352 7        46.932               
G27  21028044.346 7 110503336.932 7      1465.245 7        47.977               
G23  21774296.559 8 114424903.081 8       916.321 8        48.351               
> 2025 01 06 18 45 51.0000000  0  5                                             
G26  21762982.099 8 114365437.865 8     -2980.719 8        48.483               
G16  20535433.006 7 107914638.585 7      -970.065 7        46.998               
G18  22146705.295 7 116381901.844 7     -2784.030 7        47.707               
G27  21027766.009 8 110501871.655 8      1465.249 8        49.167               
G23  21774120.906 8 114423988.146 8       914.943 8        48.159               
> 2025 01 06 18 45 52.0000000  0  5                                             
G26  21763546.063 8 114368417.633 8     -2978.328 8        48.388               
G16  20535611.330 7 107915607.902 7      -969.490 7        45.443               
G18  22147236.309 7 116384686.210 7     -2784.594 7        47.399               
G27  21027486.511 8 110500406.494 8      1465.348 8        49.090               
G23  21773945.066 7 114423073.600 7       914.930 7        47.515               
> 2025 01 06 18 45 53.0000000  0  5                                             
G26  21764112.788 8 114371397.517 8     -2980.770 8        48.670               
G16  20535799.330 7 107916577.532 7      -970.167 7        45.599               
G18  22147761.042 7 116387470.575 7     -2783.505 7        47.358               
G27  21027207.870 8 110498941.359 8      1466.054 8        48.946               
G23  21773770.361 7 114422159.354 7       911.985 7        47.750               
> 2025 01 06 18 45 54.0000000  0  5                                             
G26  21764679.254 8 114374377.463 8     -2979.954 8        48.042               
G16  20535980.754 7 107917547.435 7      -971.837 7        46.831               
G18  22148290.554 7 116390254.887 7     -2784.230 7        46.727               
G27  21026930.052 8 110497476.217 8      1465.781 8        48.656               
G23  21773594.288 7 114421245.363 7       913.378 7        47.392               
> 2025 01 06 18 45 55.0000000  0  5                                             
G26  21765244.514 8 114377357.569 8     -2979.943 8        48.186               
G16  20536163.367 7 107918517.724 7      -971.486 7        46.624               
G18  22148816.592 7 116393039.260 7     -2784.493 7        47.379               
G27  21026648.945 8 110496011.152 8      1464.869 8        48.621               
G23  21773419.020 7 114420331.725 7       912.203 7        47.516               
> 2025 01 06 18 45 56.0000000  0  5                                             
G26  21765809.139 8 114380338.524 8     -2981.409 8        48.154               
G16  20536350.098 7 107919489.065 7      -970.213 7        46.524               
G18  22149345.979 7 116395824.372 7     -2785.448 7        47.528               
G27  21026370.260 8 110494546.863 8      1464.803 8        49.249               
G23  21773247.379 7 114419419.131 7       912.737 7        47.436               
> 2025 01 06 18 45 57.0000000  0  5                                             
G26  21766373.202 8 114383320.338 8     -2981.876 8        48.729               
G16  20536533.148 7 107920461.489 7      -971.962 7        46.265               
G18  22149873.911 7 116398610.246 7     -2785.730 7        47.565               
G27  21026087.777 8 110493083.367 8      1463.489 8        49.712               
G23  21773069.073 7 114418507.594 7       912.722 7        47.758               
> 2025 01 06 18 45 58.0000000  0  5                                             
G26  21766937.773 7 114386302.653 7     -2981.912 7        47.895               
G16  20536716.913 7 107921434.626 7      -972.498 7        46.310               
G18  22150404.496 7 116401396.509 7     -2784.906 7        47.170               
G27  21025810.656 8 110491620.285 8      1462.889 8        49.467               
G23  21772895.502 7 114417596.749 7       910.849 7        47.911               
> 2025 01 06 18 45 59.0000000  0  5                                             
G26  21767509.278 8 114389285.328 8     -2983.110 8        48.485               
G16  20536901.777 7 107922408.332 7      -973.226 7        46.515               
G18  22150929.336 7 116404183.023 7     -2785.749 7        46.527               
G27  21025531.881 8 110490157.498 8      1464.580 8        49.346               
G23  21772721.127 7 114416686.468 7       909.250 7        47.419               
> 2025 01 06 18 46 00.0000000  0  5                                             
G26  21768073.537 8 114392268.648 8     -2983.839 8        48.106               
G16  20537086.731 7 107923382.887 7      -975.576 7        46.596               
G18  22151460.966 7 116406970.070 7     -2787.288 7        46.527               
G27  21025249.961 8 110488695.271 8      1461.960 8        49.891               
G23  21772547.833 7 114415777.008 7       909.211 7        47.302               
> 2025 01 06 18 46 01.0000000  0  5                                             
G26  21768639.163 8 114395252.681 8     -2985.024 8        48.207               
G16  20537272.247 7 107924358.361 7      -977.502 7        46.602               
G18  22151985.457 7 116409757.721 7     -2787.670 7        46.936               
G27  21024973.554 8 110487233.685 8      1461.411 8        49.390               
G23  21772374.406 7 114414868.465 7       908.239 7        46.830               
> 2025 01 06 18 46 02.0000000  0  5                                             
G26  21769208.846 8 114398236.875 8     -2984.076 8        48.061               
G16  20537458.156 7 107925334.217 7      -975.723 7        46.110               
G18  22152520.617 7 116412545.432 7     -2788.770 7        46.230               
G27  21024693.431 8 110485772.186 8      1461.628 8        49.275               
G23  21772195.546 7 114413960.271 7       909.764 7        47.300               
> 2025 01 06 18 46 03.0000000  0  5                                             
G26  21769776.205 7 114401221.382 7     -2984.451 7        47.818               
G16  20537640.483 7 107926310.604 7      -978.012 7        46.623               
G18  22153045.350 7 116415333.353 7     -2788.449 7        46.787               
G27  21024413.164 8 110484310.928 8      1461.627 8        49.711               
G23  21772026.978 7 114413052.592 7       906.145 7        47.608               
> 2025 01 06 18 46 04.0000000  0  5                                             
G26  21770342.573 7 114404206.180 7     -2984.849 7        47.755               
G16  20537826.553 7 107927287.501 7      -977.997 7        46.737               
G18  22153578.222 7 116418121.457 7     -2788.460 7        46.771               
G27  21024134.336 8 110482849.889 8      1462.622 8        49.268               
G23  21771852.639 7 114412145.401 7       907.262 7        47.695               
> 2025 01 06 18 46 05.0000000  0  5                                             
G26  21770911.165 7 114407191.005 7     -2984.545 7        47.748               
G16  20538011.587 7 107928264.619 7      -976.467 7        47.016               
G18  22154106.841 7 116420909.461 7     -2787.752 7        46.963               
G27  21023852.586 8 110481388.790 8      1463.696 8        49.431               
G23  21771677.147 7 114411238.426 7       906.266 7        47.966               
> 2025 01 06 18 46 06.0000000  0  5                                             
G26  21771478.122 8 114410175.849 8     -2985.763 8        48.094               
G16  20538193.824 7 107929241.968 7      -977.874 7        47.295               
G18  22154636.711 7 116423697.387 7     -2788.835 7        47.271               
G27  21023576.912 8 110479927.640 8      1460.088 8        49.413               
G23  21771503.845 8 114410331.653 8       906.975 8        48.064               
> 2025 01 06 18 46 07.0000000  0  5                                             
G26  21772044.025 8 114413161.511 8     -2986.375 8        48.603               
G16  20538382.208 7 107930220.364 7      -978.817 7        46.709               
G18  22155165.581 7 116426486.034 7     -2788.182 7        47.336               
G27  21023294.912 8 110478467.235 8      1460.208 8        49.886               
G23  21771330.247 7 114409425.913 7       904.727 7        47.795               
> 2025 01 06 18 46 08.0000000  0  5                                             
G26  21772613.243 7 114416148.116 7     -2985.757 7        47.945               
G16  20538565.866 7 107931199.898 7      -980.945 7        47.534               
G18  22155696.049 7 116429275.512 7     -2790.064 7        47.511               
G27  21023017.075 8 110477007.697 8      1458.005 8        49.585               
G23  21771157.632 8 114408521.296 8       903.583 8        48.204               
> 2025 01 06 18 46 09.0000000  0  5                                             
G26  21773181.621 8 114419135.930 8     -2988.557 8        48.459               
G16  20538749.988 7 107932180.863 7      -982.341 7        47.477               
G18  22156225.669 7 116432066.078 7     -2789.841 7        47.438               
G27  21022739.221 8 110475549.287 8      1457.410 8        49.536               
G23  21770987.680 8 114407618.093 8       902.597 8        48.124               
> 2025 01 06 18 46 10.0000000  0  5                                             
G26  21773744.129 8 114422123.630 8     -2987.829 8        48.094               
G16  20538937.470 7 107933161.930 7      -981.480 7        47.518               
G18  22156757.335 7 116434856.436 7     -2789.876 7        47.153               
G27  21022459.642 8 110474090.703 8      1458.658 8        49.006               
G23  21770810.017 8 114406714.971 8       901.472 8        48.120               
> 2025 01 06 18 46 11.0000000  0  5                                             
G26  21774315.482 8 114425111.362 8     -2987.619 8        48.248               
G16  20539124.800 7 107934143.231 7      -982.676 7        47.478               
G18  22157285.660 7 116437646.701 7     -2788.672 7        46.800               
G27  21022178.232 8 110472632.063 8      1459.717 8        49.242               
G23  21770637.340 7 114405812.068 7       900.630 7        47.891               
> 2025 01 06 18 46 12.0000000  0  5                                             
G26  21774880.009 8 114428099.610 8     -2988.196 8        48.482               
G16  20539310.003 7 107935125.248 7      -981.590 7        47.456               
G18  22157817.844 7 116440437.383 7     -2791.286 7        46.880               
G27  21021901.039 8 110471173.855 8      1458.373 8        49.276               
G23  21770466.137 7 114404909.880 7       900.630 7        46.804               
> 2025 01 06 18 46 13.0000000  0  5                                             
G26  21775449.531 8 114431088.047 8     -2988.719 8        48.301               
G16  20539496.761 8 107936107.686 8      -984.311 8        48.228               
G18  22158345.105 7 116443228.148 7     -2788.193 7        47.413               
G27  21021624.194 8 110469715.779 8      1458.264 8        49.113               
G23  21770294.648 7 114404008.076 7       901.950 7        47.759               
> 2025 01 06 18 46 14.0000000  0  5                                             
G26  21776020.767 7 114434076.811 7     -2990.058 7        47.781               
G16  20539682.072 7 107937090.671 7      -983.534 7        47.822               
G18  22158874.591 7 116446019.131 7     -2791.801 7        47.473               
G27  21021343.427 8 110468257.954 8      1458.366 8        49.436               
G23  21770128.368 8 114403106.805 8       900.865 8        48.319               
> 2025 01 06 18 46 15.0000000  0  5                                             
G26  21776584.767 8 114437066.313 8     -2989.824 8        48.460               
G16  20539867.151 7 107938074.598 7      -985.491 7        47.003               
G18  22159409.536 7 116448810.748 7     -2791.029 7        47.581               
G27  21021066.787 8 110466800.784 8      1458.452 8        49.025               
G23  21769951.724 8 114402206.459 8       901.039 8        48.024               
> 2025 01 06 18 46 16.0000000  0  5                                             
G26  21777152.046 8 114440056.165 8     -2990.951 8        48.447               
G16  20540053.364 7 107939059.090 7      -986.058 7        46.783               
G18  22159937.628 7 116451602.600 7     -2791.720 7        47.295               
G27  21020788.737 8 110465343.894 8      1457.013 8        48.961               
G23  21769780.663 7 114401306.664 7       900.448 7        47.462               
> 2025 01 06 18 46 17.0000000  0  5                                             
G26  21777721.523 7 114443046.449 7     -2990.042 7        47.847               
G16  20540239.988 7 107940044.219 7      -985.578 7        47.417               
G18  22160472.394 7 116454394.778 7     -2792.155 7        46.912               
G27  21020508.461 8 110463887.359 8      1455.270 8        48.418               
G23  21769607.084 7 114400407.490 7       897.933 7        47.563               
> 2025 01 06 18 46 18.0000000  0  5                                             
G26  21778285.246 8 114446037.220 8     -2991.577 8        49.114               
G16  20540427.836 7 107941030.056 7      -987.369 7        47.371               
G18  22161001.192 7 116457187.336 7     -2793.609 7        47.028               
G27  21020232.733 8 110462431.242 8      1456.617 8        48.749               
G23  21769432.736 8 114399508.997 8       898.292 8        48.033               
> 2025 01 06 18 46 19.0000000  0  5                                             
G26  21778855.125 8 114449028.377 8     -2990.137 8        48.133               
G16  20540612.968 7 107942016.498 7      -983.891 7        47.323               
G18  22161530.160 7 116459980.180 7     -2792.935 7        47.393               
G27  21019954.316 8 110460975.446 8      1456.554 8        49.422               
G23  21769262.238 8 114398611.104 8       899.498 8        48.472               
> 2025 01 06 18 46 20.0000000  0  5                                             
G26  21779422.806 8 114452019.685 8     -2991.420 8        48.710               
G16  20540802.147 7 107943003.277 7      -986.144 7        47.666               
G18  22162062.907 8 116462773.054 8     -2792.757 8        48.194               
G27  21019676.497 8 110459519.703 8      1454.538 8        49.912               
G23  21769088.409 8 114397713.535 8       896.697 8        48.784               
> 2025 01 06 18 46 21.0000000  0  5                                             
G26  21779991.756 8 114455011.367 8     -2992.138 8        48.227               
G16  20540983.411 7 107943990.672 7      -988.067 7        47.273               
G18  22162589.990 7 116465566.200 7     -2790.383 7        47.683               
G27  21019398.142 8 110458064.279 8      1455.455 8        49.290               
G23  21768919.314 8 114396816.554 8       897.465 8        48.342               
> 2025 01 06 18 46 22.0000000  0  5                                             
G26  21780560.598 8 114458003.626 8     -2992.927 8        48.360               
G16  20541171.437 7 107944978.849 7      -989.275 7        46.879               
G18  22163122.362 7 116468359.810 7     -2792.584 7        47.699               
G27  21019120.449 8 110456609.353 8      1453.717 8        48.916               
G23  21768746.583 8 114395920.341 8       896.769 8        48.131               
> 2025 01 06 18 46 23.0000000  0  5                                             
G26  21781129.896 8 114460996.308 8     -2992.453 8        48.469               
G16  20541359.804 7 107945967.659 7      -988.215 7        47.463               
G18  22163651.857 7 116471153.736 7     -2794.802 7        47.385               
G27  21018841.138 8 110455154.774 8      1454.989 8        49.533               
G23  21768577.515 8 114395024.746 8       894.781 8        48.947               
> 2025 01 06 18 46 24.0000000  0  5                                             
G26  21781702.286 8 114463989.282 8     -2992.178 8        48.515               
G16  20541545.749 7 107946956.990 7      -989.261 7        47.870               
G18  22164182.307 7 116473947.857 7     -2794.724 7        47.456               
G27  21018562.372 8 110453700.423 8      1455.465 8        49.888               
G23  21768404.892 8 114394129.649 8       895.726 8        48.625               
> 2025 01 06 18 46 25.0000000  0  5                                             
G26  21782266.840 8 114466983.244 8     -2994.403 8        48.231               
G16  20541737.108 7 107947947.494 7      -992.671 7        47.337               
G18  22164716.341 7 116476742.849 7     -2793.633 7        47.305               
G27  21018287.574 8 110452246.982 8      1453.935 8        50.447               
G23  21768234.135 8 114393235.726 8       892.248 8        48.681               
> 2025 01 06 18 46 26.0000000  0  5                                             
G26  21782835.218 8 114469977.136 8     -2994.918 8        49.012               
G16  20541926.600 7 107948938.170 7      -990.745 7        47.311               
G18  22165245.148 7 116479537.665 7     -2793.713 7        47.563               
G27  21018009.960 8 110450793.394 8      1454.224 8        50.429               
G23  21768065.273 8 114392341.932 8       894.017 8        48.438               
> 2025 01 06 18 46 27.0000000  0  5                                             
G26  21783406.455 8 114472971.544 8     -2993.746 8        48.440               
G16  20542110.928 7 107949929.562 7      -992.215 7        46.743               
G18  22165775.483 7 116482332.886 7     -2794.627 7        46.916               
G27  21017733.947 8 110449340.263 8      1452.805 8        50.402               
G23  21767895.070 8 114391448.857 8       892.694 8        48.487               
> 2025 01 06 18 46 28.0000000  0  5                                             
G26  21783971.866 7 114475966.351 7     -2996.365 7        47.969               
G16  20542298.329 7 107950921.567 7      -992.395 7        47.242               
G18  22166304.513 7 116485128.403 7     -2794.327 7        47.623               
G27  21017457.155 8 110447887.451 8      1453.219 8        50.024               
G23  21767724.368 8 114390556.370 8       891.522 8        48.114               
> 2025 01 06 18 46 29.0000000  0  5                                             
G26  21784544.238 8 114478961.924 8     -2997.941 8        48.368               
G16  20542481.407 7 107951914.540 7      -994.167 7        47.135               
G18  22166837.403 7 116487924.563 7     -2798.142 7        47.589               
G27  21017178.586 8 110446435.317 8      1450.260 8        49.707               
G23  21767555.809 8 114389664.845 8       890.284 8        48.345               
> 2025 01 06 18 46 30.0000000  0  5                                             
G26  21785110.114 7 114481958.450 7     -2997.937 7        47.985               
G16  20542673.909 7 107952908.709 7      -993.316 7        47.239               
G18  22167369.114 7 116490721.596 7     -2796.001 7        47.430               
G27  21016897.962 8 110444984.088 8      1452.373 8        49.740               
G23  21767383.507 8 114388774.488 8       889.345 8        48.344               
> 2025 01 06 18 46 31.0000000  0  5                                             
G26  21785680.270 8 114484954.265 8     -2994.463 8        48.390               
G16  20542862.865 7 107953902.354 7      -990.988 7        47.599               
G18  22167900.118 7 116493517.788 7     -2793.475 7        47.613               
G27  21016625.067 8 110443532.064 8      1452.926 8        49.463               
G23  21767212.894 8 114387883.600 8       890.480 8        48.714               
> 2025 01 06 18 46 32.0000000  0  5                                             
G26  21786246.128 7 114487950.112 7     -2996.408 7        47.745               
G16  20543048.650 7 107954896.257 7      -994.310 7        46.777               
G18  22168433.017 7 116496313.909 7     -2793.620 7        46.509               
G27  21016347.900 8 110442080.000 8      1453.120 8        49.163               
G23  21767037.965 7 114386992.951 7       888.783 7        47.708               
> 2025 01 06 18 46 33.0000000  0  5                                             
G26  21786819.402 8 114490946.899 8     -2997.259 8        48.534               
G16  20543233.523 7 107955891.313 7      -995.773 7        46.555               
G18  22168961.994 7 116499110.868 7     -2797.458 7        47.242               
G27  21016070.064 8 110440628.810 8      1451.064 8        49.579               
G23  21766867.083 8 114386103.434 8       888.565 8        48.728               
> 2025 01 06 18 46 34.0000000  0  5                                             
G26  21787386.931 8 114493944.308 8     -2998.662 8        48.898               
G16  20543422.532 7 107956887.195 7      -994.262 7        47.005               
G18  22169492.642 7 116501908.333 7     -2797.957 7        47.266               
G27  21015793.308 8 110439178.155 8      1451.743 8        49.120               
G23  21766699.731 8 114385214.742 8       887.918 8        48.690               
> 2025 01 06 18 46 35.0000000  0  5                                             
G26  21787954.666 7 114496942.146 7     -2998.153 7        47.957               
G16  20543614.052 7 107957883.745 7      -996.394 7        47.313               
G18  22170023.235 7 116504706.130 7     -2797.120 7        47.818               
G27  21015513.283 8 110437727.873 8      1449.948 8        48.673               
G23  21766528.662 8 114384326.690 8       887.661 8        48.248               
> 2025 01 06 18 46 36.0000000  0  5                                             
G26  21788525.813 7 114499940.364 7     -2999.306 7        47.583               
G16  20543800.900 7 107958880.875 7      -998.578 7        47.437               
G18  22170557.421 7 116507504.189 7     -2797.605 7        47.923               
G27  21015235.518 8 110436277.889 8      1450.305 8        48.884               
G23  21766359.005 8 114383439.197 8       887.012 8        48.004               
> 2025 01 06 18 46 37.0000000  0  5                                             
G26  21789100.517 8 114502938.668 8     -2999.728 8        48.260               
G16  20543988.614 7 107959878.301 7      -999.567 7        46.330               
G18  22171088.595 7 116510302.224 7     -2797.367 7        47.636               
G27  21014959.566 8 110434827.918 8      1451.063 8        49.293               
G23  21766192.153 8 114382551.994 8       887.448 8        48.193               
> 2025 01 06 18 46 38.0000000  0  5                                             
G26  21789662.980 8 114505937.276 8     -2999.608 8        48.331               
G16  20544183.225 7 107960876.254 7      -997.853 7        46.784               
G18  22171619.591 7 116513100.463 7     -2799.350 7        47.977               
G27  21014679.657 8 110433378.197 8      1448.889 8        49.011               
G23  21766018.430 7 114381665.298 7       886.171 7        47.905               
> 2025 01 06 18 46 39.0000000  0  5                                             
G26  21790231.555 8 114508936.628 8     -2999.993 8        48.379               
G16  20544371.520 7 107961875.167 7      -998.658 7        47.638               
G18  22172149.417 7 116515899.341 7     -2799.007 7        47.566               
G27  21014405.457 8 110431929.131 8      1448.630 8        48.968               
G23  21765848.397 7 114380779.539 7       886.108 7        47.847               
> 2025 01 06 18 46 40.0000000  0  5                                             
G26  21790804.418 7 114511936.463 7     -3000.751 7        47.992               
G16  20544557.242 7 107962874.772 7     -1001.838 7        47.318               
G18  22172682.289 7 116518698.582 7     -2800.801 7        47.503               
G27  21014128.898 8 110430480.484 8      1448.173 8        49.245               
G23  21765677.632 8 114379894.463 8       884.002 8        48.168               
> 2025 01 06 18 46 41.0000000  0  5                                             
G26  21791372.340 8 114514936.901 8     -3001.587 8        48.602               
G16  20544747.815 7 107963875.209 7     -1000.267 7        46.449               
G18  22173210.846 7 116521498.329 7     -2799.890 7        47.756               
G27  21013848.051 8 110429032.373 8      1449.543 8        49.378               
G23  21765510.834 8 114379010.197 8       884.715 8        48.142               
> 2025 01 06 18 46 42.0000000  0  5                                             
G26  21791940.870 8 114517937.556 8     -3001.338 8        48.283               
G16  20544936.610 7 107964876.057 7     -1001.448 7        47.300               
G18  22173743.405 7 116524298.185 7     -2802.529 7        47.242               
G27  21013572.376 8 110427584.398 8      1448.109 8        49.232               
G23  21765341.739 8 114378126.342 8       884.256 8        48.567               
> 2025 01 06 18 46 43.0000000  0  5                                             
G26  21792513.080 8 114520938.769 8     -3002.910 8        48.349               
G16  20545123.511 7 107965877.674 7     -1001.593 7        47.280               
G18  22174273.945 7 116527098.480 7     -2802.652 7        47.366               
G27  21013297.569 8 110426136.910 8      1447.784 8        49.355               
G23  21765171.519 8 114377243.241 8       881.912 8        48.587               
> 2025 01 06 18 46 44.0000000  0  5                                             
G26  21793082.298 8 114523940.558 8     -3001.717 8        48.193               
G16  20545314.317 7 107966880.086 7     -1003.805 7        46.600               
G18  22174807.479 7 116529899.256 7     -2800.012 7        46.992               
G27  21013019.955 8 110424689.934 8      1445.482 8        49.388               
G23  21765004.756 8 114376360.918 8       881.619 8        49.132               
> 2025 01 06 18 46 45.0000000  0  5                                             
G26  21793653.723 8 114526943.433 8     -3003.280 8        48.638               
G16  20545503.594 7 107967883.811 7     -1005.043 7        46.975               
G18  22175337.000 7 116532701.008 7     -2801.160 7        46.557               
G27  21012742.726 8 110423243.969 8      1445.839 8        49.530               
G23  21764833.571 8 114375479.882 8       880.205 8        48.396               
> 2025 01 06 18 46 46.0000000  0  5                                             
G26  21794222.923 7 114529946.916 7     -3002.759 7        47.850               
G16  20545695.293 7 107968888.364 7     -1004.860 7        46.462               
G18  22175871.740 7 116535503.262 7     -2802.411 7        46.889               
G27  21012468.080 8 110421798.547 8      1444.531 8        48.865               
G23  21764663.601 7 114374599.655 7       878.807 7        47.588               
> 2025 01 06 18 46 47.0000000  0  5                                             
G26  21794791.586 7 114532950.299 7     -3002.567 7        47.663               
G16  20545885.929 7 107969893.003 7     -1003.683 7        47.263               
G18  22176403.844 7 116538305.289 7     -2802.712 7        46.264               
G27  21012192.682 8 110420352.941 8      1445.775 8        48.789               
G23  21764495.694 7 114373719.519 7       880.904 7        47.025               
> 2025 01 06 18 46 48.0000000  0  5                                             
G26  21795362.332 7 114535952.765 7     -3001.975 7        47.430               
G16  20546075.760 7 107970896.969 7     -1003.342 7        46.776               
G18  22176936.778 7 116541106.314 7     -2800.348 7        46.271               
G27  21011916.007 8 110418906.364 8      1446.515 8        48.709               
G23  21764325.027 7 114372838.680 7       882.650 7        47.259               
> 2025 01 06 18 46 49.0000000  0  5                                             
G26  21795930.754 7 114538955.392 7     -3003.918 7        47.562               
G16  20546266.879 7 107971901.303 7     -1005.699 7        47.132               
G18  22177466.827 7 116543907.389 7     -2803.913 7        46.881               
G27  21011638.698 8 110417459.876 8      1445.213 8        49.403               
G23  21764161.588 7 114371958.198 7       879.897 7        47.868               
> 2025 01 06 18 46 50.0000000  0  5                                             
G26  21796504.868 7 114541959.210 7     -3004.144 7        47.710               
G16  20546457.139 7 107972907.030 7     -1005.524 7        46.864               
G18  22177999.378 7 116546709.519 7     -2801.522 7        46.473               
G27  21011363.997 8 110416014.495 8      1444.957 8        49.189               
G23  21763989.804 8 114371079.097 8       877.264 8        48.159               
> 2025 01 06 18 46 51.0000000  0  5                                             
G26  21797074.524 7 114544963.587 7     -3006.631 7        47.758               
G16  20546646.810 7 107973913.529 7     -1006.424 7        47.304               
G18  22178532.411 7 116549512.124 7     -2803.395 7        46.400               
G27  21011090.378 8 110414569.605 8      1443.796 8        49.220               
G23  21763822.577 8 114370200.756 8       878.982 8        48.063               
> 2025 01 06 18 46 52.0000000  0  5                                             
G26  21797646.949 8 114547968.535 8     -3004.903 8        48.151               
G16  20546836.865 7 107974920.842 7     -1007.881 7        46.753               
G18  22179064.425 7 116552315.196 7     -2803.570 7        46.629               
G27  21010808.262 8 110413125.238 8      1443.602 8        49.693               
G23  21763650.767 7 114369323.205 7       876.289 7        47.795               
> 2025 01 06 18 46 53.0000000  0  5                                             
G26  21798216.292 8 114550973.798 8     -3006.476 8        48.288               
G16  20547031.244 7 107975928.679 7     -1008.951 7        47.130               
G18  22179598.307 7 116555118.475 7     -2804.970 7        46.816               
G27  21010534.535 8 110411681.099 8      1443.967 8        49.430               
G23  21763485.067 8 114368446.168 8       877.092 8        48.213               
> 2025 01 06 18 46 54.0000000  0  5                                             
G26  21798786.340 8 114553979.345 8     -3005.001 8        48.319               
G16  20547219.834 7 107976936.998 7     -1009.777 7        47.557               
G18  22180128.793 7 116557921.914 7     -2804.947 7        47.136               
G27  21010260.737 8 110410237.168 8      1444.072 8        49.446               
G23  21763314.338 8 114367569.593 8       875.706 8        48.039               
> 2025 01 06 18 46 55.0000000  0  5                                             
G26  21799358.935 8 114556985.248 8     -3005.898 8        48.462               
G16  20547410.773 7 107977945.887 7     -1009.612 7        46.437               
G18  22180666.999 7 116560725.612 7     -2803.822 7        47.447               
G27  21009978.925 8 110408793.522 8      1442.992 8        49.498               
G23  21763146.932 7 114366693.591 7       874.494 7        47.785               
> 2025 01 06 18 46 56.0000000  0  5                                             
G26  21799928.153 8 114559991.351 8     -3006.916 8        48.516               
G16  20547605.733 7 107978955.213 7     -1011.347 7        47.045               
G18  22181196.780 8 116563529.401 8     -2803.666 8        48.409               
G27  21009707.923 8 110407350.013 8      1443.329 8        49.328               
G23  21762977.882 7 114365817.988 7       874.989 7        47.901               
> 2025 01 06 18 46 57.0000000  0  5                                             
G26  21800500.114 8 114562997.935 8     -3006.608 8        48.675               
G16  20547791.526 7 107979965.195 7     -1009.060 7        46.922               
G18  22181728.500 7 116566333.547 7     -2803.430 7        46.655               
G27  21009431.087 8 110405906.908 8      1442.532 8        48.391               
G23  21762809.663 8 114364943.058 8       875.173 8        48.414               
> 2025 01 06 18 46 58.0000000  0  5                                             
G26  21801072.191 8 114566005.095 8     -3006.760 8        48.436               
G16  20547983.779 7 107980976.003 7     -1010.712 7        46.965               
G18  22182258.039 7 116569138.188 7     -2805.821 7        47.454               
G27  21009157.620 8 110404464.322 8      1442.199 8        48.671               
G23  21762641.846 8 114364068.915 8       874.851 8        48.143               
> 2025 01 06 18 46 59.0000000  0  5                                             
G26  21801644.285 8 114569012.483 8     -3007.281 8        48.773               
G16  20548170.948 7 107981987.242 7     -1010.409 7        47.978               
G18  22182791.662 7 116571942.936 7     -2803.404 7        47.556               
G27  21008881.945 8 110403021.894 8      1442.162 8        49.469               
G23  21762474.386 7 114363195.205 7       871.913 7        47.844               
> 2025 01 06 18 47 00.0000000  0  5                                             
G26  21802214.236 8 114572020.221 8     -3005.819 8        48.742               
G16  20548366.525 7 107982999.055 7     -1011.187 7        47.217               
G18  22183326.794 7 116574747.932 7     -2804.618 7        47.192               
G27  21008608.630 8 110401579.742 8      1442.227 8        49.485               
G23  21762308.258 7 114362322.045 7       872.291 7        47.632               
> 2025 01 06 18 47 01.0000000  0  5                                             
G26  21802787.215 8 114575028.213 8     -3008.379 8        48.412               
G16  20548558.742 7 107984011.340 7     -1012.862 7        47.324               
G18  22183855.521 7 116577553.074 7     -2805.259 7        47.807               
G27  21008332.759 8 110400137.776 8      1441.898 8        49.142               
G23  21762140.119 7 114361449.331 7       871.760 7        47.843               
> 2025 01 06 18 47 02.0000000  0  5                                             
G26  21803358.300 8 114578036.945 8     -3007.436 8        48.569               
G16  20548750.164 7 107985024.572 7     -1011.663 7        47.179               
G18  22184388.402 7 116580358.842 7     -2805.873 7        47.515               
G27  21008055.789 8 110398696.486 8      1442.905 8        49.477               
G23  21761974.768 7 114360577.572 7       869.164 7        47.270               
> 2025 01 06 18 47 03.0000000  0  5                                             
G26  21803930.466 8 114581046.271 8     -3009.370 8        48.496               
G16  20548941.380 7 107986038.629 7     -1013.174 7        46.937               
G18  22184923.660 7 116583165.101 7     -2805.708 7        47.397               
G27  21007780.740 8 110397255.718 8      1442.420 8        49.343               
G23  21761807.613 7 114359706.602 7       869.414 7        46.994               
> 2025 01 06 18 47 04.0000000  0  5                                             
G26  21804500.166 8 114584055.878 8     -3010.642 8        48.373               
G16  20549132.713 7 107987053.155 7     -1015.734 7        47.005               
G18  22185454.539 7 116585971.517 7     -2806.280 7        47.399               
G27  21007503.073 8 110395815.154 8      1439.315 8        49.547               
G23  21761641.842 7 114358836.109 7       870.102 7        47.442               
> 2025 01 06 18 47 05.0000000  0  5                                             
G26  21805074.217 8 114587065.842 8     -3010.858 8        48.818               
G16  20549323.232 7 107988068.271 7     -1014.685 7        47.139               
G18  22185993.478 8 116588778.194 8     -2807.654 8        48.162               
G27  21007227.712 8 110394374.889 8      1440.346 8        48.874               
G23  21761473.587 7 114357966.178 7       871.126 7        47.802               
> 2025 01 06 18 47 06.0000000  0  5                                             
G26  21805647.393 8 114590076.452 8     -3010.970 8        49.319               
G16  20549516.888 7 107989084.255 7     -1018.070 7        47.764               
G18  22186523.205 8 116591585.419 8     -2806.717 8        48.372               
G27  21006952.582 8 110392935.193 8      1439.785 8        49.462               
G23  21761307.646 7 114357097.109 7       869.214 7        47.822               
> 2025 01 06 18 47 07.0000000  0  5                                             
G26  21806220.194 8 114593087.577 8     -3008.791 8        49.024               
G16  20549707.720 7 107990100.959 7     -1016.226 7        47.823               
G18  22187054.273 7 116594393.037 7     -2806.990 7        47.402               
G27  21006676.595 8 110391495.944 8      1438.519 8        49.208               
G23  21761141.661 8 114356228.747 8       866.587 8        48.336               
> 2025 01 06 18 47 08.0000000  0  5                                             
G26  21806790.081 8 114596098.906 8     -3011.458 8        48.594               
G16  20549903.198 7 107991118.093 7     -1015.730 7        47.650               
G18  22187590.227 7 116597200.766 7     -2808.366 7        47.740               
G27  21006399.741 8 110390056.849 8      1438.267 8        49.512               
G23  21760976.596 7 114355360.794 7       868.243 7        47.956               
> 2025 01 06 18 47 09.0000000  0  5                                             
G26  21807361.658 8 114599110.524 8     -3012.308 8        48.401               
G16  20550096.443 7 107992135.729 7     -1017.675 7        47.380               
G18  22188122.840 7 116600008.668 7     -2808.311 7        47.712               
G27  21006126.345 8 110388617.956 8      1438.584 8        49.296               
G23  21760813.076 7 114354493.334 7       867.841 7        47.905               
> 2025 01 06 18 47 10.0000000  0  5                                             
G26  21807934.905 8 114602122.482 8     -3013.285 8        49.124               
G16  20550286.846 7 107993153.922 7     -1019.576 7        46.958               
G18  22188655.158 8 116602816.797 8     -2809.455 8        48.505               
G27  21005854.272 8 110387179.339 8      1437.755 8        49.291               
G23  21760644.473 7 114353626.415 7       865.995 7        47.684               
> 2025 01 06 18 47 11.0000000  0  5                                             
G26  21808505.257 8 114605135.047 8     -3013.103 8        49.228               
G16  20550480.001 7 107994172.935 7     -1019.995 7        46.983               
G18  22189189.683 8 116605625.424 8     -2808.846 8        48.473               
G27  21005577.347 8 110385741.265 8      1437.939 8        49.285               
G23  21760475.682 7 114352760.305 7       865.779 7        47.893               
> 2025 01 06 18 47 12.0000000  0  5                                             
G26  21809078.460 8 114608148.143 8     -3011.900 8        48.964               
G16  20550669.976 7 107995192.707 7     -1020.505 7        47.440               
G18  22189725.522 8 116608434.484 8     -2810.167 8        48.577               
G27  21005303.039 8 110384303.655 8      1436.439 8        49.603               
G23  21760312.458 7 114351894.928 7       865.521 7        47.341               
> 2025 01 06 18 47 13.0000000  0  5                                             
G26  21809652.413 8 114611161.591 8     -3013.916 8        48.726               
G16  20550868.340 7 107996213.041 7     -1020.430 7        47.601               
G18  22190258.555 8 116611243.787 8     -2808.563 8        48.142               
G27  21005031.305 8 110382866.326 8      1437.715 8        49.036               
G23  21760146.035 7 114351030.108 7       865.779 7        47.893               
> 2025 01 06 18 47 14.0000000  0  5                                             
G26  21810221.908 8 114614175.295 8     -3013.701 8        49.112               
G16  20551060.619 7 107997233.829 7     -1022.228 7        47.246               
G18  22190790.373 8 116614053.221 8     -2810.732 8        48.272               
G27  21004755.389 8 110381429.174 8      1437.331 8        49.893               
G23  21759979.960 7 114350165.740 7       863.127 7        46.695               
> 2025 01 06 18 47 15.0000000  0  5                                             
G26  21810796.227 8 114617189.627 8     -3014.589 8        49.143               
G16  20551255.133 7 107998255.490 7     -1021.811 7        47.226               
G18  22191327.292 8 116616863.181 8     -2808.942 8        48.195               
G27  21004483.199 8 110379992.603 8      1436.105 8        49.352               
G23  21759815.592 7 114349302.215 7       862.454 7        46.986               
> 2025 01 06 18 47 16.0000000  0  5                                             
G26  21811370.073 8 114620204.333 8     -3014.745 8        49.239               
G16  20551448.386 7 107999277.740 7     -1023.420 7        47.335               
G18  22191857.118 7 116619673.423 7     -2810.434 7        47.461               
G27  21004208.508 8 110378556.335 8      1436.947 8        49.717               
G23  21759647.962 8 114348439.258 8       862.377 8        48.135               
> 2025 01 06 18 47 17.0000000  0  5                                             
G26  21811943.043 8 114623219.075 8     -3014.572 8        48.525               
G16  20551635.385 7 108000300.234 7     -1024.090 7        47.003               
G18  22192394.555 7 116622483.579 7     -2811.417 7        47.871               
G27  21003932.941 8 110377120.023 8      1435.892 8        49.730               
G23  21759482.924 7 114347576.552 7       861.966 7        47.661               
> 2025 01 06 18 47 18.0000000  0  5                                             
G26  21812514.637 8 114626234.845 8     -3016.890 8        49.274               
G16  20551835.224 7 108001323.979 7     -1024.519 7        46.553               
G18  22192927.749 7 116625294.657 7     -2809.708 7        47.292               
G27  21003662.055 8 110375684.683 8      1435.241 8        49.680               
G23  21759317.225 7 114346715.068 7       862.416 7        47.344               
> 2025 01 06 18 47 19.0000000  0  5                                             
G26  21813088.394 8 114629251.329 8     -3016.598 8        49.316               
G16  20552029.915 7 108002348.647 7     -1024.203 7        46.459               
G18  22193461.738 8 116628106.345 8     -2810.724 8        48.149               
G27  21003384.791 8 110374249.989 8      1433.740 8        49.990               
G23  21759151.606 7 114345854.499 7       861.955 7        46.568               
> 2025 01 06 18 47 20.0000000  0  5                                             
G26  21813661.462 8 114632268.502 8     -3016.230 8        49.372               
G16  20552220.694 7 108003374.224 7     -1024.869 7        47.008               
G18  22193993.761 8 116630918.603 8     -2811.029 8        48.078               
G27  21003108.312 8 110372815.918 8      1434.440 8        49.773               
G23  21758987.818 7 114344994.830 7       859.310 7        47.309               
> 2025 01 06 18 47 21.0000000  0  5                                             
G26  21814233.191 8 114635286.040 8     -3018.949 8        48.652               
G16  20552416.288 7 108004400.392 7     -1027.139 7        47.630               
G18  22194529.564 8 116633731.122 8     -2812.438 8        48.407               
G27  21002837.328 8 110371382.132 8      1432.957 8        50.117               
G23  21758823.888 7 114344135.729 7       858.828 7        47.655               
> 2025 01 06 18 47 22.0000000  0  5                                             
G26  21814811.030 8 114638303.920 8     -3016.844 8        48.908               
G16  20552612.937 7 108005427.119 7     -1027.226 7        46.925               
G18  22195059.488 8 116636543.891 8     -2812.631 8        48.845               
G27  21002559.233 8 110369948.639 8      1434.894 8        50.028               
G23  21758657.929 7 114343277.181 7       857.154 7        47.495               
> 2025 01 06 18 47 23.0000000  0  5                                             
G26  21815381.043 8 114641322.067 8     -3017.478 8        48.588               
G16  20552803.385 7 108006454.307 7     -1025.924 7        46.837               
G18  22195596.711 7 116639356.806 7     -2813.408 7        47.429               
G27  21002290.375 8 110368515.333 8      1433.876 8        49.665               
G23  21758496.572 7 114342419.097 7       857.883 7        47.225               
> 2025 01 06 18 47 24.0000000  0  5                                             
G26  21815955.264 8 114644340.302 8     -3017.212 8        49.006               
G16  20552999.828 7 108007481.817 7     -1027.509 7        47.479               
G18  22196129.083 8 116642169.699 8     -2812.298 8        48.003               
G27  21002014.451 8 110367082.062 8      1432.711 8        49.649               
G23  21758335.429 7 114341561.309 7       857.674 7        47.220               
> 2025 01 06 18 47 25.0000000  0  5                                             
G26  21816529.378 8 114647358.834 8     -3019.207 8        48.798               
G16  20553193.001 7 108008509.829 7     -1027.421 7        47.406               
G18  22196664.850 8 116644982.780 8     -2813.947 8        48.252               
G27  21001741.457 8 110365649.005 8      1434.351 8        50.043               
G23  21758170.480 7 114340704.016 7       857.473 7        46.835               
> 2025 01 06 18 47 26.0000000  0  5                                             
G26  21817100.847 8 114650377.963 8     -3019.418 8        49.131               
G16  20553386.085 7 108009538.680 7     -1031.357 7        47.581               
G18  22197197.632 7 116647796.369 7     -2813.681 7        47.655               
G27  21001467.811 8 110364216.500 8      1432.235 8        49.735               
G23  21758003.387 7 114339847.533 7       854.604 7        47.578               
> 2025 01 06 18 47 27.0000000  0  5                                             
G26  21817674.264 8 114653397.708 8     -3020.413 8        48.903               
G16  20553580.357 7 108010568.340 7     -1030.472 7        47.627               
G18  22197733.185 7 116650610.448 7     -2814.977 7        47.583               
G27  21001192.449 8 110362784.534 8      1432.868 8        49.787               
G23  21757839.340 8 114338991.866 8       855.793 8        48.202               
> 2025 01 06 18 47 28.0000000  0  5                                             
G26  21818247.654 8 114656417.699 8     -3019.942 8        48.774               
G16  20553776.496 7 108011598.474 7     -1032.135 7        47.420               
G18  22198263.135 7 116653424.674 7     -2814.667 7        47.367               
G27  21000919.866 8 110361352.754 8      1430.997 8        49.903               
G23  21757679.538 7 114338136.652 7       852.572 7        47.341               
> 2025 01 06 18 47 29.0000000  0  5                                             
G26  21818819.284 8 114659438.351 8     -3021.880 8        48.991               
G16  20553971.287 7 108012629.477 7     -1031.351 7        47.028               
G18  22198801.520 8 116656239.448 8     -2813.506 8        48.793               
G27  21000646.041 8 110359921.563 8      1430.958 8        49.678               
G23  21757514.812 7 114337282.308 7       854.445 7        47.446               
> 2025 01 06 18 47 30.0000000  0  5                                             
G26  21819395.131 8 114662460.229 8     -3022.375 8        48.282               
G16  20554166.452 7 108013661.940 7     -1033.166 7        47.592               
G18  22199337.502 7 116659055.344 7     -2815.610 7        47.813               
G27  21000374.209 8 110358491.537 8      1430.238 8        50.203               
G23  21757347.567 7 114336429.396 7       853.404 7        47.050               
> 2025 01 06 18 47 31.0000000  0  5                                             
G26  21819969.067 8 114665481.353 8     -3020.939 8        48.518               
G16  20554360.974 7 108014693.850 7     -1033.047 7        47.721               
G18  22199872.295 8 116661870.374 8     -2814.470 8        48.321               
G27  21000099.919 8 110357060.689 8      1430.505 8        50.304               
G23  21757186.094 7 114335575.927 7       853.898 7        47.542               
> 2025 01 06 18 47 32.0000000  0  5                                             
G26  21820541.411 7 114668502.947 7     -3022.095 7        47.953               
G16  20554557.114 7 108015726.443 7     -1032.528 7        47.913               
G18  22200408.553 8 116664685.760 8     -2813.982 8        48.723               
G27  20999828.364 8 110355630.231 8      1431.389 8        49.443               
G23  21757022.949 7 114334723.124 7       853.707 7        47.103               
> 2025 01 06 18 47 33.0000000  0  5                                             
G26  21821117.116 8 114671524.339 8     -3022.523 8        48.490               
G16  20554753.414 7 108016759.071 7     -1034.136 7        47.346               
G18  22200941.184 8 116667500.845 8     -2816.235 8        48.391               
G27  20999555.602 8 110354199.526 8      1429.721 8        49.568               
G23  21756862.012 7 114333870.341 7       852.486 7        46.803               
> 2025 01 06 18 47 34.0000000  0  5                                             
G26  21821687.611 8 114674546.640 8     -3022.406 8        48.351               
G16  20554948.651 7 108017792.819 7     -1034.235 7        47.248               
G18  22201476.915 8 116670316.732 8     -2815.031 8        48.104               
G27  20999280.803 8 110352769.657 8      1429.877 8        50.162               
G23  21756698.680 7 114333018.679 7       850.009 7        47.366               
> 2025 01 06 18 47 35.0000000  0  5                                             
G26  21822260.724 8 114677569.878 8     -3023.339 8        48.376               
G16  20555146.622 7 108018827.722 7     -1036.000 7        47.023               
G18  22202010.895 8 116673133.447 8     -2818.780 8        48.194               
G27  20999004.905 8 110351340.662 8      1427.064 8        50.145               
G23  21756532.838 7 114332168.147 7       849.140 7        47.441               
> 2025 01 06 18 47 36.0000000  0  5                                             
G26  21822836.205 8 114680594.298 8     -3026.357 8        48.294               
G16  20555343.476 7 108019864.033 7     -1036.887 7        47.424               
G18  22202546.358 7 116675951.228 7     -2818.412 7        47.578               
G27  20998733.448 8 110349912.785 8      1428.257 8        50.567               
G23  21756368.291 8 114331319.013 8       849.904 8        48.169               
> 2025 01 06 18 47 37.0000000  0  5                                             
G26  21823409.988 8 114683619.049 8     -3024.732 8        48.472               
G16  20555537.774 7 108020900.897 7     -1037.702 7        47.317               
G18  22203079.641 8 116678769.244 8     -2817.513 8        48.118               
G27  20998459.865 8 110348485.172 8      1426.017 8        50.402               
G23  21756207.934 7 114330470.416 7       848.717 7        47.725               
> 2025 01 06 18 47 38.0000000  0  5                                             
G26  21823983.083 8 114686644.204 8     -3026.493 8        48.111               
G16  20555733.378 7 108021938.371 7     -1037.085 7        46.881               
G18  22203616.927 8 116681587.545 8     -2817.595 8        48.002               
G27  20998187.165 8 110347057.899 8      1426.848 8        50.247               
G23  21756046.023 7 114329622.424 7       847.600 7        47.824               
> 2025 01 06 18 47 39.0000000  0  5                                             
G26  21824559.449 7 114689669.929 7     -3027.562 7        47.452               
G16  20555929.499 7 108022976.633 7     -1038.615 7        47.365               
G18  22204152.328 7 116684406.314 7     -2818.924 7        47.256               
G27  20997914.332 8 110345631.134 8      1427.861 8        49.154               
G23  21755884.728 7 114328775.204 7       847.187 7        47.672               
> 2025 01 06 18 47 40.0000000  0  5                                             
G26  21825133.804 7 114692696.112 7     -3026.416 7        47.438               
G16  20556129.713 7 108024015.577 7     -1038.373 7        46.921               
G18  22204687.014 8 116687225.427 8     -2818.219 8        48.125               
G27  20997641.785 8 110344204.756 8      1426.575 8        49.850               
G23  21755722.415 7 114327928.655 7       847.143 7        46.603               
> 2025 01 06 18 47 41.0000000  0  5                                             
G26  21825707.498 7 114695722.283 7     -3026.285 7        47.737               
G16  20556323.413 8 108025054.717 8     -1039.351 8        48.152               
G18  22205219.367 7 116690044.429 7     -2819.465 7        47.973               
G27  20997370.122 8 110342778.313 8      1426.764 8        49.585               
G23  21755556.823 7 114327082.298 7       847.414 7        46.921               
> 2025 01 06 18 47 42.0000000  0  5                                             
G26  21826284.176 7 114698748.109 7     -3027.054 7        47.188               
G16  20556519.195 7 108026093.759 7     -1040.175 7        47.900               
G18  22205754.670 7 116692862.983 7     -2818.865 7        47.663               
G27  20997097.334 8 110341351.462 8      1426.476 8        49.806               
G23  21755400.013 7 114326235.822 7       845.964 7        46.857               
> 2025 01 06 18 47 43.0000000  0  5                                             
G26  21826856.530 7 114701774.534 7     -3026.504 7        47.597               
G16  20556715.727 7 108027133.585 7     -1038.962 7        46.818               
G18  22206289.436 8 116695682.015 8     -2820.385 8        48.308               
G27  20996824.411 8 110339925.119 8      1426.320 8        49.631               
G23  21755233.215 7 114325390.129 7       844.049 7        47.972               
> 2025 01 06 18 47 44.0000000  0  5                                             
G26  21827431.179 8 114704801.654 8     -3030.062 8        48.145               
G16  20556915.208 7 108028174.335 7     -1038.615 7        46.992               
G18  22206826.624 7 116698501.636 7     -2820.809 7        47.977               
G27  20996553.490 8 110338499.429 8      1425.345 8        49.510               
G23  21755072.921 8 114324545.343 8       843.714 8        48.097               
> 2025 01 06 18 47 45.0000000  0  5                                             
G26  21828011.994 7 114707829.313 7     -3027.505 7        47.924               
G16  20557109.945 7 108029215.843 7     -1041.652 7        47.795               
G18  22207362.140 8 116701321.685 8     -2820.871 8        48.053               
G27  20996282.640 8 110337074.197 8      1424.427 8        50.251               
G23  21754910.027 7 114323701.293 7       843.011 7        47.744               
> 2025 01 06 18 47 46.0000000  0  5                                             
G26  21828585.331 8 114710856.680 8     -3027.684 8        48.695               
G16  20557307.737 8 108030257.287 8     -1040.191 8        48.094               
G18  22207898.604 8 116704141.348 8     -2820.130 8        48.357               
G27  20996005.742 8 110335648.642 8      1425.561 8        49.809               
G23  21754745.971 7 114322857.177 7       845.216 7        47.563               
> 2025 01 06 18 47 47.0000000  0  5                                             
G26  21829160.865 8 114713884.167 8     -3027.119 8        48.224               
G16  20557507.414 8 108031299.064 8     -1042.318 8        48.402               
G18  22208434.362 7 116706961.004 7     -2819.465 7        47.887               
G27  20995735.509 8 110334223.098 8      1425.190 8        49.707               
G23  21754588.974 7 114322013.367 7       842.822 7        47.764               
> 2025 01 06 18 47 48.0000000  0  5                                             
G26  21829736.927 8 114716912.679 8     -3030.743 8        48.036               
G16  20557705.296 7 108032342.103 7     -1043.986 7        47.904               
G18  22208966.689 7 116709781.596 7     -2820.724 7        47.404               
G27  20995466.267 8 110332798.558 8      1423.930 8        50.064               
G23  21754425.767 8 114321170.811 8       842.871 8        48.006               
> 2025 01 06 18 47 49.0000000  0  5                                             
G26  21830310.951 7 114719942.373 7     -3030.945 7        47.857               
G16  20557902.123 7 108033386.534 7     -1043.929 7        47.921               
G18  22209502.599 7 116712603.260 7     -2821.836 7        46.596               
G27  20995189.244 8 110331375.110 8      1423.273 8        49.320               
G23  21754268.341 8 114320329.638 8       840.140 8        48.115               
> 2025 01 06 18 47 50.0000000  0  5                                             
G26  21830884.860 7 114722971.909 7     -3029.206 7        47.724               
G16  20558100.755 8 108034431.035 8     -1045.007 8        48.632               
G18  22210040.626 7 116715424.651 7     -2821.063 7        47.526               
G27  20994919.716 8 110329951.457 8      1424.896 8        49.998               
G23  21754105.563 8 114319488.527 8       840.486 8        48.409               
> 2025 01 06 18 47 51.0000000  0  5                                             
G26  21831463.289 7 114726001.546 7     -3030.117 7        47.812               
G16  20558293.106 7 108035475.836 7     -1044.335 7        47.508               
G18  22210575.562 7 116718246.037 7     -2821.799 7        46.949               
G27  20994645.650 8 110328527.830 8      1424.562 8        49.576               
G23  21753945.091 8 114318647.702 8       840.484 8        48.157               
> 2025 01 06 18 47 52.0000000  0  5                                             
G26  21832038.573 7 114729031.784 7     -3031.108 7        47.728               
G16  20558495.625 7 108036521.470 7     -1045.392 7        47.612               
G18  22211112.169 7 116721067.917 7     -2823.994 7        47.273               
G27  20994374.095 8 110327104.745 8      1421.691 8        49.163               
G23  21753785.172 7 114317807.701 7       839.245 7        47.662               
> 2025 01 06 18 47 53.0000000  0  5                                             
G26  21832611.740 8 114732062.066 8     -3029.247 8        48.092               
G16  20558691.210 7 108037567.358 7     -1044.737 7        47.970               
G18  22211645.470 7 116723889.730 7     -2821.523 7        47.716               
G27  20994104.799 8 110325681.638 8      1426.134 8        49.504               
G23  21753622.447 7 114316967.943 7       840.682 7        47.908               
> 2025 01 06 18 47 54.0000000  0  5                                             
G26  21833191.331 8 114735092.155 8     -3030.837 8        48.381               
G16  20558892.639 7 108038613.279 7     -1047.689 7        47.973               
G18  22212183.489 8 116726711.246 8     -2821.851 8        48.035               
G27  20993829.536 8 110324258.283 8      1421.808 8        49.354               
G23  21753457.865 7 114316128.209 7       839.620 7        47.891               
> 2025 01 06 18 47 55.0000000  0  5                                             
G26  21833764.122 8 114738123.528 8     -3032.274 8        48.265               
G16  20559091.235 7 108039660.696 7     -1046.737 7        47.518               
G18  22212721.427 7 116729533.939 7     -2823.743 7        47.501               
G27  20993560.831 8 110322836.143 8      1420.443 8        49.707               
G23  21753298.491 7 114315289.964 7       836.616 7        47.720               
> 2025 01 06 18 47 56.0000000  0  5                                             
G26  21834340.559 8 114741155.837 8     -3033.245 8        48.358               
G16  20559287.946 7 108040709.251 7     -1050.060 7        47.480               
G18  22213254.442 7 116732357.445 7     -2825.793 7        47.517               
G27  20993288.265 8 110321414.864 8      1422.528 8        48.936               
G23  21753138.653 8 114314452.841 8       837.070 8        48.269               
> 2025 01 06 18 47 57.0000000  0  5                                             
G26  21834919.122 8 114744189.013 8     -3033.058 8        48.670               
G16  20559484.890 7 108041758.931 7     -1051.340 7        47.862               
G18  22213794.721 8 116735181.734 8     -2824.243 8        48.247               
G27  20993013.368 8 110319994.414 8      1419.511 8        49.160               
G23  21752978.510 7 114313616.837 7       835.443 7        47.818               
> 2025 01 06 18 47 58.0000000  0  5                                             
G26  21835492.280 8 114747222.433 8     -3033.060 8        49.148               
G16  20559686.122 7 108042809.055 7     -1050.172 7        47.035               
G18  22214327.512 8 116738006.139 8     -2824.506 8        48.351               
G27  20992746.369 8 110318574.136 8      1420.233 8        49.497               
G23  21752819.932 7 114312781.258 7       834.607 7        47.927               
> 2025 01 06 18 47 59.0000000  0  5                                             
G26  21836073.407 8 114750255.822 8     -3032.973 8        48.783               
G16  20559881.216 7 108043859.364 7     -1051.804 7        47.487               
G18  22214865.861 8 116740830.410 8     -2824.934 8        48.614               
G27  20992475.984 8 110317153.755 8      1420.392 8        49.800               
G23  21752658.717 7 114311945.858 7       834.882 7        47.648               
> 2025 01 06 18 48 00.0000000  0  5                                             
G26  21836647.369 8 114753289.492 8     -3032.889 8        48.036               
G16  20560079.705 7 108044910.193 7     -1050.547 7        47.508               
G18  22215401.280 7 116743654.865 7     -2824.375 7        47.877               
G27  20992203.446 8 110315733.607 8      1419.730 8        49.841               
G23  21752503.462 7 114311110.966 7       835.283 7        47.889               
> 2025 01 06 18 48 01.0000000  0  5                                             
G26  21837222.573 8 114756323.465 8     -3034.216 8        48.806               
G16  20560279.016 7 108045961.525 7     -1051.396 7        47.605               
G18  22215937.395 8 116746479.504 8     -2824.921 8        48.099               
G27  20991931.104 8 110314313.690 8      1420.948 8        50.458               
G23  21752344.026 8 114310276.571 8       835.279 8        48.290               
> 2025 01 06 18 48 02.0000000  0  5                                             
G26  21837799.144 8 114759357.948 8     -3034.840 8        49.147               
G16  20560474.575 7 108047013.595 7     -1052.105 7        47.971               
G18  22216472.930 7 116749304.549 7     -2825.697 7        47.737               
G27  20991658.718 8 110312894.231 8      1420.028 8        49.979               
G23  21752186.377 8 114309442.905 8       832.438 8        48.047               
> 2025 01 06 18 48 03.0000000  0  5                                             
G26  21838377.010 8 114762392.850 8     -3034.596 8        49.377               
G16  20560676.066 7 108048066.301 7     -1052.322 7        47.107               
G18  22217008.884 7 116752129.913 7     -2824.226 7        47.833               
G27  20991386.724 8 110311475.123 8      1418.796 8        49.782               
G23  21752023.831 8 114308609.863 8       833.326 8        48.431               
> 2025 01 06 18 48 04.0000000  0  5                                             
G26  21838949.981 8 114765428.019 8     -3035.407 8        48.676               
G16  20560874.510 7 108049119.491 7     -1053.639 7        46.575               
G18  22217542.980 7 116754955.418 7     -2827.177 7        47.812               
G27  20991117.394 8 110310056.215 8      1418.402 8        49.613               
G23  21751863.787 8 114307777.293 8       831.586 8        48.455               
> 2025 01 06 18 48 05.0000000  0  5                                             
G26  21839528.061 8 114768463.527 8     -3036.384 8        48.708               
G16  20561075.179 7 108050173.242 7     -1053.985 7        47.464               
G18  22218082.482 7 116757781.178 7     -2826.227 7        47.893               
G27  20990848.375 8 110308637.596 8      1419.007 8        49.865               
G23  21751705.700 8 114306945.280 8       832.139 8        48.338               
> 2025 01 06 18 48 06.0000000  0  5                                             
G26  21840104.293 8 114771499.593 8     -3036.839 8        49.277               
G16  20561276.965 7 108051227.780 7     -1055.159 7        47.819               
G18  22218618.713 7 116760607.372 7     -2824.389 7        47.712               
G27  20990573.273 8 110307219.466 8      1416.188 8        49.727               
G23  21751547.005 8 114306114.028 8       831.302 8        48.405               
> 2025 01 06 18 48 07.0000000  0  5                                             
G26  21840678.826 8 114774536.012 8     -3035.592 8        48.330               
G16  20561474.436 7 108052282.872 7     -1055.647 7        47.407               
G18  22219155.499 7 116763433.806 7     -2825.821 7        47.352               
G27  20990307.507 8 110305801.624 8      1419.235 8        49.864               
G23  21751387.551 8 114305283.338 8       831.807 8        48.334               
> 2025 01 06 18 48 08.0000000  0  5                                             
G26  21841258.221 8 114777572.322 8     -3037.482 8        48.480               
G16  20561674.533 7 108053338.079 7     -1057.203 7        47.367               
G18  22219694.572 7 116766260.029 7     -2826.906 7        47.859               
G27  20990037.524 8 110304383.608 8      1416.491 8        49.466               
G23  21751227.686 8 114304452.756 8       828.987 8        48.545               
> 2025 01 06 18 48 09.0000000  0  5                                             
G26  21841836.989 8 114780609.836 8     -3036.413 8        48.491               
G16  20561873.129 7 108054394.698 7     -1056.745 7        46.487               
G18  22220229.436 7 116769087.334 7     -2826.983 7        47.551               
G27  20989765.003 8 110302966.725 8      1418.040 8        49.904               
G23  21751068.374 8 114303623.571 8       830.101 8        48.191               
> 2025 01 06 18 48 10.0000000  0  5                                             
G26  21842412.470 8 114783647.122 8     -3036.895 8        48.636               
G16  20562075.380 7 108055451.327 7     -1057.765 7        47.095               
G18  22220767.213 7 116771914.329 7     -2827.202 7        46.860               
G27  20989494.976 8 110301549.576 8      1416.901 8        49.744               
G23  21750905.364 7 114302794.389 7       828.536 7        47.573               
> 2025 01 06 18 48 11.0000000  0  5                                             
G26  21842987.549 8 114786684.685 8     -3037.928 8        48.921               
G16  20562276.389 7 108056508.454 7     -1057.678 7        47.168               
G18  22221300.836 7 116774741.480 7     -2827.467 7        47.523               
G27  20989224.850 8 110300132.645 8      1418.048 8        50.092               
G23  21750747.804 7 114301965.688 7       827.528 7        47.791               
> 2025 01 06 18 48 12.0000000  0  5                                             
G26  21843567.685 8 114789723.088 8     -3038.678 8        49.224               
G16  20562476.227 7 108057566.634 7     -1058.416 7        47.781               
G18  22221835.817 7 116777569.370 7     -2829.551 7        47.548               
G27  20988953.777 8 110298716.487 8      1416.786 8        50.424               
G23  21750589.699 7 114301138.045 7       828.272 7        47.911               
> 2025 01 06 18 48 13.0000000  0  5                                             
G26  21844144.738 8 114792761.979 8     -3038.446 8        48.217               
G16  20562677.682 7 108058625.528 7     -1060.161 7        47.237               
G18  22222373.111 7 116780397.634 7     -2827.288 7        47.173               
G27  20988685.134 8 110297300.750 8      1414.673 8        50.040               
G23  21750430.942 7 114300311.092 7       827.115 7        47.465               
> 2025 01 06 18 48 14.0000000  0  5                                             
G26  21844723.301 8 114795801.257 8     -3039.812 8        48.113               
G16  20562879.012 7 108059685.021 7     -1061.971 7        46.293               
G18  22222911.335 7 116783226.175 7     -2827.234 7        47.411               
G27  20988410.978 8 110295885.340 8      1415.258 8        49.820               
G23  21750276.518 7 114299484.730 7       824.570 7        46.637               
> 2025 01 06 18 48 15.0000000  0  5                                             
G26  21845300.033 8 114798840.980 8     -3040.398 8        48.307               
G16  20563078.645 7 108060745.173 7     -1062.347 7        46.489               
G18  22223452.213 7 116786055.051 7     -2828.861 7        47.350               
G27  20988140.950 8 110294470.303 8      1414.413 8        49.798               
G23  21750116.197 7 114298659.028 7       824.918 7        47.255               
> 2025 01 06 18 48 16.0000000  0  5                                             
G26  21845876.925 8 114801881.176 8     -3039.993 8        48.305               
G16  20563276.777 7 108061806.039 7     -1060.943 7        46.801               
G18  22223989.275 7 116788884.302 7     -2829.744 7        47.578               
G27  20987870.306 8 110293055.693 8      1414.387 8        49.859               
G23  21749952.847 7 114297834.024 7       824.484 7        47.734               
> 2025 01 06 18 48 17.0000000  0  5                                             
G26  21846452.540 8 114804921.671 8     -3041.014 8        48.144               
G16  20563479.456 7 108062867.416 7     -1060.894 7        47.746               
G18  22224525.516 7 116791713.739 7     -2828.180 7        47.008               
G27  20987600.350 8 110291641.325 8      1413.560 8        50.022               
G23  21749795.171 7 114297009.527 7       824.863 7        47.834               
> 2025 01 06 18 48 18.0000000  0  5                                             
G26  21847028.700 7 114807962.462 7     -3039.826 7        47.800               
G16  20563683.342 7 108063929.320 7     -1060.619 7        47.801               
G18  22225065.312 7 116794543.371 7     -2831.494 7        46.922               
G27  20987327.874 8 110290227.196 8      1413.375 8        49.888               
G23  21749637.548 7 114296185.532 7       824.066 7        47.555               
> 2025 01 06 18 48 19.0000000  0  5                                             
G26  21847608.380 8 114811003.727 8     -3042.216 8        48.034               
G16  20563879.043 7 108064991.906 7     -1060.236 7        47.751               
G18  22225600.364 7 116797373.361 7     -2829.569 7        46.926               
G27  20987056.631 8 110288813.478 8      1413.733 8        49.625               
G23  21749476.218 7 114295362.230 7       822.088 7        47.984               
> 2025 01 06 18 48 20.0000000  0  5                                             
G26  21848183.896 8 114814045.456 8     -3040.942 8        48.092               
G16  20564083.420 7 108066055.179 7     -1062.354 7        47.723               
G18  22226142.028 7 116800203.710 7     -2831.980 7        46.553               
G27  20986789.802 8 110287400.155 8      1411.986 8        49.206               
G23  21749324.402 8 114294539.588 8       823.869 8        48.000               
> 2025 01 06 18 48 21.0000000  0  5                                             
G26  21848763.040 7 114817087.507 7     -3042.412 7        47.295               
G16  20564284.232 7 108067118.998 7     -1064.728 7        47.224               
G18  22226672.175 7 116803034.273 7     -2830.113 7        47.628               
G27  20986519.006 8 110285987.101 8      1412.369 8        49.754               
G23  21749164.850 7 114293717.497 7       820.348 7        47.854               
> 2025 01 06 18 48 22.0000000  0  5                                             
G26  21849338.200 7 114820130.137 7     -3042.592 7        47.771               
G16  20564484.222 7 108068183.606 7     -1066.115 7        47.001               
G18  22227211.158 7 116805865.302 7     -2831.346 7        47.315               
G27  20986249.720 8 110284574.564 8      1412.225 8        49.332               
G23  21749006.146 7 114292896.186 7       819.361 7        47.964               
> 2025 01 06 18 48 23.0000000  0  5                                             
G26  21849916.405 8 114823173.084 8     -3043.209 8        48.019               
G16  20564688.171 7 108069248.763 7     -1065.536 7        46.990               
G18  22227753.563 8 116808696.553 8     -2832.304 8        48.071               
G27  20985980.103 8 110283162.294 8      1412.375 8        49.793               
G23  21748851.660 7 114292075.408 7       822.307 7        47.587               
> 2025 01 06 18 48 24.0000000  0  5                                             
G26  21850492.324 8 114826216.305 8     -3042.357 8        48.475               
G16  20564886.070 7 108070314.415 7     -1067.068 7        46.787               
G18  22228286.784 7 116811527.960 7     -2830.853 7        47.661               
G27  20985710.317 8 110281750.229 8      1412.136 8        49.628               
G23  21748691.750 8 114291255.116 8       820.318 8        48.245               
> 2025 01 06 18 48 25.0000000  0  5                                             
G26  21851070.190 8 114829260.083 8     -3043.405 8        48.776               
G16  20565090.697 7 108071380.834 7     -1067.158 7        47.339               
G18  22228828.037 8 116814359.810 8     -2832.648 8        48.749               
G27  20985438.752 8 110280338.663 8      1411.522 8        49.540               
G23  21748534.788 7 114290435.594 7       818.264 7        47.907               
> 2025 01 06 18 48 26.0000000  0  5                                             
G26  21851650.514 8 114832304.327 8     -3044.504 8        48.631               
G16  20565292.492 7 108072447.943 7     -1066.525 7        47.360               
G18  22229363.348 7 116817192.025 7     -2831.705 7        47.423               
G27  20985170.520 8 110278927.490 8      1412.473 8        49.402               
G23  21748380.462 8 114289616.739 8       820.249 8        48.232               
> 2025 01 06 18 48 27.0000000  0  5                                             
G26  21852226.602 8 114835348.900 8     -3043.936 8        48.679               
G16  20565495.886 7 108073515.618 7     -1068.099 7        47.056               
G18  22229899.303 7 116820024.467 7     -2832.318 7        47.009               
G27  20984898.822 8 110277516.616 8      1411.002 8        49.559               
G23  21748221.357 7 114288798.452 7       818.750 7        47.664               
> 2025 01 06 18 48 28.0000000  0  5                                             
G26  21852806.282 8 114838393.950 8     -3045.744 8        48.030               
G16  20565695.072 7 108074583.975 7     -1069.035 7        46.709               
G18  22230439.581 7 116822857.269 7     -2832.235 7        47.413               
G27  20984632.975 8 110276106.140 8      1412.052 8        49.552               
G23  21748069.836 7 114287980.834 7       817.325 7        47.526               
> 2025 01 06 18 48 29.0000000  0  5                                             
G26  21853385.614 8 114841439.384 8     -3045.000 8        48.415               
G16  20565899.145 7 108075652.948 7     -1069.011 7        46.942               
G18  22230976.822 7 116825690.351 7     -2832.571 7        47.696               
G27  20984359.695 8 110274696.001 8      1409.145 8        49.746               
G23  21747909.631 8 114287163.821 8       816.285 8        48.388               
> 2025 01 06 18 48 30.0000000  0  5                                             
G26  21853961.952 8 114844485.060 8     -3044.760 8        48.262               
G16  20566099.448 7 108076722.387 7     -1068.515 7        47.954               
G18  22231515.314 8 116828523.570 8     -2832.181 8        48.398               
G27  20984091.258 8 110273286.037 8      1409.418 8        49.926               
G23  21747756.530 8 114286347.255 8       817.204 8        48.017               
> 2025 01 06 18 48 31.0000000  0  5                                             
G26  21854540.971 7 114847531.070 7     -3048.960 7        47.854               
G16  20566303.182 7 108077792.378 7     -1070.476 7        46.741               
G18  22232054.012 7 116831357.006 7     -2834.027 7        47.562               
G27  20983821.900 8 110271876.349 8      1409.692 8        50.298               
G23  21747596.486 7 114285531.239 7       816.253 7        47.733               
> 2025 01 06 18 48 32.0000000  0  5                                             
G26  21855119.606 8 114850577.445 8     -3047.869 8        48.717               
G16  20566501.975 7 108078862.951 7     -1070.544 7        47.323               
G18  22232590.824 8 116834190.697 8     -2833.373 8        48.586               
G27  20983551.748 8 110270466.959 8      1409.621 8        49.392               
G23  21747440.695 8 114284715.807 8       814.887 8        48.446               
> 2025 01 06 18 48 33.0000000  0  5                                             
G26  21855702.350 8 114853624.235 8     -3047.173 8        48.328               
G16  20566707.406 7 108079934.176 7     -1070.920 7        47.580               
G18  22233126.109 8 116837024.709 8     -2833.857 8        48.520               
G27  20983282.676 8 110269057.941 8      1408.609 8        49.283               
G23  21747288.620 8 114283901.004 8       814.651 8        48.257               
> 2025 01 06 18 48 34.0000000  0  5                                             
G26  21856279.377 7 114856671.145 7     -3047.590 7        47.901               
G16  20566910.389 7 108081005.733 7     -1071.790 7        47.585               
G18  22233666.521 8 116839858.721 8     -2833.906 8        48.194               
G27  20983014.453 8 110267648.971 8      1408.284 8        49.208               
G23  21747131.293 7 114283086.525 7       812.616 7        47.707               
> 2025 01 06 18 48 35.0000000  0  5                                             
G26  21856856.600 7 114859718.355 7     -3048.430 7        47.410               
G16  20567113.167 7 108082077.793 7     -1072.830 7        47.785               
G18  22234205.460 7 116842692.925 7     -2835.324 7        47.661               
G27  20982745.274 8 110266240.243 8      1408.061 8        49.317               
G23  21746974.546 7 114282272.563 7       812.254 7        47.918               
> 2025 01 06 18 48 36.0000000  0  5                                             
G26  21857437.039 8 114862766.270 8     -3048.277 8        48.120               
G16  20567315.953 7 108083150.813 7     -1072.548 7        47.007               
G18  22234745.569 7 116845527.738 7     -2834.978 7        47.515               
G27  20982475.595 8 110264832.177 8      1406.518 8        49.349               
G23  21746817.915 8 114281459.531 8       812.976 8        48.164               
> 2025 01 06 18 48 37.0000000  0  5                                             
G26  21858014.852 8 114865814.259 8     -3047.994 8        48.195               
G16  20567516.899 7 108084224.106 7     -1072.948 7        46.873               
G18  22235282.122 7 116848362.514 7     -2836.491 7        47.882               
G27  20982208.015 8 110263424.111 8      1407.974 8        49.147               
G23  21746659.658 8 114280646.770 8       813.723 8        48.491               
> 2025 01 06 18 48 38.0000000  0  5                                             
G26  21858592.897 8 114868862.282 8     -3048.780 8        48.044               
G16  20567720.687 7 108085297.660 7     -1073.954 7        47.228               
G18  22235822.571 7 116851197.214 7     -2834.986 7        47.988               
G27  20981937.755 8 110262016.032 8      1407.682 8        49.458               
G23  21746502.526 8 114279834.268 8       812.335 8        48.109               
> 2025 01 06 18 48 39.0000000  0  5                                             
G26  21859172.917 7 114871911.162 7     -3048.715 7        47.641               
G16  20567923.679 7 108086372.301 7     -1074.950 7        47.451               
G18  22236361.286 8 116854032.666 8     -2836.352 8        48.018               
G27  20981666.155 8 110260608.748 8      1407.556 8        48.720               
G23  21746347.727 7 114279022.841 7       810.336 7        47.589               
> 2025 01 06 18 48 40.0000000  0  5                                             
G26  21859753.606 7 114874960.706 7     -3049.982 7        47.712               
G16  20568130.361 7 108087447.811 7     -1076.353 7        47.315               
G18  22236899.778 8 116856868.663 8     -2836.546 8        48.616               
G27  20981398.789 8 110259202.066 8      1407.483 8        49.224               
G23  21746190.078 8 114278212.277 8       808.800 8        48.024               
> 2025 01 06 18 48 41.0000000  0  5                                             
G26  21860331.080 8 114878010.744 8     -3050.544 8        48.068               
G16  20568334.711 7 108088524.046 7     -1077.418 7        46.629               
G18  22237436.546 8 116859705.044 8     -2836.494 8        48.384               
G27  20981132.067 8 110257795.819 8      1406.783 8        49.553               
G23  21746036.181 7 114277402.427 7       808.950 7        47.104               
> 2025 01 06 18 48 42.0000000  0  5                                             
G26  21860910.509 8 114881061.352 8     -3052.323 8        48.126               
G16  20568538.588 7 108089601.076 7     -1077.225 7        47.033               
G18  22237973.599 8 116862541.899 8     -2836.826 8        48.645               
G27  20980863.702 8 110256390.092 8      1405.333 8        49.862               
G23  21745880.175 7 114276593.358 7       809.153 7        47.432               
> 2025 01 06 18 48 43.0000000  0  5                                             
G26  21861490.708 8 114884112.337 8     -3051.051 8        48.066               
G16  20568742.250 7 108090678.710 7     -1077.301 7        47.105               
G18  22238517.291 7 116865379.038 7     -2837.987 7        47.822               
G27  20980595.434 8 110254984.687 8      1405.127 8        49.788               
G23  21745726.332 8 114275784.900 8       808.512 8        48.140               
> 2025 01 06 18 48 44.0000000  0  5                                             
G26  21862069.199 8 114887163.401 8     -3051.703 8        48.148               
G16  20568944.375 7 108091756.644 7     -1079.674 7        47.430               
G18  22239054.613 8 116868216.131 8     -2836.394 8        48.046               
G27  20980322.833 8 110253579.307 8      1406.539 8        49.905               
G23  21745575.258 8 114274976.723 8       808.078 8        48.754               
> 2025 01 06 18 48 45.0000000  0  5                                             
G26  21862648.585 8 114890214.772 8     -3052.448 8        48.357               
G16  20569149.270 7 108092835.113 7     -1078.234 7        46.688               
G18  22239593.980 7 116871053.428 7     -2838.230 7        47.427               
G27  20980057.505 8 110252174.169 8      1405.373 8        49.089               
G23  21745416.903 8 114274169.078 8       806.250 8        48.100               
> 2025 01 06 18 48 46.0000000  0  5                                             
G26  21863225.754 8 114893266.334 8     -3051.719 8        48.200               
G16  20569352.942 7 108093913.990 7     -1079.606 7        46.956               
G18  22240132.418 7 116873890.803 7     -2837.871 7        47.758               
G27  20979790.131 8 110250769.178 8      1404.733 8        49.331               
G23  21745261.898 7 114273361.830 7       806.103 7        46.730               
> 2025 01 06 18 48 47.0000000  0  5                                             
G26  21863806.524 8 114896318.163 8     -3054.499 8        48.032               
G16  20569555.004 7 108094993.343 7     -1080.658 7        47.859               
G18  22240670.759 7 116876728.329 7     -2836.774 7        47.952               
G27  20979519.835 8 110249364.365 8      1404.398 8        49.832               
G23  21745108.278 7 114272555.053 7       806.176 7        47.722               
> 2025 01 06 18 48 48.0000000  0  5                                             
G26  21864385.266 8 114899370.203 8     -3053.655 8        48.144               
G16  20569765.117 7 108096073.139 7     -1079.760 7        47.748               
G18  22241207.115 7 116879565.966 7     -2838.492 7        47.908               
G27  20979253.479 8 110247959.734 8      1403.791 8        50.281               
G23  21744957.481 7 114271748.707 7       807.288 7        47.827               
> 2025 01 06 18 48 49.0000000  0  5                                             
G26  21864968.118 7 114902422.657 7     -3054.346 7        47.651               
G16  20569970.933 7 108097153.574 7     -1082.448 7        47.610               
G18  22241745.000 8 116882403.908 8     -2837.228 8        48.061               
G27  20978987.829 8 110246555.454 8      1402.758 8        49.975               
G23  21744801.020 8 114270942.995 8       806.321 8        48.789               
> 2025 01 06 18 48 50.0000000  0  5                                             
G26  21865549.513 7 114905475.545 7     -3052.296 7        47.957               
G16  20570170.565 8 108098234.667 8     -1082.440 8        48.138               
G18  22242282.866 7 116885242.177 7     -2838.999 7        47.507               
G27  20978716.033 8 110245151.552 8      1404.527 8        49.428               
G23  21744643.558 8 114270137.933 8       805.035 8        48.297               
> 2025 01 06 18 48 51.0000000  0  5                                             
G26  21866127.576 7 114908528.891 7     -3054.459 7        47.996               
G16  20570377.935 7 108099316.438 7     -1082.765 7        47.807               
G18  22242823.127 8 116888080.797 8     -2840.081 8        48.067               
G27  20978450.615 8 110243748.050 8      1402.763 8        49.100               
G23  21744492.109 7 114269333.544 7       804.263 7        47.814               
> 2025 01 06 18 48 52.0000000  0  5                                             
G26  21866706.863 7 114911582.523 7     -3052.320 7        47.916               
G16  20570582.813 7 108100398.717 7     -1082.353 7        47.724               
G18  22243363.620 7 116890919.602 7     -2838.133 7        47.456               
G27  20978179.506 8 110242344.783 8      1402.902 8        49.207               
G23  21744337.489 7 114268529.659 7       803.371 7        47.648               
> 2025 01 06 18 48 53.0000000  0  5                                             
G26  21867289.581 8 114914636.602 8     -3054.466 8        48.082               
G16  20570787.511 7 108101481.665 7     -1083.391 7        46.569               
G18  22243904.283 7 116893758.739 7     -2839.235 7        47.443               
G27  20977911.551 8 110240941.901 8      1403.199 8        49.774               
G23  21744183.493 8 114267726.433 8       803.176 8        48.116               
> 2025 01 06 18 48 54.0000000  0  5                                             
G26  21867868.055 8 114917691.445 8     -3054.828 8        48.385               
G16  20570991.638 7 108102565.603 7     -1085.200 7        46.302               
G18  22244443.535 7 116896598.524 7     -2840.759 7        46.951               
G27  20977642.238 8 110239539.722 8      1402.612 8        50.225               
G23  21744031.803 8 114266924.181 8       802.176 8        48.792               
> 2025 01 06 18 48 55.0000000  0  5                                             
G26  21868447.270 8 114920746.361 8     -3055.135 8        48.094               
G16  20571200.366 7 108103649.844 7     -1083.811 7        46.994               
G18  22244983.027 7 116899438.284 7     -2840.287 7        47.390               
G27  20977375.436 8 110238137.571 8      1402.668 8        49.479               
G23  21743877.576 8 114266122.226 8       800.372 8        48.508               
> 2025 01 06 18 48 56.0000000  0  5                                             
G26  21869028.612 7 114923801.014 7     -3054.759 7        47.130               
G16  20571404.046 7 108104734.044 7     -1084.457 7        47.238               
G18  22245519.143 7 116902277.676 7     -2838.955 7        47.107               
G27  20977105.480 8 110236735.097 8      1402.865 8        49.409               
G23  21743721.829 8 114265320.228 8       802.136 8        48.038               
> 2025 01 06 18 48 57.0000000  0  5                                             
G26  21869611.366 8 114926856.537 8     -3054.356 8        48.176               
G16  20571608.343 7 108105819.330 7     -1085.174 7        47.350               
G18  22246060.226 7 116905117.815 7     -2838.811 7        47.404               
G27  20976840.009 8 110235333.425 8      1401.790 8        49.514               
G23  21743570.130 8 114264519.313 8       799.523 8        48.024               
> 2025 01 06 18 48 58.0000000  0  5                                             
G26  21870187.936 8 114929912.744 8     -3056.186 8        48.248               
G16  20571814.176 7 108106905.533 7     -1086.664 7        46.735               
G18  22246596.797 7 116907958.539 7     -2840.338 7        46.882               
G27  20976570.642 8 110233932.392 8      1400.782 8        49.576               
G23  21743413.696 8 114263719.301 8       800.006 8        48.182               
> 2025 01 06 18 48 59.0000000  0  5                                             
G26  21870769.636 7 114932969.116 7     -3055.747 7        47.716               
G16  20572019.125 7 108107992.133 7     -1086.443 7        46.667               
G18  22247141.159 7 116910799.325 7     -2842.104 7        46.984               
G27  20976304.760 8 110232531.473 8      1401.136 8        50.147               
G23  21743260.424 7 114262919.664 7       799.719 7        47.530               
> 2025 01 06 18 49 00.0000000  0  5                                             
G26  21871349.941 7 114936026.025 7     -3057.364 7        47.781               
G16  20572224.208 7 108109079.476 7     -1087.352 7        47.665               
G18  22247680.919 7 116913640.525 7     -2841.308 7        47.035               
G27  20976038.413 8 110231131.024 8      1400.524 8        49.889               
G23  21743108.636 8 114262120.780 8       800.142 8        48.569               
> 2025 01 06 18 49 01.0000000  0  5                                             
G26  21871930.658 7 114939083.099 7     -3057.734 7        47.473               
G16  20572432.087 8 108110167.215 8     -1088.581 8        48.198               
G18  22248214.345 7 116916481.788 7     -2842.357 7        46.575               
G27  20975769.529 8 110229730.691 8      1400.253 8        49.214               
G23  21742955.695 8 114261322.283 8       798.826 8        48.129               
> 2025 01 06 18 49 02.0000000  0  5                                             
G26  21872510.338 8 114942140.793 8     -3058.010 8        48.005               
G16  20572637.545 8 108111255.816 8     -1088.751 8        48.080               
G18  22248755.705 7 116919323.588 7     -2843.419 7        46.806               
G27  20975505.371 8 110228330.937 8      1399.314 8        49.848               
G23  21742801.494 8 114260524.636 8       797.315 8        48.274               
> 2025 01 06 18 49 03.0000000  0  5                                             
G26  21873090.053 7 114945199.103 7     -3057.816 7        46.702               
G16  20572845.040 7 108112345.229 7     -1090.088 7        47.613               
G18  22249297.369 7 116922165.871 7     -2842.846 7        46.303               
G27  20975235.790 8 110226931.724 8      1398.183 8        49.351               
G23  21742649.572 8 114259727.798 8       796.273 8        48.486               
> 2025 01 06 18 49 04.0000000  0  5                                             
G26  21873673.102 7 114948257.961 7     -3058.712 7        47.198               
G16  20573051.347 7 108113435.414 7     -1090.753 7        47.288               
G18  22249838.461 7 116925008.597 7     -2843.881 7        46.893               
G27  20974967.531 8 110225532.999 8      1398.459 8        50.302               
G23  21742497.372 8 114258931.731 8       795.751 8        48.580               
> 2025 01 06 18 49 05.0000000  0  5                                             
G26  21874255.024 8 114951317.116 8     -3059.869 8        48.212               
G16  20573258.208 7 108114526.127 7     -1090.386 7        47.197               
G18  22250378.400 7 116927851.514 7     -2842.005 7        47.112               
G27  20974703.347 8 110224134.528 8      1398.867 8        50.120               
G23  21742343.833 8 114258136.174 8       796.674 8        48.496               
> 2025 01 06 18 49 06.0000000  0  5                                             
G26  21874834.838 7 114954376.906 7     -3059.619 7        47.551               
G16  20573463.353 7 108115617.685 7     -1092.514 7        47.193               
G18  22250916.016 7 116930694.956 7     -2844.024 7        47.653               
G27  20974433.820 8 110222736.639 8      1398.092 8        49.092               
G23  21742195.341 8 114257341.492 8       794.928 8        48.492               
> 2025 01 06 18 49 07.0000000  0  5                                             
G26  21875415.367 8 114957436.800 8     -3061.001 8        48.174               
G16  20573668.445 7 108116709.586 7     -1090.654 7        47.686               
G18  22251457.493 8 116933538.394 8     -2844.432 8        48.189               
G27  20974167.106 8 110221338.794 8      1397.134 8        49.677               
G23  21742038.040 8 114256547.105 8       795.240 8        48.484               
> 2025 01 06 18 49 08.0000000  0  5                                             
G26  21876000.640 8 114960496.670 8     -3059.749 8        48.144               
G16  20573878.415 7 108117801.689 7     -1092.690 7        47.910               
G18  22251998.093 8 116936381.705 8     -2844.125 8        48.104               
G27  20973901.885 8 110219940.882 8      1396.429 8        49.942               
G23  21741887.315 8 114255752.935 8       792.834 8        49.531               
> 2025 01 06 18 49 09.0000000  0  5                                             
G26  21876578.212 8 114963557.106 8     -3061.572 8        48.775               
G16  20574085.088 7 108118894.571 7     -1092.524 7        47.788               
G18  22252537.094 8 116939225.474 8     -2843.185 8        48.013               
G27  20973632.662 8 110218543.463 8      1397.289 8        49.896               
G23  21741737.823 8 114254959.544 8       793.468 8        48.528               
> 2025 01 06 18 49 10.0000000  0  5                                             
G26  21877157.651 7 114966618.349 7     -3060.627 7        47.994               
G16  20574292.243 8 108119988.482 8     -1094.643 8        48.156               
G18  22253079.991 7 116942069.934 7     -2843.926 7        47.848               
G27  20973364.966 8 110217146.802 8      1396.083 8        49.924               
G23  21741584.712 7 114254167.165 7       793.212 7        47.993               
> 2025 01 06 18 49 11.0000000  0  5                                             
G26  21877741.494 7 114969680.249 7     -3061.560 7        47.781               
G16  20574498.666 7 108121083.280 7     -1093.449 7        47.532               
G18  22253616.776 7 116944914.951 7     -2844.595 7        47.049               
G27  20973097.985 8 110215750.753 8      1395.962 8        50.153               
G23  21741433.638 8 114253375.671 8       789.492 8        48.402               
> 2025 01 06 18 49 12.0000000  0  5                                             
G26  21878323.497 7 114972742.704 7     -3061.164 7        47.925               
G16  20574703.990 7 108122178.869 7     -1095.085 7        47.211               
G18  22254157.028 7 116947760.428 7     -2845.875 7        47.168               
G27  20972831.951 8 110214355.200 8      1394.185 8        49.626               
G23  21741282.127 8 114252584.950 8       790.934 8        48.525               
> 2025 01 06 18 49 13.0000000  0  5                                             
G26  21878903.990 7 114975805.125 7     -3062.348 7        47.779               
G16  20574910.619 7 108123274.634 7     -1095.422 7        46.857               
G18  22254698.245 7 116950605.745 7     -2844.491 7        46.714               
G27  20972565.971 8 110212959.561 8      1395.861 8        49.782               
G23  21741130.750 8 114251794.420 8       790.117 8        48.779               
> 2025 01 06 18 49 14.0000000  0  5                                             
G26  21879487.923 8 114978867.749 8     -3062.561 8        48.490               
G16  20575120.374 7 108124370.836 7     -1095.152 7        46.839               
G18  22255239.605 7 116953451.163 7     -2845.168 7        47.050               
G27  20972299.713 8 110211564.077 8      1394.220 8        49.742               
G23  21740980.283 8 114251004.305 8       790.317 8        48.926               
> 2025 01 06 18 49 15.0000000  0  5                                             
G26  21880067.621 8 114981930.687 8     -3063.459 8        48.681               
G16  20575325.314 7 108125467.562 7     -1096.606 7        47.284               
G18  22255777.213 7 116956296.775 7     -2847.180 7        46.927               
G27  20972031.329 8 110210168.831 8      1395.375 8        49.644               
G23  21740827.727 8 114250214.701 8       789.427 8        48.446               
> 2025 01 06 18 49 16.0000000  0  5                                             
G26  21880649.186 8 114984993.909 8     -3063.126 8        48.195               
G16  20575532.961 7 108126564.804 7     -1095.893 7        47.606               
G18  22256319.654 7 116959142.583 7     -2845.738 7        47.452               
G27  20971766.671 8 110208773.840 8      1393.362 8        48.890               
G23  21740676.573 8 114249425.627 8       788.603 8        49.468               
> 2025 01 06 18 49 17.0000000  0  5                                             
G26  21881234.951 8 114988057.675 8     -3064.348 8        48.046               
G16  20575742.252 7 108127662.821 7     -1099.874 7        47.997               
G18  22256858.905 7 116961988.817 7     -2846.177 7        47.679               
G27  20971499.887 8 110207379.335 8      1393.308 8        49.133               
G23  21740529.654 8 114248637.311 8       789.140 8        48.667               
> 2025 01 06 18 49 18.0000000  0  5                                             
G26  21881811.646 8 114991122.246 8     -3065.064 8        48.642               
G16  20575948.916 7 108128761.863 7     -1099.675 7        47.859               
G18  22257400.122 7 116964835.752 7     -2846.903 7        47.793               
G27  20971229.359 8 110205985.570 8      1394.189 8        49.324               
G23  21740376.864 8 114247850.025 8       786.543 8        48.627               
> 2025 01 06 18 49 19.0000000  0  5                                             
G26  21882397.018 8 114994187.355 8     -3064.502 8        48.407               
G16  20576157.599 7 108129861.655 7     -1098.602 7        47.548               
G18  22257940.821 7 116967683.111 7     -2847.525 7        47.835               
G27  20970963.986 8 110204592.301 8      1391.956 8        49.389               
G23  21740223.227 8 114247063.481 8       785.609 8        48.329               
> 2025 01 06 18 49 20.0000000  0  5                                             
G26  21882978.815 8 114997252.578 8     -3064.219 8        48.523               
G16  20576364.791 7 108130961.798 7     -1101.217 7        47.536               
G18  22258479.527 8 116970530.490 8     -2846.443 8        48.477               
G27  20970697.675 8 110203199.090 8      1393.010 8        49.232               
G23  21740072.519 8 114246277.284 8       784.986 8        48.802               
> 2025 01 06 18 49 21.0000000  0  5                                             
G26  21883559.880 7 115000318.128 7     -3066.976 7        47.844               
G16  20576570.919 7 108132062.491 7     -1103.133 7        47.158               
G18  22259021.682 8 116973378.070 8     -2848.195 8        48.082               
G27  20970431.641 8 110201806.152 8      1391.423 8        49.238               
G23  21739924.340 8 114245491.614 8       785.983 8        48.927               
> 2025 01 06 18 49 22.0000000  0  5                                             
G26  21884140.382 8 115003384.104 8     -3066.276 8        48.525               
G16  20576781.264 7 108133163.837 7     -1103.284 7        47.672               
G18  22259564.132 7 116976225.986 7     -2846.061 7        47.734               
G27  20970165.491 8 110200413.598 8      1392.178 8        49.024               
G23  21739770.202 8 114244706.611 8       783.757 8        48.760               
> 2025 01 06 18 49 23.0000000  0  5                                             
G26  21884724.136 8 115006450.179 8     -3067.053 8        48.961               
G16  20576989.528 7 108134265.493 7     -1102.759 7        47.936               
G18  22260105.921 7 116979073.879 7     -2847.908 7        47.969               
G27  20969900.082 8 110199021.060 8      1392.068 8        49.821               
G23  21739622.256 8 114243921.914 8       783.860 8        48.715               
> 2025 01 06 18 49 24.0000000  0  5                                             
G26  21885305.862 8 115009517.156 8     -3066.329 8        48.573               
G16  20577197.166 7 108135368.296 7     -1102.715 7        47.657               
G18  22260647.183 7 116981922.562 7     -2849.328 7        47.947               
G27  20969634.075 8 110197629.398 8      1391.149 8        49.544               
G23  21739474.577 8 114243138.347 8       783.361 8        48.928               
> 2025 01 06 18 49 25.0000000  0  5                                             
G26  21885889.849 8 115012584.502 8     -3066.589 8        48.953               
G16  20577408.780 7 108136471.671 7     -1104.052 7        46.765               
G18  22261187.801 7 116984771.509 7     -2848.626 7        47.502               
G27  20969369.015 8 110196238.042 8      1391.813 8        49.459               
G23  21739323.637 8 114242355.353 8       783.994 8        48.812               
> 2025 01 06 18 49 26.0000000  0  5                                             
G26  21886472.531 8 115015652.039 8     -3069.040 8        48.082               
G16  20577617.016 7 108137575.486 7     -1103.977 7        47.463               
G18  22261728.241 7 116987620.554 7     -2847.719 7        47.189               
G27  20969102.775 8 110194846.836 8      1390.933 8        50.074               
G23  21739173.761 8 114241572.785 8       781.451 8        48.817               
> 2025 01 06 18 49 27.0000000  0  5                                             
G26  21887054.614 7 115018720.202 7     -3067.309 7        47.549               
G16  20577825.396 7 108138680.133 7     -1105.077 7        47.296               
G18  22262271.262 7 116990470.104 7     -2849.903 7        47.947               
G27  20968838.769 8 110193456.192 8      1390.198 8        50.116               
G23  21739021.990 8 114240791.059 8       781.832 8        48.748               
> 2025 01 06 18 49 28.0000000  0  5                                             
G26  21887639.137 8 115021788.592 8     -3069.734 8        48.162               
G16  20578035.473 7 108139785.247 7     -1106.416 7        46.709               
G18  22262812.184 7 116993319.775 7     -2848.936 7        47.065               
G27  20968573.289 8 110192065.732 8      1390.136 8        49.546               
G23  21738871.167 8 114240009.780 8       781.636 8        49.069               
> 2025 01 06 18 49 29.0000000  0  5                                             
G26  21888223.132 8 115024858.050 8     -3070.159 8        48.734               
G16  20578244.612 7 108140891.652 7     -1107.744 7        47.159               
G18  22263351.766 7 116996170.408 7     -2851.086 7        47.897               
G27  20968306.844 8 110190676.293 8      1388.640 8        50.310               
G23  21738719.852 8 114239229.793 8       779.372 8        48.547               
> 2025 01 06 18 49 30.0000000  0  5                                             
G26  21888803.366 8 115027927.958 8     -3070.722 8        48.778               
G16  20578453.858 7 108141998.726 7     -1105.992 7        47.602               
G18  22263891.777 7 116999021.377 7     -2849.751 7        47.619               
G27  20968044.348 8 110189287.234 8      1388.887 8        50.155               
G23  21738571.209 8 114238450.460 8       780.576 8        48.887               
> 2025 01 06 18 49 31.0000000  0  5                                             
G26  21889388.586 8 115030996.983 8     -3069.217 8        48.495               
G16  20578665.142 7 108143105.152 7     -1107.785 7        47.343               
G18  22264432.807 7 117001871.361 7     -2850.717 7        47.686               
G27  20967777.394 8 110187897.263 8      1387.949 8        50.000               
G23  21738420.546 8 114237670.496 8       778.673 8        48.565               
> 2025 01 06 18 49 32.0000000  0  5                                             
G26  21889975.851 8 115034067.040 8     -3070.620 8        48.072               
G16  20578870.966 7 108144212.820 7     -1107.168 7        47.419               
G18  22264975.256 7 117004722.268 7     -2851.323 7        47.860               
G27  20967509.564 8 110186508.249 8      1388.288 8        50.103               
G23  21738276.021 8 114236891.755 8       777.707 8        48.005               
> 2025 01 06 18 49 33.0000000  0  5                                             
G26  21890555.138 8 115037137.231 8     -3071.122 8        48.339               
G16  20579082.830 7 108145320.868 7     -1108.069 7        47.131               
G18  22265517.161 7 117007573.206 7     -2849.927 7        47.661               
G27  20967243.566 8 110185119.329 8      1388.622 8        50.226               
G23  21738126.779 8 114236113.389 8       778.060 8        48.595               
> 2025 01 06 18 49 34.0000000  0  5                                             
G26  21891138.312 8 115040208.352 8     -3070.159 8        48.235               
G16  20579294.069 7 108146430.055 7     -1111.730 7        46.598               
G18  22266055.805 8 117010424.954 8     -2851.192 8        48.351               
G27  20966982.124 8 110183731.280 8      1387.019 8        50.092               
G23  21737976.197 8 114235336.156 8       775.885 8        48.567               
