     3.04           OBSERVATION DATA    M: Mixed            RINEX VERSION / TYPE
CONVBIN demo5 b34g                      20250106 185316 UTC PGM / RUN BY / DATE 
log: sortie.rtcm3                                           COMMENT             
format: RTCM 3                                              COMMENT             
format: RTCM 3                                              COMMENT             
log: sortie.rtcm3                                           COMMENT             
0000                                                        MARKER NAME         
                                                            MARKER NUMBER       
                                                            MARKER TYPE         
                                                            OBSERVER / AGENCY   
                    RTKBase U-blox_ZED-F2.4.1 1.13          REC # / TYPE / VERS 
                    ADVNULLANTENNA                          ANT # / TYPE        
  4313726.9591   452872.5035  4661056.3655                  APPROX POSITION XYZ 
        0.0000        0.0000        0.0000                  ANTENNA: DELTA H/E/N
G    4 C1C L1C C2X L2X                                      SYS / # / OBS TYPES 
R    4 C1C L1C C2C L2C                                      SYS / # / OBS TYPES 
E    4 C1B L1B C7X L7X                                      SYS / # / OBS TYPES 
C    4 C2I L2I C7I L7I                                      SYS / # / OBS TYPES 
  2025    01    06    18    43   47.0000000     GPS         TIME OF FIRST OBS   
  2025    01    06    18    49   37.0000000     GPS         TIME OF LAST OBS    
G L1C                                                       SYS / PHASE SHIFT   
G L2X  0.00000                                              SYS / PHASE SHIFT   
R L1C                                                       SYS / PHASE SHIFT   
R L2C                                                       SYS / PHASE SHIFT   
E L1X  0.00000                                              SYS / PHASE SHIFT   
E L7X  0.00000                                              SYS / PHASE SHIFT   
C L2I                                                       SYS / PHASE SHIFT   
C L7I                                                       SYS / PHASE SHIFT   
 11 R06 -4 R07  5 R08  6 R13 -2 R14 -7 R15  0 R17  4 R22 -3 GLONASS SLOT / FRQ #
    R23  3 R24  2 R26 -6                                    GLONASS SLOT / FRQ #
 C1C    0.000 C1P    0.000 C2C    0.000 C2P    0.000        GLONASS COD/PHS/BIS 
                                                            END OF HEADER       
> 2025 01 06 18 43 47.0000000  0 17                     
E02  24926921.018   130991769.6271   24926921.530   100370496.6911 
E10  24359354.515   128008953.0581   24359354.708    98084943.4081 
E11  23305180.727   122469873.5941   23305178.519    93840824.6511 
E12  26269426.186   138046527.9271   26269424.572   105776636.0231 
E14  21955255.685   115376201.3571   21955256.739    88404898.1311 
E16  24377168.951   128103538.9401   24377170.245    98157420.7191 
E24  26647189.976   140032270.5661   26647191.103   107297243.0141 
E25  23465956.630   123314066.4281   23465958.560    94488383.3211 
E36  25150601.829   132167309.9831   25150604.916   101271620.2301 
C08  38571227.140   200850038.2431   38571217.505   155309899.8941 
C13  38347809.385   199687155.4471   38347808.559   154410961.5741 
C27  23363764.023   121662299.7161                                 
C29  24171681.805   125868348.0881                                 
C30  21570311.029   112322070.3501                                 
C32  25902230.012   134879265.7711                                 
C33  26657824.837   138813782.5451                                 
C36  22882537.204   119154969.2081                                 
> 2025 01 06 18 43 48.0000000  0 38                     
G26  21504253.404   113005343.940    21504253.520    88056265.406  
G10  23268159.846   122274750.112    23268159.081    95279477.351  
G27  20872959.161   109687754.468    20872957.912    85471498.340  
G07  25001292.295   131382468.231    25001290.070   102375889.953  
G08  23372601.108   122824070.396    23372601.253    95706840.449  
G23  21606817.025   113544079.396    21606815.046    88476440.566  
G29  25440963.920   133693008.820    25440962.967   104176775.143  
G15  24782666.663   130234211.599    24782665.943   101480654.886  
G31  25710421.333   135108953.766    25710425.357   105279818.571  
G18  21892392.614   115046047.522    21892389.937    89645699.210  
G16  20324064.529   106804228.507                                  
R14  19797258.678   105529995.782    19797260.027    82078782.903  
R22  24129680.815   128806017.035    24129680.061   100182636.762  
R15  22630109.114   120927944.350    22630109.765    94055076.598  
R06  24339488.940   129879742.792                                  
R24  19963786.333   106755279.624    19963785.373    83032532.789  
R13  21509680.489   114861326.104                                  
R07  22706200.702   121547739.341    22706198.790    94537624.345  
R08  23098418.971   123691770.949    23098415.412    96204095.023  
R23  20429490.802   109283982.169                                  
R17  23802314.122   127370660.429    23802314.160    99066223.059  
E02  24926512.255   130989621.035    24926512.594   100368850.369  
E10  24359617.550   128010334.861    24359617.724    98086002.188  
E11  23305168.667   122469809.684    23305166.412    93840775.672  
E12  26269853.538   138048773.485    26269851.854   105778356.640  
E14  21956171.498   115381013.952    21956172.588    88408585.700  
E16  24377520.869   128105388.265    24377522.188    98158837.738  
E24  26647693.958   140034919.033    26647695.097   107299272.356  
E25  23466071.763   123314671.030    23466073.737    94488846.579  
E36  25150134.471   132164853.499    25150137.512   101269737.989  
C08  38571337.444   200850612.948    38571327.894   155310344.288  
C13  38347867.102   199687455.622    38347866.085   154411193.688  
C27  23364159.867   121664361.720                                  
C29  24171168.210   125865673.338                                  
C30  21570254.531   112321777.162                                  
C32  25901616.743   134876072.517                                  
C33  26658064.607   138815031.509                                  
C36  22882796.250   119156317.781                                  
> 2025 01 06 18 43 49.0000000  0 38                     
G26  21504701.129   113007696.695    21504701.364    88058098.722  
G10  23267502.749   122271296.838    23267501.938    95276786.472  
G27  20872562.945   109685672.585    20872561.711    85469876.089  
G07  25000968.369   131380765.884    25000966.142   102374563.458  
G08  23371973.946   122820774.536    23371974.147    95704272.248  
G23  21606519.312   113542515.066    21606517.245    88475221.612  
G29  25441532.877   133695998.376    25441531.803   104179104.675  
G15  24782299.124   130232280.839    24782298.538   101479150.354  
G31  25711030.135   135112152.095    25711034.110   105282310.832  
G18  21892805.701   115048218.128    21892802.908    89647390.598  
G16  20324124.842   106804545.324                                  
R14  19797175.213   105529551.258    19797176.685    82078437.164  
R22  24130322.861   128809443.664    24130321.982   100185301.923  
R15  22629376.624   120924030.035    22629377.304    94052032.126  
R06  24339936.362   129882129.836                                  
R24  19963473.518   106753606.932    19963472.519    83031231.809  
R13  21510389.272   114865110.959                                  
R07  22706096.140   121547178.974    22706094.160    94537188.499  
R08  23097790.412   123688404.872    23097786.889    96201476.963  
R23  20429897.704   109286158.859                                  
R17  23801628.559   127366992.084    23801628.705    99063369.894  
E02  24926103.414   130987472.883    24926103.930   100367204.386  
E10  24359880.368   128011717.084    24359880.775    98087061.298  
E11  23305156.589   122469746.289    23305154.162    93840727.100  
E12  26270280.941   138051019.358    26270279.210   105780077.500  
E14  21957087.321   115385827.338    21957088.647    88412273.866  
E16  24377873.047   128107238.087    24377874.164    98160255.127  
E24  26648198.062   140037567.832    26648199.160   107301301.963  
E25  23466187.027   123315276.213    23466188.820    94489310.292  
E36  25149667.086   132162397.449    25149670.065   101267856.086  
C08  38571448.009   200851187.940    38571438.314   155310788.911  
C13  38347924.701   199687756.117    38347923.818   154411426.048  
C27  23364556.051   121666424.053                                  
C29  24170654.730   125862998.915                                  
C30  21570198.285   112321484.453                                  
C32  25901003.598   134872879.554                                  
C33  26658304.539   138816281.136                                  
C36  22883055.275   119157667.014                                  
> 2025 01 06 18 43 50.0000000  0 38                     
G26  21505148.989   113010049.937    21505149.170    88059932.420  
G10  23266845.634   122267843.835    23266844.794    95274095.831  
G27  20872166.810   109683591.084    20872165.545    85468254.146  
G07  25000644.657   131379064.066    25000642.322   102373237.379  
G08  23371346.775   122817478.817    23371346.961    95701704.151  
G23  21606221.772   113540951.405    21606219.767    88474003.169  
G29  25442101.832   133698988.050    25442100.732   104181434.297  
G15  24781931.744   130230350.640    24781931.186   101477646.344  
G31  25711638.836   135115350.454    25711642.899   105284802.992  
G18  21893218.787   115050389.115    21893215.902    89649082.267  
G16  20324185.313   106804862.828                                  
R14  19797092.008   105529107.707    19797093.392    82078092.186  
R22  24130964.792   128812870.281    24130963.904   100187967.063  
R15  22628644.273   120920116.169    22628644.940    94048988.022  
R06  24340383.769   129884517.535                                  
R24  19963160.758   106751934.759    19963159.831    83029931.230  
R13  21511098.182   114868896.284                                  
R07  22705991.709   121546619.500    22705989.599    94536753.357  
R08  23097161.902   123685039.312    23097158.433    96198859.321  
R23  20430304.714   109288335.892                                  
R17  23800943.086   127363323.932    23800943.267    99060516.909  
E02  24925694.580   130985325.073    24925695.166   100365558.658  
E10  24360143.713   128013099.636    24360143.842    98088120.659  
E11  23305144.727   122469683.312    23305142.231    93840678.849  
E12  26270708.272   138053265.414    26270706.511   105781798.512  
E14  21958003.502   115390641.386    21958004.685    88415962.574  
E16  24378225.059   128109088.281    24378226.180    98161672.810  
E24  26648702.206   140040216.869    26648703.232   107303331.740  
E25  23466302.169   123315881.860    23466304.041    94489774.355  
E36  25149199.777   132159941.709    25149202.748   101265974.419  
C08  38571558.445   200851763.161    38571548.793   155311233.703  
C13  38347982.537   199688056.810    38347981.516   154411658.562  
C27  23364952.194   121668486.584                                  
C29  24170141.282   125860324.706                                  
C30  21570142.207   112321192.111                                  
C32  25900390.469   134869686.776                                  
C33  26658544.409   138817531.309                                  
C36  22883314.473   119159016.779                                  
> 2025 01 06 18 43 51.0000000  0 38                     
G26  21505596.920   113012403.517    21505597.049    88061766.384  
G10  23266188.584   122264391.002    23266187.743    95271405.318  
G27  20871770.707   109681509.845    20871769.521    85466632.400  
G07  25000320.852   131377362.666    25000318.613   102371911.593  
G08  23370719.752   122814183.122    23370719.853    95699136.075  
G23  21605924.328   113539388.257    21605922.366    88472785.135  
G29  25442670.767   133701977.656    25442669.690   104183763.849  
G15  24781564.405   130228420.789    24781563.930   101476142.571  
G31  25712247.431   135118548.486    25712251.552   105287294.990  
G18  21893632.010   115052560.336    21893629.091    89650774.132  
G16  20324245.844   106805180.872                                  
R14  19797009.010   105528664.967    19797010.334    82077747.828  
R22  24131606.756   128816296.765    24131605.885   100190632.115  
R15  22627911.928   120916202.643    22627912.572    94045944.166  
R06  24340831.336   129886905.733                                  
R24  19962848.093   106750262.957    19962847.153    83028630.938  
R13  21511807.113   114872681.968                                  
R07  22705887.362   121546060.767    22705885.388    94536318.791  
R08  23096533.357   123681674.096    23096530.094    96196241.916  
R23  20430711.690   109290513.144                                  
R17  23800257.616   127359655.840    23800257.712    99057663.943  
E02  24925285.796   130983177.433    24925286.446   100363913.075  
E10  24360406.628   128014482.349    24360406.931    98089180.144  
E11  23305132.692   122469620.609    23305130.367    93840630.799  
E12  26271135.598   138055511.482    26271134.057   105783519.534  
E14  21958919.992   115395456.067    21958920.847    88419651.737  
E16  24378577.019   128110938.710    24378578.302    98163090.667  
E24  26649206.256   140042865.956    26649207.439   107305361.571  
E25  23466417.460   123316487.814    23466419.348    94490238.662  
E36  25148732.417   132157486.137    25148735.510   101264092.879  
C08  38571668.885   200852338.423    38571659.344   155311678.529  
C13  38348040.367   199688357.556    38348039.301   154411891.116  
C27  23365348.322   121670549.171                                  
C29  24169627.845   125857650.541                                  
C30  21570086.114   112320899.970                                  
C32  25899777.318   134866494.014                                  
C33  26658784.542   138818781.870                                  
C36  22883573.854   119160366.949                                  
> 2025 01 06 18 43 52.0000000  0 38                     
G26  21506044.877   113014757.474    21506044.883    88063600.631  
G10  23265531.512   122260938.322    23265530.641    95268714.924  
G27  20871374.701   109679428.875    20871373.597    85465010.851  
G07  24999997.314   131375661.681    24999994.979   102370586.157  
G08  23370092.550   122810887.453    23370092.725    95696568.038  
G23  21605626.877   113537825.658    21605625.059    88471567.530  
G29  25443239.791   133704967.219    25443238.575   104186093.424  
G15  24781197.110   130226491.390    24781196.970   101474639.188  
G31  25712856.195   135121746.347    25712860.302   105289786.754  
G18  21894045.274   115054731.805    21894042.297    89652466.190  
G16  20324306.412   106805499.490                                  
R14  19796925.976   105528223.032    19796927.504    82077404.106  
R22  24132248.692   128819723.118    24132247.818   100193297.056  
R15  22627179.648   120912289.479    22627180.378    94042900.585  
R06  24341278.850   129889294.460                                  
R24  19962535.424   106748591.550    19962534.595    83027330.961  
R13  21512516.161   114876467.998                                  
R07  22705783.114   121545502.821    22705781.190    94535884.837  
R08  23095904.951   123678309.222    23095901.758    96193624.802  
R23  20431118.804   109292690.631                                  
R17  23799572.226   127355987.824    23799572.263    99054811.062  
E02  24924877.254   130981030.009    24924877.831   100362267.648  
E10  24360669.870   128015865.265    24360670.198    98090239.780  
E11  23305120.947   122469558.190    23305118.471    93840582.983  
E12  26271563.028   138057757.626    26271561.489   105785240.600  
E14  21959836.308   115400271.236    21959837.147    88423341.273  
E16  24378929.356   128112789.373    24378930.452    98164508.717  
E24  26649710.309   140045515.156    26649711.578   107307391.478  
E25  23466532.932   123317094.100    23466534.736    94490703.220  
E36  25148265.109   132155030.744    25148268.122   101262211.479  
C08  38571779.462   200852913.781    38571769.868   155312123.434  
C13  38348098.202   199688658.350    38348097.102   154412123.724  
C27  23365744.396   121672611.830                                  
C29  24169114.297   125854976.454                                  
C30  21570030.019   112320608.076                                  
C32  25899164.110   134863301.310                                  
C33  26659024.753   138820032.852                                  
C36  22883833.148   119161717.536                                  
> 2025 01 06 18 43 53.0000000  0 38                     
G26  21506492.961   113017112.037    21506492.847    88065435.351  
G10  23264874.555   122257486.067    23264873.685    95266024.851  
G27  20870978.810   109677348.426    20870977.715    85463389.735  
G07  24999673.844   131373961.378    24999671.457   102369261.242  
G08  23369465.488   122807592.105    23369465.689    95694000.235  
G23  21605329.621   113536263.844    21605327.788    88470350.527  
G29  25443808.758   133707957.024    25443807.502   104188423.132  
G15  24780830.037   130224562.697    24780829.966   101473136.256  
G31  25713464.741   135124944.238    25713468.969   105292278.619  
G18  21894458.561   115056903.797    21894455.617    89654158.651  
G16  20324367.274   106805818.920                                  
R14  19796843.303   105527782.164    19796844.715    82077061.208  
R22  24132890.689   128823149.583    24132889.783   100195962.080  
R15  22626447.504   120908376.919    22626448.192    94039857.491  
R06  24341726.725   129891684.016                                  
R24  19962222.993   106746920.795    19962222.136    83026031.487  
R13  21513225.298   114880254.596                                  
R07  22705679.115   121544945.924    22705677.245    94535451.696  
R08  23095276.638   123674944.959    23095273.598    96191008.146  
R23  20431525.909   109294868.607                                  
R17  23798886.911   127352320.128    23798886.715    99051958.404  
E02  24924468.608   130978883.041    24924469.355   100360622.566  
E10  24360933.151   128017248.630    24360933.366    98091299.756  
E11  23305109.064   122469496.336    23305106.689    93840535.585  
E12  26271990.646   138060004.055    26271988.997   105786961.906  
E14  21960752.785   115405087.195    21960753.594    88427031.425  
E16  24379281.685   128114640.546    24379282.737    98165927.143  
E24  26650214.506   140048164.708    26650215.685   107309421.646  
E25  23466648.304   123317700.985    23466650.238    94491168.234  
E36  25147797.898   132152575.794    25147801.081   101260330.417  
C08  38571890.024   200853489.438    38571880.475   155312568.572  
C13  38348156.100   199688959.495    38348154.913   154412356.588  
C27  23366140.489   121674674.806                                  
C29  24168600.799   125852302.704                                  
C30  21569974.080   112320316.657                                  
C32  25898550.983   134860108.898                                  
C33  26659265.121   138821284.520                                  
C36  22884092.766   119163068.777                                  
> 2025 01 06 18 43 54.0000000  0 38                     
G26  21506940.991   113019466.996    21506941.027    88067270.398  
G10  23264217.639   122254034.016    23264216.818    95263334.936  
G27  20870583.013   109675268.295    20870581.881    85461768.854  
G07  24999350.366   131372261.539    24999348.001   102367936.713  
G08  23368838.485   122804296.831    23368838.519    95691432.503  
G23  21605032.529   113534702.614    21605030.643    88469133.989  
G29  25444377.814   133710946.846    25444376.408   104190752.816  
G15  24780463.013   130222634.419    24780463.080   101471633.700  
G31  25714073.280   135128141.902    25714077.492   105294770.327  
G18  21894871.900   115059076.080    21894868.967    89655851.330  
G16  20324428.123   106806138.965                                  
R14  19796760.611   105527342.186    19796762.265    82076718.992  
R22  24133532.664   128826575.949    24133531.666   100198627.022  
R15  22625715.542   120904464.782    22625716.098    94036814.716  
R06  24342174.697   129894074.179                                  
R24  19961910.705   106745250.461    19961909.803    83024732.330  
R13  21513934.618   114884041.592                                  
R07  22705575.221   121544389.854    22705573.393    94535019.189  
R08  23094648.312   123671581.132    23094645.447    96188391.848  
R23  20431933.096   109297046.867                                  
R17  23798201.442   127348652.554    23798201.284    99049105.853  
E02  24924059.993   130976736.328    24924060.760   100358977.676  
E10  24361196.180   128018632.211    24361196.555    98092359.904  
E11  23305097.396   122469434.792    23305094.947    93840488.429  
E12  26272418.159   138062250.625    26272416.395   105788683.291  
E14  21961669.599   115409903.783    21961670.075    88430722.051  
E16  24379633.904   128116492.008    24379635.036    98167345.792  
E24  26650718.720   140050814.399    26650719.951   107311451.924  
E25  23466763.841   123318308.239    23466765.773    94491633.530  
E36  25147330.954   132150121.075    25147333.799   101258449.520  
C08  38572000.443   200854065.239    38571991.033   155313013.808  
C13  38348213.801   199689260.759    38348212.769   154412589.532  
C27  23366536.582   121676737.900                                  
C29  24168087.250   125849629.066                                  
C30  21569918.258   112320025.517                                  
C32  25897937.948   134856916.584                                  
C33  26659505.523   138822536.623                                  
C36  22884352.288   119164420.484                                  
> 2025 01 06 18 43 55.0000000  0 38                     
G26  21507389.334   113021822.379    21507389.269    88069105.750  
G10  23263560.695   122250582.169    23263559.992    95260645.188  
G27  20870187.226   109673188.468    20870186.135    85460148.214  
G07  24999027.057   131370562.165    24999024.589   102366612.531  
G08  23368211.476   122801001.636    23368211.350    95688864.809  
G23  21604735.512   113533141.962    21604733.598    88467917.898  
G29  25444946.761   133713936.635    25444945.304   104193082.562  
G15  24780095.961   130220706.640    24780096.225   101470131.530  
G31  25714681.529   135131339.473    25714686.038   105297261.904  
G18  21895285.346   115061248.654    21895282.361    89657544.258  
G16  20324489.120   106806459.609                                  
R14  19796678.256   105526903.100    19796679.857    82076377.487  
R22  24134174.518   128830002.209    24134173.528   100201291.895  
R15  22624983.577   120900553.053    22624984.150    94033772.263  
R06  24342622.782   129896464.934                                  
R24  19961598.382   106743580.593    19961597.499    83023433.544  
R13  21514643.872   114887828.943                                  
R07  22705471.471   121543834.586    22705469.671    94534587.317  
R08  23094020.102   123668217.725    23094017.315    96185775.857  
R23  20432340.306   109299225.391                                  
R17  23797516.127   127344985.080    23797515.811    99046253.403  
E02  24923651.656   130974589.846    24923652.222   100357332.978  
E10  24361459.698   128020016.026    24361459.899    98093420.230  
E11  23305085.879   122469373.568    23305083.318    93840441.513  
E12  26272845.651   138064497.258    26272843.799   105790404.736  
E14  21962586.314   115414720.905    21962586.778    88434413.091  
E16  24379986.185   128118343.758    24379987.362    98168764.665  
E24  26651222.915   140053464.195    26651224.196   107313482.294  
E25  23466879.420   123318915.865    23466881.300    94492099.115  
E36  25146864.064   132147666.562    25146866.711   101256568.797  
C08  38572110.948   200854641.127    38572101.630   155313459.123  
C13  38348271.610   199689562.133    38348270.706   154412822.578  
C27  23366932.849   121678801.106                                  
C29  24167573.732   125846955.542                                  
C30  21569862.292   112319734.644                                  
C32  25897324.880   134853724.354                                  
C33  26659746.101   138823789.193                                  
C36  22884611.946   119165772.632                                  
> 2025 01 06 18 43 56.0000000  0 38                     
G26  21507837.554   113024178.182    21507837.651    88070941.439  
G10  23262903.830   122247130.562    23262903.075    95257955.637  
G27  20869791.480   109671108.991    20869790.385    85458527.834  
G07  24998703.876   131368863.289    24998701.249   102365288.718  
G08  23367584.382   122797706.563    23367584.352    95686297.226  
G23  21604438.728   113531581.930    21604436.811    88466702.287  
G29  25445515.647   133716926.480    25445514.211   104195412.301  
G15  24779729.175   130218779.327    24779729.478   101468629.757  
G31  25715290.125   135134536.919    25715294.673   105299753.371  
G18  21895698.832   115063421.559    21895695.832    89659237.422  
G16  20324550.285   106806780.902                                  
R14  19796596.068   105526464.929    19796597.645    82076036.695  
R22  24134816.458   128833428.423    24134815.496   100203956.741  
R15  22624251.589   120896641.753    22624252.219    94030730.143  
R06  24343070.882   129898856.276                                  
R24  19961286.116   106741911.232    19961285.336    83022135.156  
R13  21515353.233   114891616.718                                  
R07  22705367.924   121543280.162    22705366.007    94534156.091  
R08  23093392.039   123664854.780    23093389.372    96183160.229  
R23  20432747.585   109301404.211                                  
R17  23796830.737   127341317.760    23796830.522    99043401.055  
E02  24923243.275   130972443.638    24923243.985   100355688.480  
E10  24361723.149   128021400.106    24361723.462    98094480.762  
E11  23305074.414   122469312.729    23305071.687    93840394.897  
E12  26273273.243   138066744.030    26273271.393   105792126.277  
E14  21963502.918   115419538.569    21963503.668    88438104.581  
E16  24380338.782   128120195.816    24380339.892    98170183.776  
E24  26651727.406   140056114.165    26651728.446   107315512.787  
E25  23466995.131   123319523.907    23466997.049    94492565.016  
E36  25146397.083   132145212.318    25146399.843   101254688.273  
C08  38572221.629   200855217.189    38572212.274   155313904.587  
C13  38348329.484   199689863.675    38348328.644   154413055.760  
C27  23367329.137   121680864.468                                  
C29  24167060.322   125844282.178                                  
C30  21569806.487   112319444.080                                  
C32  25896711.971   134850532.257                                  
C33  26659986.890   138825042.257                                  
C36  22884871.603   119167125.278                                  
> 2025 01 06 18 43 57.0000000  0 39                     
G26  21508285.925   113026534.501    21508286.184    88072777.536  
G10  23262247.061   122243679.278    23262246.266    95255266.343  
G27  20869395.851   109669029.938    20869394.579    85456907.791  
G07  24998380.723   131367164.991    24998378.023   102363965.368  
G08  23366957.447   122794411.672    23366957.307    95683729.788  
G23  21604141.904   113530022.589    21604140.080    88465487.211  
G29  25446084.686   133719916.449    25446083.239   104197742.127  
G15  24779362.474   130216852.591    24779362.917   101467128.400  
G31  25715898.589   135137734.168    25715903.034   105302244.814  
G18  21896112.347   115065594.868    21896109.551    89660930.906  
G16  20324611.512   106807102.907                                  
R14  19796513.997   105526027.755    19796515.638    82075696.667  
R22  24135458.318   128836854.659    24135457.442   100206621.596  
R15  22623519.707   120892730.932    22623520.356    94027688.402  
R06  24343519.249   129901248.349                                  
R24  19960974.085   106740242.410    19960973.239    83020837.180  
R26  22919103.444   122214458.120                                  
R13  21516062.702   114895404.994                                  
R07  22705264.533   121542726.673    22705262.609    94533725.613  
R08  23092764.037   123661492.354    23092761.386    96180545.007  
R23  20433154.886   109303583.408                                  
R17  23796145.380   127337650.677    23796145.394    99040548.893  
E02  24922834.860   130970297.803    24922835.509   100354044.265  
E10  24361986.524   128022784.532    24361986.860    98095541.552  
E11  23305063.006   122469252.344    23305060.263    93840348.624  
E12  26273700.642   138068991.005    26273698.958   105793848.000  
E14  21964419.795   115424356.929    21964420.405    88441796.552  
E16  24380691.172   128122048.287    24380692.385    98171603.201  
E24  26652231.666   140058764.395    26652232.781   107317543.490  
E25  23467111.115   123320132.434    23467112.915    94493031.293  
E36  25145930.091   132142758.413    25145932.817   101252808.006  
C08  38572332.305   200855793.488    38572322.893   155314350.209  
C13  38348387.314   199690165.442    38348386.627   154413289.101  
C27  23367725.395   121682928.037                                  
C29  24166546.950   125841609.029                                  
C30  21569750.746   112319153.903                                  
C32  25896099.008   134847340.344                                  
C33  26660227.703   138826295.891                                  
C36  22885131.524   119168478.493                                  
> 2025 01 06 18 43 58.0000000  0 38                     
G26  21508734.439   113028891.187    21508734.602    88074613.912  
G10  23261590.336   122240228.178    23261589.668    95252577.166  
G27  20869000.332   109666951.167    20868999.116    85455287.983  
G07  24998057.619   131365467.138    24998054.854   102362642.348  
G08  23366330.440   122791116.843    23366330.304    95681162.370  
G23  21603845.254   113528463.798    21603843.539    88464272.572  
G29  25446653.687   133722906.414    25446652.285   104200071.972  
G15  24778995.808   130214926.278    24778996.281   101465627.384  
G31  25716506.876   135140931.278    25716511.461   105304736.025  
G18  21896526.008   115067768.452    21896523.076    89662624.610  
G16  20324672.920   106807425.482                                  
R14  19796432.100   105525591.430    19796433.812    82075357.302  
R22  24136100.158   128840280.768    24136099.286   100209286.342  
R15  22622787.918   120888820.480    22622788.444    94024646.928  
R06  24343967.569   129903640.918                                  
R24  19960662.000   106738573.980    19960661.277    83019539.509  
R13  21516772.149   114899193.627                                  
R07  22705161.319   121542173.994    22705159.304    94533295.760  
R08  23092136.133   123658130.307    23092133.507    96177930.099  
R23  20433562.294   109305762.849                                  
R17  23795460.059   127333983.691    23795460.207    99037696.809  
E02  24922426.783   130968152.173    24922427.286   100352400.215  
E10  24362250.037   128024169.159    24362250.419    98096602.498  
E11  23305051.545   122469192.240    23305048.803    93840302.573  
E12  26274128.174   138071238.059    26274126.628   105795569.754  
E14  21965336.903   115429175.843    21965337.449    88445488.959  
E16  24381043.595   128123901.005    24381044.945    98173022.822  
E24  26652736.041   140061414.730    26652737.078   107319574.259  
E25  23467227.245   123320741.304    23467228.792    94493497.831  
E36  25145463.286   132140304.700    25145465.803   101250927.890  
C08  38572443.088   200856369.882    38572433.533   155314795.924  
C13  38348445.326   199690467.298    38348444.595   154413522.516  
C27  23368121.664   121684991.700                                  
C29  24166033.497   125838935.971                                  
C30  21569695.169   112318863.965                                  
C32  25895486.077   134844148.505                                  
C33  26660468.556   138827549.952                                  
C36  22885391.519   119169832.128                                  
> 2025 01 06 18 43 59.0000000  0 38                     
G26  21509183.018   113031248.409    21509183.076    88076450.714  
G10  23260933.726   122236777.406    23260933.061    95249888.258  
G27  20868604.914   109664872.839    20868603.490    85453668.495  
G07  24997734.648   131363769.856    24997731.924   102361319.803  
G08  23365703.556   122787822.224    23365703.342    95678595.123  
G23  21603548.747   113526905.704    21603547.102    88463058.483  
G29  25447222.665   133725896.477    25447221.213   104202401.886  
G15  24778629.234   130213000.531    24778629.855   101464126.803  
G31  25717115.199   135144128.408    25717119.841   105307227.295  
G18  21896939.733   115069942.442    21896936.760    89664318.632  
G16  20324734.421   106807748.802                                  
R14  19796350.376   105525156.112    19796352.199    82075018.724  
R22  24136742.035   128843706.916    24136741.162   100211951.128  
R15  22622056.214   120884910.573    22622056.741    94021605.892  
R06  24344416.202   129906034.206                                  
R24  19960350.117   106736906.085    19960349.332    83018242.262  
R13  21517481.762   114902982.763                                  
R07  22705058.031   121541622.270    22705056.255    94532866.648  
R08  23091508.406   123654768.803    23091505.723    96175315.584  
R23  20433969.845   109307942.692                                  
R17  23794774.898   127330316.946    23794775.008    99034844.906  
E02  24922018.603   130966006.916    24922019.097   100350756.454  
E10  24362513.580   128025554.144    24362513.813    98097663.720  
E11  23305040.092   122469132.580    23305037.463    93840256.861  
E12  26274555.567   138073485.332    26274554.318   105797291.698  
E14  21966254.079   115433995.388    21966254.599    88449181.860  
E16  24381396.306   128125754.147    24381397.535    98174442.761  
E24  26653240.329   140064065.322    26653241.457   107321605.234  
E25  23467342.893   123321350.680    23467344.671    94493964.756  
E36  25144996.342   132137851.335    25144998.902   101249048.042  
C08  38572553.739   200856946.525    38572544.294   155315241.805  
C13  38348503.357   199690769.405    38348502.554   154413756.129  
C27  23368518.033   121687055.598                                  
C29  24165520.337   125836263.156                                  
C30  21569639.673   112318574.425                                  
C32  25894873.104   134840956.874                                  
C33  26660709.529   138828804.610                                  
C36  22885651.674   119171186.344                                  
> 2025 01 06 18 44 00.0000000  0 38                     
G26  21509631.617   113033605.779    21509631.690    88078287.622  
G10  23260277.131   122233326.580    23260276.460    95247199.302  
G27  20868209.351   109662794.573    20868208.003    85452049.064  
G07  24997411.680   131362072.803    24997408.938   102359997.405  
G08  23365076.476   122784527.442    23365076.280    95676027.765  
G23  21603252.326   113525347.951    21603250.531    88461844.637  
G29  25447791.584   133728886.315    25447790.251   104204731.636  
G15  24778262.706   130211074.992    24778263.484   101462626.372  
G31  25717723.599   135147421.859    25717728.169   105309718.174  
G18  21897353.393   115072116.488    21897350.451    89666012.688  
G16  20324795.949   106808072.470                                  
R14  19796268.783   105524721.422    19796270.640    82074680.631  
R22  24137383.704   128847132.715    24137382.921   100214615.630  
R15  22621324.555   120881000.828    22621325.036    94018564.982  
R06  24344864.672   129908427.880                                  
R24  19960038.393   106735238.361    19960037.480    83016945.149  
R13  21518191.361   114906772.030                                  
R07  22704955.031   121541071.099    22704953.393    94532437.953  
R08  23090880.674   123651407.473    23090878.017    96172701.232  
R23  20434377.265   109310122.546                                  
R17  23794089.616   127326650.077    23794089.743    99031992.907  
E02  24921610.476   130963861.656    24921610.914   100349112.673  
E10  24362777.232   128026939.098    24362777.482    98098724.923  
E11  23305028.852   122469073.020    23305026.142    93840211.217  
E12  26274983.033   138075732.452    26274981.912   105799013.517  
E14  21967171.365   115438815.269    21967171.921    88452875.014  
E16  24381749.048   128127607.318    24381750.268    98175862.722  
E24  26653744.520   140066715.801    26653745.817   107323636.106  
E25  23467459.032   123321960.178    23467460.600    94494431.767  
E36  25144529.560   132135397.946    25144532.035   101247168.167  
C08  38572664.411   200857522.996    38572655.020   155315687.574  
C13  38348561.363   199691071.365    38348560.581   154413989.618  
C27  23368914.460   121689119.365                                  
C29  24165006.962   125833590.219                                  
C30  21569584.077   112318284.918                                  
C32  25894260.162   134837765.087                                  
C33  26660950.420   138830059.454                                  
C36  22885911.847   119172540.756                                  
> 2025 01 06 18 44 01.0000000  0 38                     
G26  21510080.288   113035963.590    21510080.394    88080124.871  
G10  23259620.501   122229876.004    23259619.813    95244510.554  
G27  20867813.937   109660716.644    20867812.633    85450429.904  
G07  24997088.803   131360376.234    24997086.073   102358675.412  
G08  23364449.493   122781232.770    23364449.419    95673460.498  
G23  21602955.992   113523790.803    21602954.251    88460631.286  
G29  25448360.595   133731876.180    25448359.271   104207061.405  
G15  24777896.377   130209149.951    24777897.128   101461126.363  
G31  25718331.934   135150521.602    25718336.444   105312208.921  
G18  21897767.234   115074290.845    21897764.263    89667706.997  
G16  20324857.675   106808396.773                                  
R14  19796187.518   105524287.647    19796189.236    82074343.254  
R22  24138025.457   128850558.454    24138024.648   100217280.099  
R15  22620592.814   120877091.520    22620593.462    94015524.402  
R06  24345313.424   129910822.127                                  
R24  19959726.581   106733571.120    19959725.732    83015648.396  
R13  21518901.068   114910561.706                                  
R07  22704852.204   121540520.772    22704850.539    94532009.926  
R08  23090252.958   123648046.579    23090250.434    96170087.200  
R23  20434784.859   109312302.701                                  
R17  23793404.397   127322983.351    23793404.570    99029141.016  
E02  24921202.202   130961716.671    24921202.698   100347469.119  
E10  24363040.805   128028324.323    24363040.879    98099786.327  
E11  23305017.561   122469013.813    23305014.891    93840165.859  
E12  26275410.719   138077979.704    26275409.546   105800735.440  
E14  21968088.818   115443635.752    21968089.289    88456568.622  
E16  24382101.671   128129460.819    24382102.933    98177282.937  
E24  26654249.028   140069366.431    26654250.218   107325667.120  
E25  23467574.881   123322570.077    23467576.643    94494899.098  
E36  25144062.777   132132944.807    25144065.307   101245288.495  
C08  38572775.087   200858099.647    38572765.687   155316133.488  
C13  38348619.262   199691373.451    38348618.631   154414223.202  
C27  23369310.839   121691183.268                                  
C29  24164493.655   125830917.420                                  
C30  21569528.493   112317995.706                                  
C32  25893647.184   134834573.425                                  
C33  26661191.534   138831314.794                                  
C36  22886172.164   119173895.662                                  
> 2025 01 06 18 44 02.0000000  0 38                     
G26  21510529.043   113038321.803    21510529.138    88081962.439  
G10  23258963.952   122226425.661    23258963.242    95241821.960  
G27  20867418.572   109658639.047    20867417.309    85448810.990  
G07  24996766.032   131358680.143    24996763.296   102357353.773  
G08  23363822.586   122777938.195    23363822.461    95670893.304  
G23  21602659.790   113522234.257    21602658.034    88459418.382  
G29  25448929.686   133734866.053    25448928.246   104209391.170  
G15  24777530.158   130207225.374    24777530.895   101459626.691  
G31  25718940.072   135153717.881    25718944.624   105314699.545  
G18  21898181.113   115076465.506    21898178.064    89669401.550  
G16  20324919.468   106808721.699                                  
R14  19796106.370   105523854.754    19796107.965    82074006.559  
R22  24138667.265   128853984.116    24138666.532   100219944.513  
R15  22619861.253   120873182.594    22619861.965    94012484.129  
R06  24345762.250   129913217.009                                  
R24  19959414.869   106731904.338    19959414.045    83014352.013  
R13  21519610.745   114914351.772                                  
R07  22704749.646   121539971.262    22704747.772    94531582.525  
R08  23089625.434   123644686.125    23089622.941    96167473.491  
R23  20435192.505   109314483.142                                  
R17  23792719.198   127319316.726    23792719.338    99026289.209  
E02  24920794.098   130959571.946    24920794.512   100345825.753  
E10  24363304.272   128029709.791    24363304.583    98100847.921  
E11  23305006.267   122468954.950    23305003.552    93840120.753  
E12  26275838.371   138080227.044    26275837.143   105802457.438  
E14  21969006.382   115448456.829    21969006.706    88460262.693  
E16  24382454.440   128131314.616    24382455.681    98178703.374  
E24  26654753.495   140072017.222    26654754.663   107327698.245  
E25  23467691.231   123323180.375    23467692.827    94495366.726  
E36  25143596.263   132130491.909    25143598.535   101243409.004  
C08  38572885.836   200858676.384    38572876.378   155316579.456  
C13  38348677.368   199691675.684    38348676.652   154414456.908  
C27  23369707.280   121693247.308                                  
C29  24163980.420   125828244.756                                  
C30  21569472.937   112317706.778                                  
C32  25893034.329   134831381.859                                  
C33  26661432.747   138832570.601                                  
C36  22886432.549   119175251.037                                  
> 2025 01 06 18 44 03.0000000  0 38                     
G26  21510977.939   113040680.473    21510977.895    88083800.371  
G10  23258307.347   122222975.564    23258306.684    95239133.571  
G27  20867023.363   109656561.807    20867022.159    85447192.375  
G07  24996443.398   131356984.563    24996440.658   102356032.580  
G08  23363195.672   122774643.747    23363195.590    95668326.227  
G23  21602363.698   113520678.335    21602362.019    88458205.978  
G29  25449498.575   133737855.991    25449497.230   104211720.986  
G15  24777163.966   130205301.277    24777164.740   101458127.390  
G31  25719548.453   135156914.154    25719552.757   105317190.091  
G18  21898594.983   115078640.525    21898591.909    89671096.370  
G16  20324981.343   106809047.278                                  
R14  19796025.472   105523422.759    19796026.896    82073670.565  
R22  24139308.998   128857409.728    24139308.244   100222608.861  
R15  22619129.854   120869274.078    22619130.556    94009444.171  
R06  24346211.411   129915612.503                                  
R24  19959103.123   106730238.046    19959102.412    83013056.012  
R13  21520320.485   114918142.245                                  
R07  22704647.044   121539422.615    22704645.309    94531155.803  
R08  23088997.839   123641326.127    23088995.538    96164860.180  
R23  20435600.287   109316663.905                                  
R17  23792034.019   127315650.256    23792034.114    99023437.507  
E02  24920386.018   130957427.516    24920386.517   100344182.615  
E10  24363567.999   128031095.537    24363568.387    98101909.731  
E11  23304995.034   122468896.447    23304992.407    93840075.933  
E12  26276266.085   138082474.560    26276264.792   105804179.555  
E14  21969923.925   115453278.632    21969924.224    88463957.329  
E16  24382807.216   128133168.746    24382808.601    98180124.069  
E24  26655258.024   140074668.180    26655259.089   107329729.506  
E25  23467807.496   123323791.097    23467809.088    94495834.682  
E36  25143129.435   132128039.281    25143131.676   101241529.718  
C08  38572996.645   200859253.328    38572987.142   155317025.576  
C13  38348735.415   199691978.083    38348734.679   154414690.745  
C27  23370103.696   121695311.497                                  
C29  24163466.979   125825572.265                                  
C30  21569417.627   112317418.178                                  
C32  25892421.371   134828190.441                                  
C33  26661674.097   138833826.921                                  
C36  22886692.860   119176606.926                                  
> 2025 01 06 18 44 04.0000000  0 38                     
G26  21511426.831   113043039.267    21511426.752    88085638.385  
G10  23257650.697   122219525.383    23257650.124    95236445.127  
G27  20866628.143   109654484.603    20866627.018    85445573.764  
G07  24996120.746   131355289.177    24996118.006   102354711.492  
G08  23362568.744   122771349.095    23362568.645    95665758.933  
G23  21602067.646   113519122.708    21602065.919    88456993.806  
G29  25450067.496   133740845.669    25450066.201   104214050.612  
G15  24776797.820   130203377.354    24776798.579   101456628.233  
G31  25720156.595   135160109.973    25720161.013   105319680.354  
G18  21899008.903   115080815.555    21899005.874    89672791.182  
G16  20325043.343   106809373.176                                  
R14  19795944.534   105522991.331    19795945.976    82073335.009  
R22  24139950.689   128860834.967    24139949.961   100225272.942  
R15  22618398.529   120865365.666    22618399.054    94006404.309  
R06  24346660.328   129918008.301                                  
R24  19958791.523   106728571.898    19958790.856    83011760.117  
R13  21521030.347   114921932.841                                  
R07  22704544.688   121538874.482    22704542.871    94530729.480  
R08  23088370.327   123637966.249    23088368.204    96162246.946  
R23  20436007.941   109318844.654                                  
R17  23791348.782   127311983.615    23791348.821    99020585.682  
E02  24919978.006   130955283.034    24919978.392   100342539.441  
E10  24363832.072   128032481.229    24363832.138    98102971.492  
E11  23304984.018   122468838.018    23304981.321    93840031.154  
E12  26276693.615   138084721.861    26276692.423   105805901.520  
E14  21970841.533   115458100.737    21970841.906    88467652.198  
E16  24383160.143   128135022.873    24383161.452    98181544.765  
E24  26655762.403   140077319.008    26655763.663   107331760.651  
E25  23467923.664   123324401.897    23467925.279    94496302.700  
E36  25142662.897   132125586.593    25142664.906   101239650.383  
C08  38573107.470   200859830.083    38573097.914   155317471.562  
C13  38348793.492   199692280.334    38348792.680   154414924.463  
C27  23370500.003   121697375.518                                  
C29  24162953.613   125822899.614                                  
C30  21569362.314   112317129.573                                  
C32  25891808.464   134824998.835                                  
C33  26661915.375   138835083.421                                  
C36  22886953.260   119177962.969                                  
> 2025 01 06 18 44 05.0000000  0 38                     
G26  21511875.776   113045398.358    21511875.580    88087476.640  
G10  23256994.165   122216075.318    23256993.592    95233756.779  
G27  20866232.861   109652407.605    20866231.841    85443955.330  
G07  24995798.095   131353594.174    24995795.495   102353390.677  
G08  23361941.814   122768054.441    23361941.729    95663191.690  
G23  21601771.797   113517567.562    21601770.055    88455782.014  
G29  25450636.494   133743835.232    25450635.096   104216380.156  
G15  24776431.729   130201453.792    24776432.553   101455129.383  
G31  25720764.703   135163305.454    25720768.898   105322170.292  
G18  21899422.850   115082990.770    21899419.792    89674486.160  
G16  20325105.574   106809699.585                                  
R14  19795863.820   105522560.682    19795865.183    82073000.063  
R22  24140592.310   128864259.996    24140591.586   100227936.858  
R15  22617667.274   120861457.561    22617667.692    94003364.678  
R06  24347109.351   129920404.537                                  
R24  19958480.017   106726906.097    19958479.248    83010464.502  
R13  21521740.144   114925723.684                                  
R07  22704442.317   121538327.066    22704440.686    94530303.719  
R08  23087742.965   123634606.690    23087740.784    96159633.946  
R23  20436415.669   109321025.579                                  
R17  23790663.727   127308317.025    23790663.659    99017733.911  
E02  24919569.947   130953138.703    24919570.379   100340896.396  
E10  24364095.506   128033867.054    24364095.898    98104033.359  
E11  23304972.990   122468779.805    23304970.227    93839986.556  
E12  26277121.209   138086969.177    26277120.142   105807623.478  
E14  21971759.074   115462923.253    21971759.596    88471347.348  
E16  24383513.059   128136877.198    24383514.259    98182965.614  
E24  26656266.953   140079969.868    26656268.074   107333791.827  
E25  23468040.170   123325012.988    23468041.523    94496770.932  
E36  25142196.110   132123134.035    25142198.265   101237771.156  
C08  38573218.236   200860406.862    38573208.656   155317917.560  
C13  38348851.526   199692582.580    38348850.711   154415158.172  
C27  23370896.383   121699439.563                                  
C29  24162440.369   125820226.971                                  
C30  21569306.937   112316841.134                                  
C32  25891195.572   134821807.210                                  
C33  26662156.734   138836340.274                                  
C36  22887213.728   119179319.379                                  
> 2025 01 06 18 44 06.0000000  0 38                     
G26  21512324.750   113047757.888    21512324.668    88089315.231  
G10  23256337.682   122212625.505    23256337.149    95231068.600  
G27  20865837.724   109650330.966    20865836.636    85442337.167  
G07  24995475.596   131351899.651    24995473.115   102352070.305  
G08  23361314.923   122764759.889    23361314.688    95660624.503  
G23  21601475.961   113516013.037    21601474.159    88454570.692  
G29  25451205.402   133746824.850    25451203.948   104218709.724  
G15  24776065.796   130199530.759    24776066.658   101453630.902  
G31  25721372.682   135166500.791    25721377.017   105324660.190  
G18  21899836.741   115085166.318    21899833.797    89676181.392  
G16  20325167.790   106810026.641                                  
R14  19795783.211   105522130.973    19795784.656    82072665.842  
R22  24141234.053   128867684.982    24141233.329   100230600.732  
R15  22616935.958   120857549.917    22616936.469    94000325.402  
R06  24347558.449   129922801.469                                  
R24  19958168.679   106725240.773    19958167.842    83009169.252  
R13  21522450.141   114929514.977                                  
R07  22704340.194   121537780.517    22704338.551    94529878.619  
R08  23087115.591   123631247.587    23087113.501    96157021.339  
R23  20436823.474   109323206.827                                  
R17  23789978.622   127304650.595    23789978.458    99014882.255  
E02  24919161.883   130950994.676    24919162.395   100339253.559  
E10  24364359.281   128035253.154    24364359.489    98105095.431  
E11  23304961.885   122468721.977    23304959.328    93839942.241  
E12  26277548.780   138089216.631    26277547.755   105809345.555  
E14  21972677.090   115467746.415    21972677.278    88475042.998  
E16  24383865.837   128138731.846    24383867.249    98184386.704  
E24  26656771.245   140082620.890    26656772.441   107335823.129  
E25  23468156.365   123325624.492    23468157.942    94497239.489  
E36  25141729.580   132120681.739    25141731.476   101235892.122  
C08  38573329.152   200860983.785    38573319.430   155318363.666  
C13  38348909.560   199692884.987    38348908.772   154415392.017  
C27  23371292.770   121701503.755                                  
C29  24161927.051   125817554.500                                  
C30  21569251.642   112316553.016                                  
C32  25890582.748   134818615.718                                  
C33  26662398.256   138837597.617                                  
C36  22887474.323   119180676.274                                  
> 2025 01 06 18 44 07.0000000  0 38                     
G26  21512773.849   113050117.839    21512773.755    88091154.153  
G10  23255681.172   122209175.947    23255680.694    95228380.629  
G27  20865442.703   109648254.666    20865441.537    85440719.272  
G07  24995153.169   131350205.651    24995150.751   102350750.284  
G08  23360688.054   122761465.466    23360687.863    95658057.432  
G23  21601180.299   113514459.123    21601178.504    88453359.849  
G29  25451774.333   133749814.514    25451772.859   104221039.336  
G15  24775699.996   130197608.243    24775700.800   101452132.795  
G31  25721980.738   135169696.014    25721985.208   105327149.894  
G18  21900250.802   115087342.199    21900247.788    89677876.881  
G16  20325230.097   106810354.322                                  
R14  19795702.589   105521702.180    19795704.146    82072332.331  
R22  24141875.743   128871109.899    24141874.968   100233264.543  
R15  22616204.751   120853642.697    22616205.386    93997286.453  
R06  24348007.788   129925198.984                                  
R24  19957857.346   106723575.913    19957856.467    83007874.354  
R13  21523160.246   114933306.695                                  
R07  22704238.241   121537234.837    22704236.550    94529454.201  
R08  23086488.336   123627888.961    23086486.269    96154409.064  
R23  20437231.198   109325388.381                                  
R17  23789293.475   127300984.310    23789293.263    99012030.688  
E02  24918753.952   130948850.897    24918754.451   100337610.931  
E10  24364623.008   128036639.503    24364623.211    98106157.704  
E11  23304951.060   122468664.470    23304948.273    93839898.186  
E12  26277976.432   138091464.198    26277975.439   105811067.719  
E14  21973594.959   115472570.152    21973595.275    88478739.124  
E16  24384218.894   128140586.801    24384220.107    98185808.036  
E24  26657275.908   140085272.075    26657277.096   107337854.563  
E25  23468272.707   123326236.389    23468274.266    94497708.348  
E36  25141262.897   132118229.692    25141265.025   101234013.280  
C08  38573439.946   200861560.853    38573430.280   155318809.901  
C13  38348967.678   199693187.540    38348966.891   154415625.983  
C27  23371689.085   121703568.088                                  
C29  24161413.788   125814882.161                                  
C30  21569196.325   112316265.194                                  
C32  25889970.053   134815424.345                                  
C33  26662639.756   138838855.456                                  
C36  22887734.969   119182033.657                                  
> 2025 01 06 18 44 08.0000000  0 38                     
G26  21513223.138   113052478.550    21513222.915    88092993.670  
G10  23255024.879   122205726.914    23255024.337    95225693.078  
G27  20865047.590   109646179.017    20865046.522    85439101.888  
G07  24994830.932   131348512.434    24994828.481   102349430.905  
G08  23360061.146   122758171.464    23360061.083    95655490.671  
G23  21600884.772   113512906.137    21600882.864    88452149.729  
G29  25452343.308   133752804.526    25452341.874   104223369.186  
G15  24775334.364   130195686.480    24775335.143   101450635.344  
G31  25722588.797   135172891.336    25722593.413   105329639.826  
G18  21900664.931   115089518.704    21900661.961    89679572.864  
G16  20325292.679   106810682.963                                  
R14  19795622.356   105521274.612    19795623.865    82071999.778  
R22  24142517.368   128874535.093    24142516.657   100235928.592  
R15  22615473.919   120849736.225    22615474.394    93994248.077  
R06  24348457.308   129927597.425                                  
R24  19957546.235   106721911.856    19957545.323    83006580.086  
R13  21523870.455   114937099.133                                  
R07  22704136.385   121536690.342    22704134.842    94529030.707  
R08  23085861.269   123624531.099    23085859.228    96151797.401  
R23  20437639.187   109327570.562                                  
R17  23788608.302   127297318.467    23788608.161    99009179.491  
E02  24918346.002   130946707.725    24918346.541   100335968.753  
E10  24364886.865   128038026.433    24364887.340    98107220.417  
E11  23304940.223   122468607.656    23304937.509    93839854.647  
E12  26278404.329   138093712.213    26278403.270   105812790.232  
E14  21974513.218   115477394.792    21974513.456    88482435.920  
E16  24384571.996   128142442.395    24384573.279    98187229.854  
E24  26657780.576   140087923.742    26657781.641   107339886.357  
E25  23468389.461   123326849.016    23468390.886    94498177.762  
E36  25140796.454   132115778.220    25140798.528   101232134.884  
C08  38573550.929   200862138.392    38573541.226   155319256.489  
C13  38349025.895   199693490.548    38349025.044   154415860.292  
C27  23372085.641   121705632.871                                  
C29  24160900.717   125812210.277                                  
C30  21569141.124   112315977.985                                  
C32  25889357.258   134812233.401                                  
C33  26662881.487   138840114.095                                  
C36  22887995.786   119183391.839                                  
> 2025 01 06 18 44 09.0000000  0 38                     
G26  21513672.510   113054839.844    21513672.336    88094833.629  
G10  23254368.592   122202278.264    23254368.027    95223005.823  
G27  20864652.654   109644103.869    20864651.592    85437484.878  
G07  24994508.945   131346819.881    24994506.385   102348112.012  
G08  23359434.382   122754877.728    23359434.399    95652924.136  
G23  21600589.382   113511353.909    21600587.469    88450940.198  
G29  25452912.282   133755794.707    25452910.862   104225699.225  
G15  24774968.819   130193765.369    24774969.522   101449138.370  
G31  25723196.940   135176086.759    25723201.378   105332129.712  
G18  21901079.125   115091695.700    21901076.305    89681269.222  
G16  20325355.357   106811012.385                                  
R14  19795542.252   105520848.106    19795543.696    82071668.059  
R22  24143159.038   128877960.356    24143158.234   100238592.677  
R15  22614743.037   120845830.321    22614743.359    93991210.152  
R06  24348907.017   129929996.625                                  
R24  19957235.187   106720248.406    19957234.311    83005286.291  
R13  21524580.734   114940892.143                                  
R07  22704034.905   121536146.860    22704033.360    94528608.007  
R08  23085234.174   123621173.810    23085232.258    96149186.171  
R23  20438047.108   109329753.191                                  
R17  23787923.264   127293652.925    23787923.068    99006328.543  
E02  24917938.230   130944564.970    24917938.880   100334326.907  
E10  24365150.988   128039413.777    24365151.261    98108283.444  
E11  23304929.410   122468551.366    23304926.768    93839811.507  
E12  26278832.021   138095960.516    26278831.076   105814512.954  
E14  21975431.301   115482220.146    21975431.651    88486133.284  
E16  24384925.287   128144298.465    24384926.466    98188652.030  
E24  26658285.300   140090575.721    26658286.289   107341918.396  
E25  23468506.207   123327462.196    23468507.625    94498647.602  
E36  25140330.130   132113327.150    25140332.095   101230256.786  
C08  38573661.791   200862716.223    38573652.187   155319703.295  
C13  38349084.148   199693793.865    38349083.290   154416094.825  
C27  23372482.226   121707697.953                                  
C29  24160387.711   125809538.716                                  
C30  21569085.972   112315691.238                                  
C32  25888744.481   134809042.736                                  
C33  26663123.275   138841373.354                                  
C36  22888256.713   119184750.644                                  
> 2025 01 06 18 44 10.0000000  0 38                     
G26  21514121.903   113057201.436    21514121.644    88096673.837  
G10  23253712.318   122198829.761    23253711.802    95220318.667  
G27  20864257.791   109642028.951    20864256.760    85435868.072  
G07  24994186.915   131345127.687    24994184.357   102346793.431  
G08  23358807.577   122751583.983    23358807.607    95650357.564  
G23  21600294.081   113509802.171    21600292.186    88449731.053  
G29  25453481.248   133758784.815    25453479.916   104228029.163  
G15  24774603.442   130191844.634    24774604.117   101447641.728  
G31  25723804.857   135179281.890    25723809.357   105334619.426  
G18  21901493.379   115093872.889    21901490.600    89682965.737  
G16  20325418.138   106811342.317                                  
R14  19795462.331   105520422.388    19795463.840    82071336.939  
R22  24143800.617   128881385.417    24143799.786   100241256.625  
R15  22614012.198   120841924.722    22614012.501    93988172.453  
R06  24349356.658   129932396.343                                  
R24  19956924.222   106718585.257    19956923.310    83003992.730  
R13  21525291.041   114944685.439                                  
R07  22703933.493   121535604.089    22703931.887    94528185.853  
R08  23084607.175   123617816.844    23084605.462    96146575.202  
R23  20438455.158   109331935.992                                  
R17  23787238.096   127289987.427    23787238.038    99003477.574  
E02  24917530.659   130942422.367    24917531.090   100332685.174  
E10  24365414.988   128040801.242    24365415.343    98109346.569  
E11  23304918.743   122468495.297    23304916.027    93839768.556  
E12  26279260.032   138098208.789    26279258.957   105816235.663  
E14  21976349.655   115487045.945    21976350.087    88489830.979  
E16  24385278.551   128146154.716    24385279.605    98190074.359  
E24  26658789.960   140093227.723    26658790.914   107343950.449  
E25  23468622.845   123328075.646    23468624.347    94499117.654  
E36  25139863.791   132110876.213    25139865.723   101228378.797  
C08  38573772.848   200863294.069    38573763.161   155320150.145  
C13  38349142.371   199694097.174    38349141.576   154416329.369  
C27  23372878.799   121709763.047                                  
C29  24159874.618   125806867.163                                  
C30  21569030.893   112315404.669                                  
C32  25888131.630   134805852.069                                  
C33  26663365.275   138842632.989                                  
C36  22888517.736   119186109.821                                  
> 2025 01 06 18 44 11.0000000  0 38                     
G26  21514571.334   113059563.413    21514571.026    88098514.330  
G10  23253056.072   122195381.417    23253055.636    95217631.660  
G27  20863862.948   109639954.302    20863861.992    85434251.454  
G07  24993865.019   131343435.938    24993862.485   102345475.197  
G08  23358180.903   122748290.287    23358180.899    95647791.056  
G23  21599998.858   113508250.984    21599996.995    88448522.342  
G29  25454050.249   133761774.915    25454048.998   104230359.118  
G15  24774237.996   130189924.344    24774238.739   101446145.375  
G31  25724412.679   135182476.763    25724417.494   105337108.951  
G18  21901907.797   115096050.341    21901904.988    89684662.457  
G16  20325481.027   106811672.838                                  
R14  19795382.602   105519997.499    19795384.051    82071006.466  
R22  24144442.279   128884810.389    24144441.421   100243920.491  
R15  22613281.357   120838019.498    22613281.770    93985135.067  
R06  24349806.691   129934796.618                                  
R24  19956613.327   106716922.510    19956612.386    83002699.478  
R13  21526001.388   114948479.079                                  
R07  22703832.193   121535062.103    22703830.737    94527764.311  
R08  23083980.377   123614460.262    23083978.631    96143964.526  
R23  20438863.244   109334119.022                                  
R17  23786553.093   127286322.005    23786553.063    99000626.714  
E02  24917122.959   130940279.986    24917123.506   100331043.608  
E10  24365679.040   128042188.926    24365679.527    98110409.861  
E11  23304908.043   122468439.510    23304905.585    93839725.812  
E12  26279687.724   138100457.166    26279686.648   105817958.442  
E14  21977268.132   115491872.310    21977268.547    88493529.106  
E16  24385631.773   128148011.238    24385632.992    98191496.886  
E24  26659294.636   140095879.883    26659295.653   107345982.615  
E25  23468739.857   123328689.467    23468741.200    94499587.977  
E36  25139397.468   132108425.473    25139399.385   101226500.962  
C08  38573883.856   200863872.030    38573874.168   155320597.053  
C13  38349200.564   199694400.579    38349199.839   154416563.984  
C27  23373275.300   121711828.235                                  
C29  24159361.629   125804195.700                                  
C30  21568975.816   112315118.343                                  
C32  25887518.911   134802661.464                                  
C33  26663607.063   138843893.069                                  
C36  22888778.767   119187469.419                                  
> 2025 01 06 18 44 12.0000000  0 38                     
G26  21515020.871   113061925.850    21515020.634    88100355.191  
G10  23252399.953   122191933.344    23252399.402    95214944.858  
G27  20863468.178   109637880.034    20863467.383    85432635.151  
G07  24993543.220   131341744.730    24993540.650   102344157.329  
G08  23357554.098   122744996.752    23357554.179    95645224.683  
G23  21599703.732   113506700.448    21599701.929    88447314.123  
G29  25454619.260   133764765.070    25454617.958   104232689.083  
G15  24773872.719   130188004.573    24773873.482   101444649.468  
G31  25725020.417   135185671.580    25725025.460   105339598.444  
G18  21902322.176   115098228.156    21902319.294    89686359.450  
G16  20325543.991   106812004.022                                  
R14  19795303.080   105519573.554    19795304.571    82070676.735  
R22  24145083.947   128888235.322    24145083.113   100246584.345  
R15  22612550.677   120834114.764    22612551.145    93982098.042  
R06  24350256.531   129937197.522                                  
R24  19956302.492   106715260.283    19956301.572    83001406.636  
R13  21526711.941   114952273.151                                  
R07  22703731.155   121534520.995    22703729.600    94527343.450  
R08  23083353.593   123611104.185    23083351.996    96141354.269  
R23  20439271.439   109336302.382                                  
R17  23785868.095   127282656.805    23785868.151    98997776.024  
E02  24916715.201   130938137.920    24916715.736   100329402.287  
E10  24365943.039   128043576.901    24365943.565    98111473.372  
E11  23304897.465   122468384.138    23304894.923    93839683.386  
E12  26280115.460   138102705.706    26280114.527   105819681.348  
E14  21978186.692   115496699.339    21978187.009    88497227.733  
E16  24385985.045   128149868.106    24385986.258    98192919.677  
E24  26659799.387   140098532.219    26659800.300   107348014.910  
E25  23468856.614   123329303.712    23468858.012    94500058.638  
E36  25138931.264   132105975.018    25138933.089   101224623.349  
C08  38573994.751   200864450.152    38573985.218   155321044.098  
C13  38349258.798   199694704.171    38349258.202   154416798.724  
C27  23373672.099   121713893.590                                  
C29  24158848.577   125801524.436                                  
C30  21568920.980   112314832.356                                  
C32  25886906.286   134799471.016                                  
C33  26663849.233   138845153.664                                  
C36  22889040.182   119188829.525                                  
> 2025 01 06 18 44 13.0000000  0 38                     
G26  21515470.581   113064288.959    21515470.270    88102196.576  
G10  23251743.901   122188485.744    23251743.368    95212258.422  
G27  20863073.614   109635806.337    20863072.815    85431019.280  
G07  24993221.519   131340054.223    24993218.989   102342840.053  
G08  23356927.465   122741703.543    23356927.482    95642658.541  
G23  21599408.913   113505150.750    21599407.062    88446106.565  
G29  25455188.435   133767755.507    25455186.984   104235019.290  
G15  24773507.516   130186085.515    24773508.245   101443154.113  
G31  25725628.125   135188866.449    25725633.333   105342087.911  
G18  21902736.746   115100406.519    21902733.956    89688056.878  
G16  20325607.250   106812336.081                                  
R14  19795223.684   105519150.760    19795225.197    82070347.894  
R22  24145725.656   128891660.406    24145724.772   100249248.312  
R15  22611820.159   120830210.690    22611820.531    93979061.546  
R06  24350706.623   129939599.275                                  
R24  19955991.714   106713598.793    19955990.745    83000114.365  
R13  21527422.568   114956067.865                                  
R07  22703630.301   121533980.993    22703628.718    94526923.439  
R08  23082726.994   123607748.841    23082725.429    96138744.541  
R23  20439679.787   109338486.282                                  
R17  23785183.269   127278991.990    23785183.399    98994925.601  
E02  24916307.832   130935996.359    24916308.382   100327761.346  
E10  24366207.277   128044965.370    24366207.751    98112537.263  
E11  23304887.293   122468329.365    23304884.457    93839641.418  
E12  26280543.276   138104954.585    26280542.466   105821404.511  
E14  21979105.329   115501527.232    21979105.622    88500927.024  
E16  24386338.513   128151725.523    24386339.705    98194342.901  
E24  26660304.157   140101184.931    26660305.192   107350047.511  
E25  23468973.567   123329918.598    23468975.061    94500529.780  
E36  25138464.862   132103525.061    25138466.760   101222746.096  
C08  38574105.978   200865028.664    38574096.396   155321491.433  
C13  38349317.319   199695008.148    38349316.592   154417033.787  
C27  23374068.832   121715959.330                                  
C29  24158335.653   125798853.530                                  
C30  21568866.150   112314546.893                                  
C32  25886293.766   134796280.912                                  
C33  26664091.499   138846414.977                                  
C36  22889301.589   119190190.363                                  
> 2025 01 06 18 44 14.0000000  0 38                     
G26  21515920.272   113066652.215    21515920.032    88104038.075  
G10  23251087.931   122185038.131    23251087.332    95209571.970  
G27  20862678.936   109633732.734    20862678.169    85429403.497  
G07  24992899.866   131338363.959    24992897.379   102341522.997  
G08  23356300.652   122738410.178    23356300.696    95640092.293  
G23  21599114.090   113503601.408    21599112.183    88444899.281  
G29  25455757.433   133770745.693    25455756.012   104237349.343  
G15  24773142.383   130184166.718    24773143.132   101441658.933  
G31  25726235.919   135192060.937    25726241.128   105344577.092  
G18  21903151.308   115102584.951    21903148.520    89689754.362  
G16  20325670.478   106812668.516                                  
R14  19795144.554   105518728.606    19795145.920    82070019.552  
R22  24146367.247   128895085.187    24146366.366   100251912.006  
R15  22611089.511   120826306.757    22611089.950    93976025.149  
R06  24351156.779   129942001.375                                  
R24  19955681.070   106711937.496    19955680.071    82998822.252  
R13  21528133.232   114959862.705                                  
R07  22703529.523   121533441.585    22703527.962    94526503.903  
R08  23082100.560   123604393.634    23082098.760    96136134.935  
R23  20440088.028   109340670.214                                  
R17  23784498.384   127275327.025    23784498.553    98992075.089  
E02  24915900.403   130933854.800    24915900.798   100326120.422  
E10  24366471.283   128046353.832    24366471.942    98113601.153  
E11  23304876.944   122468274.693    23304874.137    93839599.521  
E12  26280971.208   138107203.349    26280970.427   105823127.597  
E14  21980024.105   115506355.497    21980024.341    88504626.598  
E16  24386692.009   128153583.001    24386693.239    98195766.161  
E24  26660808.938   140103837.574    26660809.888   107352080.043  
E25  23469090.730   123330533.634    23469092.110    94501001.039  
E36  25137998.477   132101075.086    25138000.605   101220868.847  
C08  38574216.984   200865607.054    38574207.489   155321938.676  
C13  38349375.723   199695312.009    38349374.957   154417268.753  
C27  23374465.500   121718024.946                                  
C29  24157822.731   125796182.522                                  
C30  21568811.234   112314261.487                                  
C32  25885681.085   134793090.679                                  
C33  26664333.750   138847676.491                                  
C36  22889562.873   119191551.419                                  
> 2025 01 06 18 44 15.0000000  0 38                     
G26  21516370.054   113069015.801    21516369.832    88105879.839  
G10  23250431.842   122181590.639    23250431.329    95206885.614  
G27  20862284.328   109631659.354    20862283.634    85427787.870  
G07  24992578.355   131336674.068    24992575.780   102340206.208  
G08  23355673.956   122735116.842    23355674.054    95637526.057  
G23  21598819.292   113502052.560    21598817.430    88443692.387  
G29  25456326.519   133773735.820    25456325.023   104239679.297  
G15  24772777.308   130182248.313    24772778.110   101440164.020  
G31  25726843.782   135195255.170    25726848.740   105347066.065  
G18  21903565.855   115104763.587    21903563.149    89691452.005  
G16  20325733.875   106813001.463                                  
R14  19795065.398   105518307.247    19795066.888    82069691.832  
R22  24147008.833   128898509.779    24147008.051   100254575.578  
R15  22610359.027   120822403.113    22610359.445    93972988.993  
R06  24351606.962   129944404.000                                  
R24  19955370.412   106710276.541    19955369.387    82997530.392  
R13  21528843.921   114963657.883                                  
R07  22703429.006   121532902.885    22703427.256    94526084.931  
R08  23081474.031   123601038.742    23081472.277    96133525.591  
R23  20440496.297   109342854.332                                  
R17  23783813.580   127271662.088    23783813.750    98989224.608  
E02  24915492.915   130931713.406    24915493.211   100324479.615  
E10  24366735.559   128047742.438    24366736.272    98114665.149  
E11  23304866.491   122468220.251    23304863.696    93839557.814  
E12  26281399.286   138109452.100    26281398.352   105824850.660  
E14  21980942.748   115511184.090    21980943.279    88508326.425  
E16  24387045.458   128155440.669    24387046.706    98197189.564  
E24  26661313.743   140106490.225    26661314.677   107354112.615  
E25  23469207.860   123331148.944    23469209.061    94501472.513  
E36  25137532.221   132098625.254    25137534.433   101218991.700  
C08  38574328.013   200866185.473    38574318.584   155322385.949  
C13  38349434.061   199695615.887    38349433.270   154417503.735  
C27  23374862.181   121720090.582                                  
C29  24157309.714   125793511.546                                  
C30  21568756.516   112313976.260                                  
C32  25885068.335   134789900.436                                  
C33  26664576.096   138848938.410                                  
C36  22889824.307   119192912.838                                  
> 2025 01 06 18 44 16.0000000  0 38                     
G26  21516819.946   113071379.558    21516819.578    88107721.727  
G10  23249775.789   122178143.135    23249775.267    95204199.237  
G27  20861889.745   109629586.057    20861889.090    85426172.323  
G07  24992256.839   131334984.434    24992254.156   102338889.594  
G08  23355047.088   122731823.359    23355047.309    95634959.717  
G23  21598524.583   113500504.062    21598522.797    88442485.775  
G29  25456895.519   133776725.713    25456893.984   104242009.085  
G15  24772412.416   130180330.097    24772413.074   101438669.336  
G31  25727451.493   135198449.028    25727456.479   105349554.830  
G18  21903980.456   115106942.301    21903977.647    89693149.704  
G16  20325797.302   106813334.797                                  
R14  19794986.518   105517886.540    19794988.096    82069364.611  
R22  24147650.427   128901934.057    24147649.565   100257238.909  
R15  22609628.470   120818499.673    22609628.895    93969952.993  
R06  24352057.434   129946806.896                                  
R24  19955059.808   106708615.815    19955058.810    82996238.720  
R13  21529554.592   114967453.198                                  
R07  22703328.487   121532364.769    22703326.740    94525666.390  
R08  23080847.542   123597684.057    23080845.719    96130916.373  
R23  20440904.620   109345038.507                                  
R17  23783128.716   127267997.072    23783128.842    98986374.059  
E02  24915085.353   130929572.037    24915085.809   100322838.828  
E10  24366999.855   128049131.052    24367000.565    98115729.159  
E11  23304856.258   122468165.910    23304853.419    93839516.173  
E12  26281827.084   138111700.736    26281826.237   105826573.646  
E14  21981861.800   115516013.001    21981862.219    88512026.511  
E16  24387399.158   128157298.408    24387400.197    98198613.029  
E24  26661818.582   140109142.813    26661819.411   107356145.116  
E25  23469324.920   123331764.420    23469326.215    94501944.121  
E36  25137066.210   132096175.424    25137068.243   101217114.557  
C08  38574439.092   200866763.771    38574429.624   155322833.137  
C13  38349492.493   199695919.663    38349491.603   154417738.635  
C27  23375258.889   121722156.119                                  
C29  24156796.699   125790840.465                                  
C30  21568701.793   112313691.082                                  
C32  25884455.659   134786710.075                                  
C33  26664818.564   138850200.547                                  
C36  22890085.695   119194274.493                                  
> 2025 01 06 18 44 17.0000000  0 38                     
G26  21517269.801   113073744.125    21517269.499    88109564.236  
G10  23249119.820   122174696.230    23249119.232    95201513.340  
G27  20861495.318   109627513.469    20861494.671    85424557.315  
G07  24991935.448   131333295.672    24991932.809   102337573.651  
G08  23354420.455   122728530.338    23354420.822    95632393.761  
G23  21598230.246   113498956.543    21598228.280    88441279.919  
G29  25457464.578   133779715.999    25457463.027   104244339.191  
G15  24772047.630   130178412.757    24772048.165   101437175.324  
G31  25728059.342   135201642.995    25728064.223   105352043.600  
G18  21904395.178   115109121.688    21904392.525    89694847.923  
G16  20325860.958   106813669.132                                  
R14  19794907.814   105517467.092    19794909.458    82069038.374  
R22  24148292.038   128905358.627    24148291.255   100259902.446  
R15  22608898.271   120814597.034    22608898.516    93966917.605  
R06  24352507.952   129949210.824                                  
R24  19954749.348   106706955.916    19954748.367    82994947.688  
R13  21530265.528   114971249.305                                  
R07  22703228.200   121531827.857    22703226.407    94525248.783  
R08  23080221.203   123594330.194    23080219.359    96128307.824  
R23  20441312.993   109347223.362                                  
R17  23782444.016   127264332.590    23782443.923    98983523.896  
E02  24914678.102   130927431.313    24914678.439   100321198.530  
E10  24367264.147   128050520.285    24367264.811    98116793.634  
E11  23304845.958   122468112.286    23304843.233    93839475.083  
E12  26282254.999   138113949.861    26282254.358   105828296.986  
E14  21982780.999   115520843.021    21982781.152    88515727.453  
E16  24387752.456   128159156.830    24387753.790    98200037.004  
E24  26662323.391   140111795.920    26662324.270   107358178.004  
E25  23469442.301   123332380.664    23469443.524    94502416.301  
E36  25136600.014   132093726.199    25136602.170   101215237.874  
C08  38574550.302   200867342.588    38574540.770   155323280.699  
C13  38349550.862   199696223.955    38349550.068   154417973.928  
C27  23375655.620   121724222.149                                  
C29  24156283.763   125788169.891                                  
C30  21568647.217   112313406.572                                  
C32  25883843.170   134783520.189                                  
C33  26665060.974   138851463.539                                  
C36  22890347.317   119195636.988                                  
> 2025 01 06 18 44 18.0000000  0 38                     
G26  21517719.768   113076109.058    21517719.486    88111407.044  
G10  23248463.863   122171249.508    23248463.350    95198827.595  
G27  20861100.923   109625441.167    20861100.372    85422942.540  
G07  24991614.190   131331607.325    24991611.597   102336258.095  
G08  23353793.764   122725237.388    23353794.272    95629827.805  
G23  21597935.792   113497409.587    21597933.832    88440074.495  
G29  25458033.658   133782706.306    25458032.095   104246669.254  
G15  24771682.855   130176495.865    24771683.391   101435681.627  
G31  25728667.064   135204836.860    25728671.990   105354532.264  
G18  21904810.042   115111301.362    21904807.414    89696546.360  
G16  20325924.567   106814004.034                                  
R14  19794829.325   105517048.468    19794830.844    82068712.771  
R22  24148933.490   128908783.073    24148932.801   100262565.917  
R15  22608168.045   120810694.791    22608168.255    93963882.521  
R06  24352958.549   129951615.305                                  
R24  19954439.005   106705296.399    19954438.068    82993656.958  
R13  21530976.475   114975045.775                                  
R07  22703128.158   121531291.721    22703126.267    94524831.803  
R08  23079594.942   123590976.761    23079593.113    96125699.600  
R23  20441721.403   109349408.465                                  
R17  23781759.131   127260668.157    23781759.237    98980673.785  
E02  24914270.894   130925290.809    24914271.158   100319558.400  
E10  24367528.520   128051909.736    24367529.357    98117858.268  
E11  23304835.943   122468058.994    23304833.172    93839434.243  
E12  26282683.102   138116199.057    26282682.287   105830020.401  
E14  21983700.072   115525673.624    21983700.485    88519428.801  
E16  24388106.229   128161015.501    24388107.470    98201461.186  
E24  26662828.268   140114449.138    26662829.195   107360210.990  
E25  23469559.634   123332997.262    23469560.828    94502888.757  
E36  25136133.954   132091277.192    25136136.245   101213361.369  
C08  38574661.438   200867921.488    38574651.908   155323728.352  
C13  38349609.264   199696528.345    38349608.514   154418209.300  
C27  23376052.502   121726288.281                                  
C29  24155770.883   125785499.417                                  
C30  21568592.772   112313122.312                                  
C32  25883230.547   134780330.382                                  
C33  26665303.678   138852726.959                                  
C36  22890608.982   119196999.918                                  
> 2025 01 06 18 44 19.0000000  0 38                     
G26  21518169.847   113078474.160    21518169.581    88113249.989  
G10  23247807.905   122167802.772    23247807.479    95196141.835  
G27  20860706.566   109623368.957    20860706.076    85421327.832  
G07  24991292.898   131329919.208    24991290.379   102334942.690  
G08  23353167.091   122721944.287    23353167.732    95627261.766  
G23  21597641.488   113495862.981    21597639.537    88438869.343  
G29  25458602.663   133785696.340    25458601.121   104248999.164  
G15  24771318.293   130174579.215    24771318.665   101434188.120  
G31  25729274.691   135208030.296    25729279.529   105357020.661  
G18  21905224.797   115113481.077    21905222.142    89698244.839  
G16  20325988.379   106814339.332                                  
R14  19794750.967   105516630.482    19794752.438    82068387.667  
R22  24149574.941   128912207.210    24149574.268   100265229.144  
R15  22607437.959   120806792.690    22607437.964    93960847.563  
R06  24353409.313   129954020.115                                  
R24  19954128.703   106703637.074    19954127.785    82992366.367  
R13  21531687.532   114978842.360                                  
R07  22703028.204   121530756.193    22703026.122    94524415.281  
R08  23078968.781   123587623.497    23078966.795    96123091.517  
R23  20442129.868   109351593.596                                  
R17  23781074.232   127257003.571    23781074.389    98977823.576  
E02  24913863.458   130923150.315    24913863.777   100317918.285  
E10  24367792.886   128053299.171    24367793.705    98118922.909  
E11  23304825.826   122468005.794    23304823.048    93839393.481  
E12  26283110.936   138118448.107    26283110.334   105831743.712  
E14  21984619.364   115530504.511    21984619.877    88523130.415  
E16  24388460.003   128162874.234    24388461.229    98202885.418  
E24  26663333.237   140117102.243    26663333.988   107362243.899  
E25  23469676.968   123333613.999    23469678.182    94503361.322  
E36  25135667.858   132088828.162    25135670.128   101211484.843  
C08  38574772.538   200868500.264    38574763.045   155324175.901  
C13  38349667.735   199696832.609    38349666.986   154418444.576  
C27  23376449.321   121728354.282                                  
C29  24155257.936   125782828.822                                  
C30  21568538.309   112312838.093                                  
C32  25882617.817   134777140.439                                  
C33  26665546.369   138853990.596                                  
C36  22890870.817   119198363.059                                  
> 2025 01 06 18 44 20.0000000  0 38                     
G26  21518619.968   113080839.470    21518619.605    88115093.088  
G10  23247151.977   122164356.043    23247151.623    95193456.074  
G27  20860312.210   109621296.861    20860311.776    85419713.214  
G07  24990971.630   131328231.380    24990969.202   102333627.488  
G08  23352540.349   122718651.071    23352541.033    95624695.608  
G23  21597347.251   113494316.758    21597345.257    88437664.484  
G29  25459171.575   133788686.222    25459169.986   104251328.943  
G15  24770953.751   130172662.788    24770954.031   101432694.813  
G31  25729882.391   135211223.334    25729887.272   105359508.774  
G18  21905639.548   115115660.905    21905636.803    89699943.405  
G16  20326052.221   106814675.023                                  
R14  19794672.727   105516213.198    19794674.159    82068063.112  
R22  24150216.459   128915631.052    24150215.675   100267892.131  
R15  22606707.725   120802890.786    22606707.868    93957812.747  
R06  24353860.021   129956425.331                                  
R24  19953818.505   106701977.999    19953817.502    82991075.972  
R13  21532398.671   114982639.109                                  
R07  22702928.322   121530221.284    22702926.150    94523999.229  
R08  23078342.621   123584270.431    23078340.646    96120483.567  
R23  20442538.381   109353778.798                                  
R17  23780389.415   127253338.937    23780389.531    98974973.295  
E02  24913456.205   130921009.867    24913456.420   100316278.202  
E10  24368057.270   128054688.647    24368058.132    98119987.565  
E11  23304815.806   122467952.697    23304812.904    93839352.796  
E12  26283538.750   138120697.068    26283538.131   105833466.922  
E14  21985538.785   115535335.864    21985539.313    88526832.348  
E16  24388813.821   128164733.066    24388814.972    98204309.708  
E24  26663838.120   140119755.306    26663838.928   107364276.759  
E25  23469794.381   123334230.907    23469795.699    94503834.024  
E36  25135201.885   132086379.166    25135204.136   101209608.342  
C08  38574883.719   200869078.976    38574874.100   155324623.384  
C13  38349726.143   199697136.798    38349725.382   154418679.803  
C27  23376846.017   121730420.199                                  
C29  24154744.944   125780158.162                                  
C30  21568483.683   112312553.955                                  
C32  25882005.076   134773950.384                                  
C33  26665789.106   138855254.505                                  
C36  22891132.538   119199726.466                                  
> 2025 01 06 18 44 21.0000000  0 38                     
G26  21519070.034   113083205.151    21519069.785    88116936.478  
G10  23246496.085   122160909.526    23246495.628    95190770.472  
G27  20859917.989   109619225.061    20859917.518    85418098.829  
G07  24990650.437   131326544.038    24990648.140   102332312.645  
G08  23351913.747   122715357.930    23351914.323    95622129.537  
G23  21597053.107   113492771.097    21597051.034    88436460.082  
G29  25459740.546   133791676.058    25459738.997   104253658.700  
G15  24770589.240   130170746.862    24770589.418   101431201.893  
G31  25730490.050   135214416.218    25730494.737   105361996.732  
G18  21906054.448   115117841.002    21906051.630    89701642.182  
G16  20326116.134   106815011.315                                  
R14  19794594.650   105515796.807    19794595.927    82067739.261  
R22  24150857.804   128919054.787    24150856.947   100270555.028  
R15  22605977.686   120798989.253    22605977.843    93954778.206  
R06  24354310.926   129958831.143                                  
R24  19953508.352   106700319.367    19953507.350    82989785.929  
R13  21533109.733   114986436.220                                  
R07  22702828.639   121529687.177    22702826.343    94523583.821  
R08  23077716.649   123580917.741    23077714.610    96117875.923  
R23  20442946.977   109355964.259                                  
R17  23779704.598   127249674.454    23779704.719    98972123.185  
E02  24913048.749   130918869.663    24913049.060   100314638.304  
E10  24368321.615   128056078.341    24368322.573    98121052.401  
E11  23304805.759   122467899.931    23304802.909    93839312.371  
E12  26283966.957   138122946.122    26283966.059   105835190.229  
E14  21986458.246   115540167.770    21986458.785    88530534.703  
E16  24389167.625   128166592.175    24389168.634    98205734.221  
E24  26664343.131   140122408.481    26664343.682   107366309.717  
E25  23469911.819   123334848.194    23469913.120    94504307.004  
E36  25134735.903   132083930.399    25134738.148   101207732.007  
C08  38574994.885   200869657.776    38574985.355   155325070.958  
C13  38349784.539   199697441.106    38349783.830   154418915.095  
C27  23377242.677   121732486.232                                  
C29  24154232.053   125777487.618                                  
C30  21568429.205   112312270.077                                  
C32  25881392.565   134770760.409                                  
C33  26666031.965   138856518.857                                  
C36  22891394.326   119201090.317                                  
> 2025 01 06 18 44 22.0000000  0 38                     
G26  21519520.356   113085571.712    21519520.160    88118780.541  
G10  23245840.280   122157463.667    23245839.805    95188085.391  
G27  20859523.927   109617154.038    20859523.424    85416485.047  
G07  24990329.519   131324857.585    24990327.235   102330998.551  
G08  23351287.173   122712065.303    23351287.762    95619563.869  
G23  21596759.179   113491226.488    21596757.071    88435256.487  
G29  25460309.607   133794666.386    25460308.059   104255988.818  
G15  24770225.045   130168831.834    24770224.917   101429709.656  
G31  25731097.563   135217609.381    25731102.334   105364777.906  
G18  21906469.399   115120021.856    21906466.682    89703341.547  
G16  20326180.377   106815348.676                                  
R14  19794516.788   105515381.785    19794517.955    82067416.466  
R22  24151499.286   128922478.891    24151498.391   100273218.199  
R15  22605247.726   120795088.576    22605247.927    93951744.362  
R06  24354762.023   129961237.984                                  
R24  19953198.294   106698661.649    19953197.407    82988496.587  
R13  21533821.039   114990234.170                                  
R07  22702729.215   121529154.344    22702726.872    94523169.395  
R08  23077090.742   123577565.928    23077088.768    96115268.953  
R23  20443355.662   109358150.454                                  
R17  23779019.953   127246010.555    23779019.971    98969273.467  
E02  24912641.663   130916730.152    24912641.989   100312998.947  
E10  24368586.189   128057468.720    24368587.191    98122117.757  
E11  23304795.910   122467847.971    23304792.947    93839272.554  
E12  26284395.269   138125195.726    26284394.246   105836913.955  
E14  21987377.735   115545000.555    21987378.446    88534237.745  
E16  24389521.472   128168452.019    24389522.565    98207159.295  
E24  26664848.044   140125062.264    26664848.762   107368343.124  
E25  23470029.444   123335466.304    23470030.733    94504780.624  
E36  25134269.970   132081482.292    25134272.333   101205856.193  
C08  38575106.183   200870237.185    38575096.632   155325518.983  
C13  38349843.070   199697745.954    38349842.377   154419150.833  
C27  23377639.596   121734552.821                                  
C29  24153719.205   125774817.623                                  
C30  21568374.742   112311986.924                                  
C32  25880780.027   134767570.986                                  
C33  26666274.979   138857784.125                                  
C36  22891656.449   119202455.076                                  
> 2025 01 06 18 44 23.0000000  0 38                     
G26  21519970.740   113087938.708    21519970.598    88120624.963  
G10  23245184.595   122154018.067    23245184.135    95185400.500  
G27  20859129.956   109615083.366    20859129.366    85414871.527  
G07  24990008.696   131323171.678    24990006.595   102329684.846  
G08  23350660.644   122708772.837    23350661.175    95616998.323  
G23  21596465.410   113489682.501    21596463.200    88434053.387  
G29  25460878.799   133797656.755    25460877.107   104258318.994  
G15  24769860.912   130166917.300    24769860.619   101428217.837  
G31  25731705.206   135220802.440    25731709.712   105367175.562  
G18  21906884.539   115122203.048    21906881.743    89705041.182  
G16  20326244.784   106815686.682                                  
R14  19794439.146   105514967.652    19794440.147    82067094.358  
R22  24152140.775   128925902.940    24152139.865   100275881.358  
R15  22604517.801   120791188.360    22604518.031    93948710.873  
R06  24355213.202   129963645.508                                  
R24  19952888.447   106697004.389    19952887.498    82987207.611  
R13  21534532.341   114994032.567                                  
R07  22702629.986   121528622.385    22702627.456    94522755.648  
R08  23076464.892   123574214.610    23076462.910    96112662.370  
R23  20443764.401   109360336.960                                  
R17  23778335.130   127242346.785    23778335.363    98966423.896  
E02  24912234.560   130914590.947    24912234.949   100311359.815  
E10  24368850.806   128058859.380    24368851.885    98123183.323  
E11  23304786.042   122467796.370    23304783.223    93839233.029  
E12  26284823.120   138127445.453    26284822.343   105838637.773  
E14  21988297.443   115549833.913    21988298.261    88537941.237  
E16  24389875.538   128170312.199    24389876.474    98208584.629  
E24  26665353.055   140127716.204    26665353.767   107370376.660  
E25  23470147.265   123336084.835    23470148.452    94505254.563  
E36  25133803.959   132079034.461    25133806.455   101203980.588  
C08  38575217.468   200870816.718    38575207.872   155325967.131  
C13  38349901.686   199698050.976    38349900.959   154419386.693  
C27  23378036.502   121736619.570                                  
C29  24153206.484   125772147.803                                  
C30  21568320.406   112311704.090                                  
C32  25880167.664   134764381.704                                  
C33  26666518.019   138859049.887                                  
C36  22891918.613   119203820.336                                  
> 2025 01 06 18 44 24.0000000  0 38                     
G26  21520421.235   113090305.856    21520421.048    88122469.489  
G10  23244528.897   122150572.418    23244528.413    95182715.574  
G27  20858735.858   109613012.765    20858735.313    85413258.081  
G07  24989687.927   131321485.934    24989685.960   102328371.307  
G08  23350034.076   122705480.180    23350034.560    95614432.619  
G23  21596171.771   113488138.833    21596169.399    88432850.532  
G29  25461447.743   133800646.883    25461446.150   104260648.931  
G15  24769496.666   130165003.010    24769496.300   101426726.159  
G31  25732312.869   135223995.012    25732317.219   105369573.219  
G18  21907299.612   115124384.273    21907296.837    89706740.840  
G16  20326309.149   106816025.023                                  
R14  19794361.655   105514554.121    19794362.501    82066772.729  
R22  24152782.130   128929326.631    24152781.244   100278544.235  
R15  22603788.093   120787288.295    22603788.225    93945677.495  
R06  24355664.480   129966053.297                                  
R24  19952578.531   106695347.273    19952577.557    82985918.743  
R13  21535243.679   114997831.094                                  
R07  22702530.688   121528090.988    22702528.119    94522342.344  
R08  23075839.057   123570863.489    23075837.248    96110055.937  
R23  20444173.179   109362523.452                                  
R17  23777650.407   127238682.871    23777650.588    98963574.193  
E02  24911827.411   130912451.725    24911827.807   100309720.670  
E10  24369115.341   128060250.002    24369116.465    98124248.866  
E11  23304776.153   122467744.836    23304773.343    93839193.542  
E12  26285251.261   138129695.042    26285250.450   105840361.470  
E14  21989217.248   115554667.590    21989218.109    88541644.964  
E16  24390229.674   128172172.406    24390230.457    98210009.985  
E24  26665857.993   140130370.013    26665858.756   107372410.106  
E25  23470264.798   123336703.479    23470266.166    94505728.594  
E36  25133338.132   132076586.604    25133340.655   101202104.950  
C08  38575328.787   200871396.123    38575319.171   155326415.161  
C13  38349960.345   199698355.837    38349959.550   154419622.441  
C27  23378433.387   121738686.174                                  
C29  24152693.761   125769477.840                                  
C30  21568266.157   112311421.271                                  
C32  25879555.216   134761192.252                                  
C33  26666761.265   138860315.851                                  
C36  22892180.899   119205185.780                                  
> 2025 01 06 18 44 25.0000000  0 38                     
G26  21520871.762   113092673.264    21520871.496    88124314.221  
G10  23243873.213   122147126.838    23243872.778    95180030.727  
G27  20858341.911   109610942.344    20858341.335    85411644.757  
G07  24989367.146   131319800.540    24989365.280   102327058.015  
G08  23349407.505   122702187.502    23349408.113    95611866.903  
G23  21595878.118   113486595.627    21595875.677    88431648.038  
G29  25462016.788   133803636.892    25462015.222   104262978.838  
G15  24769132.554   130163089.026    24769132.039   101425234.758  
G31  25732920.321   135227187.285    25732924.566   105371970.875  
G18  21907714.736   115126565.663    21907711.933    89708440.633  
G16  20326373.601   106816363.867                                  
R14  19794284.130   105514141.348    19794285.119    82066451.681  
R22  24153423.345   128932750.104    24153422.582   100281206.908  
R15  22603058.332   120783388.537    22603058.314    93942644.346  
R06  24356115.822   129968461.570                                  
R24  19952268.603   106693690.489    19952267.702    82984630.132  
R13  21535955.067   115001629.904                                  
R07  22702431.669   121527560.317    22702428.932    94521929.590  
R08  23075213.282   123567512.663    23075211.536    96107449.753  
R23  20444581.871   109364710.084                                  
R17  23776965.683   127235018.929    23776965.894    98960724.475  
E02  24911420.462   130910312.622    24911420.809   100308081.619  
E10  24369380.047   128061640.738    24369381.103    98125314.495  
E11  23304766.475   122467693.500    23304763.564    93839154.197  
E12  26285679.409   138131944.599    26285678.610   105842085.156  
E14  21990137.231   115559501.752    21990138.129    88545349.060  
E16  24390583.573   128174032.781    24390584.543    98211435.458  
E24  26666363.095   140133023.823    26666363.867   107374443.544  
E25  23470382.579   123337322.379    23470383.898    94506202.813  
E36  25132872.510   132074138.838    25132874.876   101200229.392  
C08  38575440.006   200871975.511    38575430.431   155326863.185  
C13  38350018.865   199698660.731    38350018.191   154419858.199  
C27  23378830.235   121740752.773                                  
C29  24152180.985   125766807.879                                  
C30  21568211.936   112311138.606                                  
C32  25878942.764   134758002.769                                  
C33  26667004.609   138861582.141                                  
C36  22892443.177   119206551.566                                  
> 2025 01 06 18 44 26.0000000  0 38                     
G26  21521322.336   113095041.242    21521322.014    88126159.420  
G10  23243217.610   122143681.664    23243217.201    95177346.174  
G27  20857948.064   109608872.406    20857947.501    85410031.826  
G07  24989046.502   131318115.793    24989044.682   102325745.218  
G08  23348780.961   122698895.080    23348781.655    95609301.362  
G23  21595584.710   113485053.183    21595582.245    88430446.131  
G29  25462585.894   133806627.074    25462584.226   104265308.843  
G15  24768768.564   130161175.699    24768768.000   101423743.845  
G31  25733527.896   135230379.573    25733531.729   105374368.531  
G18  21908129.988   115128747.510    21908127.113    89710140.760  
G16  20326438.170   106816703.478                                  
R14  19794206.801   105513729.597    19794207.966    82066131.427  
R22  24154064.772   128936173.662    24154063.950   100283869.687  
R15  22602328.636   120779489.343    22602328.596    93939611.645  
R06  24356567.341   129970870.517                                  
R24  19951958.871   106692034.321    19951958.027    82983342.012  
R13  21536666.554   115005429.262                                  
R07  22702332.672   121527030.643    22702329.965    94521517.622  
R08  23074587.649   123564162.401    23074585.902    96104844.000  
R23  20444990.840   109366897.156                                  
R17  23776281.007   127231355.289    23776281.425    98957874.993  
E02  24911013.346   130908173.940    24911013.843   100306442.888  
E10  24369644.786   128063031.866    24369645.744    98126380.424  
E11  23304756.779   122467642.676    23304753.883    93839115.264  
E12  26286107.372   138134194.385    26286106.692   105843809.048  
E14  21991057.159   115564336.673    21991058.234    88549053.733  
E16  24390937.808   128175893.601    24390938.625    98212861.285  
E24  26666868.133   140135677.956    26666868.816   107376477.232  
E25  23470500.537   123337941.831    23470501.786    94506677.459  
E36  25132406.714   132071691.471    25132409.258   101198354.139  
C08  38575551.292   200872555.198    38575541.720   155327311.423  
C13  38350077.475   199698965.855    38350076.766   154420094.138  
C27  23379227.153   121742819.644                                  
C29  24151668.283   125764138.200                                  
C30  21568157.702   112310856.379                                  
C32  25878330.252   134754813.543                                  
C33  26667247.804   138862849.085                                  
C36  22892705.650   119207917.974                                  
> 2025 01 06 18 44 27.0000000  0 39                     
G26  21521773.113   113097409.946    21521772.798    88128005.155  
G10  23242562.062   122140236.998    23242561.733    95174662.032  
G27  20857554.353   109606803.111    20857553.641    85408419.380  
G07  24988726.101   131316431.810    24988724.228   102324433.040  
G08  23348154.442   122695603.031    23348155.212    95606736.136  
G23  21595291.368   113483511.618    21595288.913    88429244.913  
G29  25463155.061   133809617.571    25463153.200   104267639.098  
G15  24768404.746   130159263.143    24768404.044   101422253.538  
G31  25734135.495   135233571.957    25734139.095   105376766.187  
G18  21908545.288   115130929.974    21908542.448    89711841.389  
G16  20326503.012   106817044.018                                  
R14  19794129.817   105513319.027    19794131.032    82065812.095  
R22  24154706.102   128939597.453    24154705.315   100286532.634  
R15  22601599.047   120775590.876    22601598.931    93936579.485  
R06  24357019.188   129973280.428                                  
R24  19951649.366   106690378.897    19951648.470    82982054.456  
R26  22901569.133   122120921.942                                  
R13  21537378.112   115009229.306                                  
R07  22702234.052   121526502.095    22702231.239    94521106.529  
R08  23073962.148   123560812.871    23073960.319    96102238.801  
R23  20445399.761   109369084.817                                  
R17  23775596.402   127227692.050    23775596.853    98955025.804  
E02  24910606.561   130906035.817    24910606.962   100304804.583  
E10  24369909.806   128064423.544    24369910.584    98127446.776  
E11  23304747.222   122467592.502    23304744.304    93839076.807  
E12  26286535.723   138136444.634    26286534.912   105845533.247  
E14  21991977.276   115569172.506    21991978.400    88552759.103  
E16  24391292.188   128177755.039    24391292.793    98214287.570  
E24  26667373.338   140138332.563    26667373.995   107378511.275  
E25  23470618.437   123338561.956    23470619.847    94507152.624  
E36  25131941.111   132069244.647    25131943.495   101196479.294  
C08  38575662.717   200873135.309    38575653.067   155327760.001  
C13  38350136.251   199699271.458    38350135.441   154420330.456  
C27  23379624.185   121744886.949                                  
C29  24151155.557   125761468.947                                  
C30  21568103.514   112310574.741                                  
C32  25877717.812   134751624.730                                  
C33  26667491.269   138864116.778                                  
C36  22892968.231   119209285.144                                  
> 2025 01 06 18 44 28.0000000  0 38                     
G26  21522223.984   113099779.318    21522223.608    88129851.409  
G10  23241906.682   122136792.821    23241906.349    95171978.249  
G27  20857160.685   109604734.375    20857159.843    85406807.385  
G07  24988405.872   131314748.593    24988403.979   102323121.441  
G08  23347528.052   122692311.331    23347528.796    95604171.179  
G23  21594998.095   113481970.897    21594995.758    88428044.358  
G29  25463724.350   133812608.371    25463722.364   104269969.561  
G15  24768041.026   130157351.317    24768040.152   101420763.798  
G31  25734742.933   135236764.467    25734746.535   105379163.844  
G18  21908960.780   115133112.984    21908957.824    89713542.443  
G16  20326568.027   106817385.407                                  
R14  19794053.062   105512909.596    19794054.183    82065493.647  
R22  24155347.564   128943021.386    24155346.706   100289195.716  
R15  22600869.621   120771693.048    22600869.540    93933547.843  
R06  24357471.012   129975691.159                                  
R24  19951339.810   106688724.146    19951339.021    82980767.428  
R13  21538089.894   115013029.983                                  
R07  22702135.463   121525974.620    22702132.776    94520696.280  
R08  23073336.828   123557464.037    23073334.798    96099634.153  
R23  20445808.916   109371273.023                                  
R17  23774911.823   127224029.220    23774912.313    98952176.963  
E02  24910199.780   130903898.203    24910200.096   100303166.674  
E10  24370174.651   128065815.712    24370175.509    98128513.500  
E11  23304737.765   122467542.902    23304734.892    93839038.811  
E12  26286964.102   138138695.209    26286963.238   105847257.721  
E14  21992897.716   115574009.204    21992898.844    88556465.145  
E16  24391646.397   128179617.005    24391647.101    98215714.288  
E24  26667878.555   140140987.534    26667879.165   107380545.606  
E25  23470736.456   123339182.738    23470737.844    94507628.283  
E36  25131475.440   132066798.310    25131478.023   101194604.831  
C08  38575774.153   200873715.778    38575764.536   155328208.876  
C13  38350194.914   199699577.425    38350194.207   154420567.050  
C27  23380021.330   121746954.615                                  
C29  24150643.005   125758800.073                                  
C30  21568049.490   112310293.630                                  
C32  25877105.463   134748436.276                                  
C33  26667734.956   138865385.173                                  
C36  22893230.930   119210653.024                                  
> 2025 01 06 18 44 29.0000000  0 38                     
G26  21522674.906   113102148.943    21522674.458    88131697.870  
G10  23241251.190   122133348.700    23241250.984    95169294.520  
G27  20856767.061   109602665.824    20856766.259    85405195.529  
G07  24988085.756   131313065.678    24988083.747   102321810.084  
G08  23346901.629   122689019.589    23346902.356    95601606.191  
G23  21594705.006   113480430.638    21594702.791    88426844.146  
G29  25464293.443   133815598.973    25464291.449   104272299.952  
G15  24767677.318   130155439.773    24767676.359   101419274.303  
G31  25735350.442   135239956.658    25735353.861   105381561.500  
G18  21909376.275   115135296.159    21909373.276    89715243.618  
G16  20326633.106   106817727.275                                  
R14  19793976.409   105512500.914    19793977.432    82065175.788  
R22  24155988.932   128946445.102    24155988.069   100291858.601  
R15  22600140.178   120767795.459    22600140.058    93930516.399  
R06  24357922.761   129978102.350                                  
R24  19951030.528   106687069.705    19951029.619    82979480.643  
R13  21538801.666   115016830.867                                  
R07  22702037.062   121525447.828    22702034.344    94520286.540  
R08  23072711.562   123554115.489    23072709.525    96097029.744  
R23  20446217.959   109373461.358                                  
R17  23774227.207   127220366.397    23774227.839    98949328.099  
E02  24909793.078   130901760.698    24909793.444   100301528.842  
E10  24370439.619   128067207.969    24370440.393    98129580.296  
E11  23304728.312   122467493.488    23304725.489    93839000.941  
E12  26287392.281   138140945.752    26287391.432   105848982.162  
E14  21993818.108   115578846.332    21993819.424    88560171.512  
E16  24392000.591   128181479.134    24392001.431    98217141.106  
E24  26668383.789   140143642.501    26668384.379   107382579.920  
E25  23470854.646   123339803.751    23470856.107    94508104.124  
E36  25131010.182   132064352.054    25131012.504   101192730.439  
C08  38575885.621   200874296.251    38575876.078   155328657.729  
C13  38350253.583   199699883.367    38350252.935   154420803.623  
C27  23380418.424   121749022.263                                  
C29  24150130.405   125756131.187                                  
C30  21567995.512   112310012.660                                  
C32  25876493.148   134745247.759                                  
C33  26667978.595   138866653.906                                  
C36  22893493.701   119212021.222                                  
> 2025 01 06 18 44 30.0000000  0 38                     
G26  21523125.895   113104519.075    21523125.540    88133544.726  
G10  23240595.774   122129904.894    23240595.618    95166611.050  
G27  20856373.489   109600597.684    20856372.710    85403583.996  
G07  24987765.606   131311383.332    24987763.658   102320499.146  
G08  23346275.187   122685728.014    23346275.940    95599041.347  
G23  21594411.972   113478891.058    21594409.739    88425644.478  
G29  25464862.619   133818589.726    25464860.579   104274630.386  
G15  24767313.700   130153528.803    24767312.633   101417785.231  
G31  25735957.826   135243148.739    25735961.073   105383959.156  
G18  21909791.800   115137479.719    21909788.755    89716945.089  
G16  20326698.340   106818069.843                                  
R14  19793899.910   105512093.225    19793900.967    82064858.699  
R22  24156630.322   128949868.818    24156629.406   100294521.505  
R15  22599410.899   120763898.375    22599410.736    93927485.328  
R06  24358374.924   129980514.239                                  
R24  19950721.257   106685415.809    19950720.298    82978194.272  
R13  21539513.464   115020632.211                                  
R07  22701938.794   121524921.958    22701936.098    94519877.534  
R08  23072086.464   123550767.473    23072084.395    96094425.729  
R23  20446627.087   109375650.067                                  
R17  23773542.794   127216703.789    23773543.393    98946479.437  
E02  24909386.557   130899623.537    24909386.803   100299891.281  
E10  24370704.645   128068600.559    24370705.482    98130647.346  
E11  23304718.983   122467444.514    23304716.141    93838963.418  
E12  26287820.441   138143196.499    26287819.622   105850706.758  
E14  21994738.614   115583684.091    21994739.942    88563878.384  
E16  24392354.993   128183341.645    24392355.915    98218568.229  
E24  26668888.957   140146297.703    26668889.657   107384614.439  
E25  23470972.934   123340425.238    23470974.404    94508580.334  
E36  25130544.744   132061906.126    25130547.089   101190856.281  
C08  38575997.111   200874876.932    38575987.601   155329106.747  
C13  38350312.439   199700189.520    38350311.676   154421040.364  
C27  23380815.550   121751090.120                                  
C29  24149617.963   125753462.525                                  
C30  21567941.560   112309732.062                                  
C32  25875880.834   134742059.451                                  
C33  26668222.252   138867923.194                                  
C36  22893756.383   119213389.967                                  
> 2025 01 06 18 44 31.0000000  0 38                     
G26  21523576.947   113106889.598    21523576.678    88135391.895  
G10  23239940.415   122126461.307    23239940.253    95163927.728  
G27  20855979.948   109598529.845    20855979.236    85401972.689  
G07  24987445.520   131309701.468    24987443.719   102319188.621  
G08  23345648.788   122682436.525    23345649.581    95596476.555  
G23  21594119.089   113477352.043    21594116.893    88424445.245  
G29  25465431.739   133821580.453    25465429.703   104276960.803  
G15  24766950.255   130151618.333    24766949.086   101416296.562  
G31  25736565.315   135246340.665    25736568.317   105386356.812  
G18  21910207.346   115139663.567    21910204.266    89718646.789  
G16  20326763.642   106818413.011                                  
R14  19793823.711   105511686.406    19793824.730    82064542.280  
R22  24157271.709   128953292.438    24157270.747   100297184.324  
R15  22598681.562   120760001.695    22598681.651    93924454.590  
R06  24358827.233   129982926.719                                  
R24  19950412.001   106683762.362    19950411.118    82976908.268  
R13  21540225.421   115024433.945                                  
R07  22701840.789   121524396.924    22701838.102    94519469.176  
R08  23071461.316   123547419.858    23071459.227    96091822.033  
R23  20447036.217   109377839.051                                  
R17  23772858.360   127213041.286    23772858.947    98943630.833  
E02  24908979.916   130897486.619    24908980.084   100298253.902  
E10  24370969.798   128069993.362    24370970.510    98131714.557  
E11  23304709.794   122467395.872    23304706.961    93838926.155  
E12  26288248.787   138145447.328    26288248.026   105852431.414  
E14  21995659.351   115588522.419    21995660.655    88567585.652  
E16  24392709.502   128185204.442    24392710.355    98219995.558  
E24  26669394.111   140148953.027    26669395.167   107386649.046  
E25  23471091.229   123341047.088    23471092.749    94509056.818  
E36  25130079.331   132059460.421    25130081.763   101188982.298  
C08  38576108.774   200875457.733    38576099.147   155329555.859  
C13  38350371.370   199700495.782    38350370.509   154421277.186  
C27  23381212.772   121753158.085                                  
C29  24149105.621   125750793.968                                  
C30  21567887.707   112309451.727                                  
C32  25875268.470   134738871.222                                  
C33  26668466.073   138869192.935                                  
C36  22894019.257   119214759.170                                  
> 2025 01 06 18 44 32.0000000  0 38                     
G26  21524028.094   113109260.479    21524027.879    88137239.334  
G10  23239285.193   122123017.877    23239284.954    95161244.538  
G27  20855586.493   109596462.292    20855585.786    85400361.612  
G07  24987125.605   131308020.014    24987123.732   102317878.398  
G08  23345022.334   122679145.100    23345023.246    95593911.797  
G23  21593826.380   113475813.582    21593824.093    88423246.440  
G29  25466000.870   133824571.172    25465998.876   104279291.262  
G15  24766586.872   130149708.251    24766585.588   101414808.181  
G31  25737172.929   135249532.367    25737175.537   105388754.469  
G18  21910623.029   115141847.668    21910619.988    89720348.686  
G16  20326829.077   106818756.754                                  
R14  19793747.570   105511280.406    19793748.646    82064226.505  
R22  24157913.093   128956715.930    24157912.049   100299847.039  
R15  22597952.357   120756105.396    22597952.463    93921424.128  
R06  24359279.594   129985339.742                                  
R24  19950102.989   106682109.302    19950101.986    82975622.551  
R13  21540937.501   115028236.032                                  
R07  22701742.813   121523872.683    22701740.078    94519061.428  
R08  23070836.319   123544072.612    23070834.117    96089218.613  
R23  20447445.435   109380028.261                                  
R17  23772173.946   127209378.883    23772174.529    98940782.300  
E02  24908573.193   130895349.910    24908573.431   100296616.683  
E10  24371234.845   128071386.361    24371235.586    98132781.921  
E11  23304700.658   122467347.520    23304697.661    93838889.098  
E12  26288677.315   138147698.202    26288676.416   105854156.112  
E14  21996580.135   115593361.298    21996581.349    88571293.385  
E16  24393064.090   128187067.478    24393064.884    98221423.081  
E24  26669899.483   140151608.469    26669900.300   107388683.716  
E25  23471209.574   123341669.283    23471211.103    94509533.561  
E36  25129613.928   132057014.895    25129616.257   101187108.456  
C08  38576220.176   200876038.621    38576210.667   155330005.028  
C13  38350430.093   199700802.135    38350429.351   154421514.073  
C27  23381609.857   121755226.119                                  
C29  24148593.102   125748125.484                                  
C30  21567833.903   112309171.632                                  
C32  25874656.064   134735683.042                                  
C33  26668710.030   138870463.087                                  
C36  22894282.249   119216128.784                                  
> 2025 01 06 18 44 33.0000000  0 38                     
G26  21524479.348   113111631.753    21524479.183    88139087.078  
G10  23238629.998   122119574.665    23238629.650    95158561.510  
G27  20855193.190   109594395.044    20855192.371    85398750.772  
G07  24986805.713   131306339.031    24986803.776   102316568.540  
G08  23344395.990   122675853.740    23344396.983    95591347.120  
G23  21593533.804   113474275.686    21593531.451    88422048.092  
G29  25466569.966   133827561.881    25466568.026   104281621.672  
G15  24766223.610   130147798.639    24766222.155   101413320.175  
G31  25737780.188   135252723.916    25737782.697   105391152.125  
G18  21911038.754   115144032.058    21911035.667    89722050.820  
G16  20326894.503   106819101.086                                  
R14  19793671.718   105510875.293    19793672.690    82063911.425  
R22  24158554.506   128960139.306    24158553.342   100302509.673  
R15  22597223.177   120752209.509    22597223.305    93918393.995  
R06  24359731.873   129987753.276                                  
R24  19949793.956   106680456.688    19949792.957    82974337.189  
R13  21541649.549   115032038.477                                  
R07  22701645.155   121523349.230    22701642.139    94518654.307  
R08  23070211.424   123540725.790    23070209.149    96086615.535  
R23  20447854.656   109382217.731                                  
R17  23771489.450   127205716.594    23771490.103    98937933.840  
E02  24908166.662   130893213.433    24908166.936   100294979.652  
E10  24371500.010   128072779.583    24371500.756    98133849.457  
E11  23304691.493   122467299.463    23304688.592    93838852.279  
E12  26289105.593   138149949.193    26289104.693   105855880.888  
E14  21997501.013   115598200.750    21997502.419    88575001.527  
E16  24393418.738   128188930.802    24393419.438    98222850.823  
E24  26670404.801   140154264.023    26670405.650   107390718.488  
E25  23471328.067   123342291.844    23471329.555    94510010.591  
E36  25129148.613   132054569.589    25129150.977   101185234.788  
C08  38576331.626   200876619.587    38576322.187   155330454.280  
C13  38350488.956   199701108.584    38350488.176   154421751.037  
C27  23382006.940   121757294.268                                  
C29  24148080.726   125745457.126                                  
C30  21567780.154   112308891.798                                  
C32  25874043.874   134732494.968                                  
C33  26668954.081   138871733.690                                  
C36  22894545.449   119217498.848                                  
> 2025 01 06 18 44 34.0000000  0 38                     
G26  21524930.641   113114003.604    21524930.501    88140935.268  
G10  23237974.812   122116131.836    23237974.569    95155878.779  
G27  20854800.042   109592328.287    20854799.132    85397140.298  
G07  24986486.006   131304658.684    24986484.002   102315259.186  
G08  23343769.709   122672562.643    23343770.777    95588782.631  
G23  21593241.296   113472738.556    21593238.982    88420850.326  
G29  25467139.119   133830552.803    25467137.227   104283952.233  
G15  24765860.348   130145889.646    24765858.897   101411832.668  
G31  25738387.533   135255915.473    25738389.975   105394748.609  
G18  21911454.422   115146216.905    21911451.404    89723753.303  
G16  20326960.282   106819446.212                                  
R14  19793595.865   105510471.237    19793596.937    82063597.159  
R22  24159195.815   128963562.777    24159194.592   100305172.360  
R15  22596494.142   120748314.195    22596494.329    93915364.292  
R06  24360184.258   129990167.607                                  
R24  19949484.929   106678804.702    19949484.018    82973052.316  
R13  21542361.771   115035841.480                                  
R07  22701547.354   121522826.766    22701544.658    94518247.939  
R08  23069586.510   123537379.565    23069584.325    96084012.915  
R23  20448264.124   109384407.647                                  
R17  23770805.094   127202054.581    23770805.725    98935085.621  
E02  24907760.203   130891077.393    24907760.417   100293342.943  
E10  24371765.183   128074173.218    24371765.900    98134917.304  
E11  23304682.512   122467251.917    23304679.542    93838815.851  
E12  26289534.003   138152200.413    26289533.105   105857605.859  
E14  21998422.019   115603040.917    21998423.446    88578710.217  
E16  24393773.327   128190794.587    24393774.113    98224278.914  
E24  26670910.269   140156919.890    26670911.026   107392753.496  
E25  23471446.628   123342914.962    23471448.130    94510488.044  
E36  25128683.336   132052124.691    25128685.767   101183361.416  
C08  38576443.116   200877200.828    38576433.780   155330903.740  
C13  38350547.892   199701415.354    38350547.026   154421988.247  
C27  23382404.104   121759362.697                                  
C29  24147568.441   125742789.062                                  
C30  21567726.597   112308612.416                                  
C32  25873431.604   134729307.155                                  
C33  26669198.287   138873004.931                                  
C36  22894808.775   119218869.540                                  
> 2025 01 06 18 44 35.0000000  0 38                     
G26  21525382.102   113116375.970    21525382.063    88142783.869  
G10  23237319.691   122112689.333    23237319.457    95153196.317  
G27  20854406.810   109590261.956    20854405.945    85395530.175  
G07  24986166.480   131302978.927    24986164.314   102313950.275  
G08  23343143.492   122669271.761    23343144.450    95586218.312  
G23  21592948.905   113471202.135    21592946.557    88419653.110  
G29  25467708.315   133833543.815    25467706.507   104286282.924  
G15  24765497.332   130143981.266    24765495.845   101410345.624  
G31  25738994.857   135259106.955    25738996.784   105397146.265  
G18  21911870.208   115148402.171    21911867.265    89725456.093  
G16  20327026.075   106819792.046                                  
R14  19793520.231   105510068.153    19793521.340    82063283.650  
R22  24159837.210   128966986.275    24159835.965   100307835.094  
R15  22595765.204   120744419.395    22595765.489    93912335.005  
R06  24360636.969   129992582.651                                  
R24  19949176.107   106677153.258    19949175.249    82971767.852  
R13  21543073.967   115039644.984                                  
R07  22701449.773   121522305.199    22701447.254    94517842.275  
R08  23068961.790   123534033.893    23068959.476    96081410.715  
R23  20448673.586   109386597.953                                  
R17  23770120.752   127198392.807    23770121.372    98932237.592  
E02  24907354.022   130888941.716    24907354.019   100291706.515  
E10  24372030.490   128075567.200    24372031.183    98135985.416  
E11  23304673.475   122467204.848    23304670.649    93838779.784  
E12  26289962.566   138154451.861    26289961.767   105859330.993  
E14  21999343.130   115607881.671    21999344.560    88582419.358  
E16  24394128.278   128192658.783    24394128.875    98225707.321  
E24  26671415.602   140159575.995    26671416.505   107394788.699  
E25  23471565.259   123343538.576    23471566.972    94510965.872  
E36  25128218.190   132049680.131    25128220.536   101181488.317  
C08  38576554.840   200877782.292    38576545.506   155331353.362  
C13  38350606.775   199701722.341    38350605.991   154422225.628  
C27  23382801.355   121761431.356                                  
C29  24147056.145   125740121.243                                  
C30  21567672.890   112308333.427                                  
C32  25872819.539   134726119.539                                  
C33  26669442.538   138874276.735                                  
C36  22895072.045   119220240.797                                  
> 2025 01 06 18 44 36.0000000  0 38                     
G26  21525833.611   113118748.952    21525833.626    88144632.948  
G10  23236664.594   122109247.252    23236664.398    95150514.177  
G27  20854013.762   109588196.149    20854012.905    85393920.463  
G07  24985846.948   131301299.844    24985844.740   102312641.911  
G08  23342517.296   122665981.142    23342518.233    95583654.196  
G23  21592656.766   113469666.483    21592654.272    88418456.504  
G29  25468277.522   133836535.022    25468275.749   104288613.734  
G15  24765134.407   130142073.537    24765132.800   101408859.082  
G31  25739602.113   135262298.513    25739604.033   105399543.922  
G18  21912286.101   115150587.930    21912283.300    89727159.298  
G16  20327092.065   106820138.703                                  
R14  19793444.790   105509666.140    19793445.920    82062970.978  
R22  24160478.530   128970409.868    24160477.226   100310497.867  
R15  22595036.479   120740525.173    22595036.692    93909306.179  
R06  24361089.835   129994998.420                                  
R24  19948867.370   106675502.423    19948866.487    82970483.874  
R13  21543786.388   115043449.082                                  
R07  22701352.435   121521784.665    22701350.047    94517437.413  
R08  23068337.138   123530688.847    23068334.830    96078809.021  
R23  20449083.205   109388788.733                                  
R17  23769436.531   127194731.358    23769437.061    98929389.803  
E02  24906947.523   130886806.490    24906947.730   100290070.435  
E10  24372295.817   128076961.604    24372296.574    98137053.865  
E11  23304664.693   122467158.296    23304661.727    93838744.116  
E12  26290391.109   138156703.623    26290390.262   105861056.368  
E14  22000264.297   115612723.209    22000265.946    88586129.103  
E16  24394483.102   128194523.454    24394483.702    98227136.105  
E24  26671921.112   140162232.425    26671922.015   107396824.152  
E25  23471683.946   123344162.753    23471685.720    94511444.147  
E36  25127753.065   132047236.000    25127755.485   101179615.545  
C08  38576666.684   200878364.094    38576657.204   155331803.242  
C13  38350665.651   199702029.630    38350665.004   154422463.250  
C27  23383198.671   121763500.327                                  
C29  24146544.033   125737453.722                                  
C30  21567619.366   112308054.903                                  
C32  25872207.422   134722932.232                                  
C33  26669686.754   138875549.204                                  
C36  22895335.481   119221612.703                                  
> 2025 01 06 18 44 37.0000000  0 38                     
G26  21526285.223   113121122.357    21526285.275    88146482.353  
G10  23236009.763   122105805.414    23236009.418    95147832.212  
G27  20853620.725   109586130.694    20853619.902    85392311.002  
G07  24985527.539   131299621.259    24985525.265   102311333.906  
G08  23341891.139   122662690.663    23341892.122    95581090.178  
G23  21592364.761   113468131.467    21592362.188    88417260.386  
G29  25468846.782   133839526.323    25468844.985   104290944.616  
G15  24764771.373   130140166.318    24764769.743   101407372.910  
G31  25740209.381   135265489.915    25740211.188   105401941.578  
G18  21912702.173   115152774.024    21912699.391    89728862.740  
G16  20327158.112   106820485.998                                  
R14  19793369.616   105509265.065    19793370.667    82062659.029  
R22  24161119.802   128973833.423    24161118.489   100313160.637  
R15  22594307.817   120736631.408    22594308.105    93906277.683  
R06  24361542.916   129997414.849                                  
R24  19948558.653   106673852.091    19948557.879    82969200.282  
R13  21544498.814   115047253.606                                  
R07  22701255.279   121521265.009    22701252.992    94517033.223  
R08  23067712.634   123527344.299    23067710.177    96076207.707  
R23  20449492.880   109390979.818                                  
R17  23768752.308   127191070.075    23768752.871    98926542.146  
E02  24906541.194   130884671.540    24906541.523   100288434.568  
E10  24372560.978   128078356.276    24372561.812    98138122.506  
E11  23304655.810   122467112.121    23304652.962    93838708.723  
E12  26290819.585   138158955.500    26290818.697   105862781.835  
E14  22001185.687   115617565.409    22001187.446    88589839.357  
E16  24394837.919   128196388.462    24394838.570    98228565.133  
E24  26672426.669   140164889.042    26672427.517   107398859.737  
E25  23471802.818   123344787.364    23471804.438    94511922.735  
E36  25127287.951   132044792.118    25127290.374   101177742.969  
C08  38576778.474   200878946.053    38576768.899   155332253.254  
C13  38350724.810   199702337.054    38350723.999   154422700.975  
C27  23383596.007   121765569.445                                  
C29  24146031.887   125734786.360                                  
C30  21567565.910   112307776.700                                  
C32  25871595.326   134719745.062                                  
C33  26669931.213   138876822.169                                  
C36  22895598.994   119222985.111                                  
> 2025 01 06 18 44 38.0000000  0 38                     
G26  21526736.958   113123496.012    21526736.905    88148331.953  
G10  23235354.827   122102363.631    23235354.497    95145150.315  
G27  20853227.788   109584065.407    20853226.928    85390701.699  
G07  24985208.142   131297942.987    24985205.912   102310026.187  
G08  23341265.040   122659400.101    23341265.900    95578526.121  
G23  21592072.680   113466596.867    21592070.253    88416064.597  
G29  25469416.019   133842517.421    25469414.276   104293275.341  
G15  24764408.604   130138259.405    24764406.852   101405887.023  
G31  25740816.698   135268680.912    25740818.392   105404339.234  
G18  21913118.247   115154960.256    21913115.385    89730566.289  
G16  20327224.346   106820833.740                                  
R14  19793294.449   105508864.737    19793295.505    82062347.657  
R22  24161761.109   128977256.717    24161759.763   100315823.200  
R15  22593579.194   120732737.903    22593579.488    93903249.397  
R06  24361995.842   129999831.702                                  
R24  19948250.033   106672202.048    19948249.318    82967916.912  
R13  21545211.237   115051058.340                                  
R07  22701158.324   121520746.052    22701156.070    94516629.587  
R08  23067088.224   123524000.003    23067085.566    96073606.588  
R23  20449902.606   109393171.009                                  
R17  23768068.040   127187408.759    23768068.731    98923694.467  
E02  24906135.150   130882536.691    24906135.277   100286798.770  
E10  24372826.466   128079751.032    24372827.406    98139191.214  
E11  23304647.120   122467066.083    23304644.132    93838673.455  
E12  26291248.168   138161207.342    26291247.179   105864507.264  
E14  22002107.334   115622407.985    22002108.931    88593549.938  
E16  24395192.680   128198253.600    24395193.446    98229994.267  
E24  26672932.254   140167545.628    26672933.048   107400895.312  
E25  23471921.687   123345412.179    23471923.303    94512401.497  
E36  25126822.970   132042348.337    25126825.373   101175870.452  
C08  38576890.265   200879527.972    38576880.680   155332703.229  
C13  38350783.877   199702644.476    38350782.973   154422938.699  
C27  23383993.383   121767638.528                                  
C29  24145519.617   125732118.984                                  
C30  21567512.449   112307498.609                                  
C32  25870983.163   134716557.826                                  
C33  26670175.675   138878095.436                                  
C36  22895862.542   119224357.811                                  
> 2025 01 06 18 44 39.0000000  0 38                     
G26  21527188.652   113125869.806    21527188.733    88150181.662  
G10  23234699.951   122098921.809    23234699.649    95142468.357  
G27  20852834.668   109582000.157    20852833.807    85389092.409  
G07  24984888.768   131296264.910    24984886.545   102308718.574  
G08  23340638.912   122656109.357    23340639.670    95575961.913  
G23  21591780.697   113465062.590    21591778.406    88414869.052  
G29  25469985.178   133845508.294    25469983.553   104295605.918  
G15  24764045.820   130136352.701    24764044.049   101404401.296  
G31  25741423.841   135271871.485    25741425.485   105406736.890  
G18  21913534.237   115157146.508    21913531.361    89732269.865  
G16  20327290.544   106821181.819                                  
R14  19793219.452   105508465.026    19793220.423    82062036.777  
R22  24162402.357   128980679.639    24162400.990   100318485.476  
R15  22592850.578   120728844.541    22592850.907    93900221.230  
R06  24362448.874   130002248.850                                  
R24  19947941.638   106670552.159    19947940.781    82966633.670  
R13  21545923.744   115054863.168                                  
R07  22701061.355   121520227.663    22701059.251    94516226.402  
R08  23066463.802   123520655.827    23066461.013    96071005.564  
R23  20450312.242   109395362.185                                  
R17  23767383.821   127183747.275    23767384.552    98920846.663  
E02  24905729.014   130880401.820    24905728.919   100285162.959  
E10  24373091.883   128081145.747    24373092.846    98140259.890  
E11  23304638.341   122467020.134    23304635.485    93838638.251  
E12  26291676.662   138163458.989    26291675.605   105866232.553  
E14  22003028.822   115627250.898    22003030.476    88597260.723  
E16  24395547.870   128200118.749    24395548.351    98231423.408  
E24  26673437.659   140170202.124    26673438.592   107402930.799  
E25  23472040.495   123346037.116    23472042.220    94512880.341  
E36  25126357.883   132039904.490    25126360.314   101173997.897  
C08  38577001.982   200880109.742    38576992.443   155333153.090  
C13  38350842.921   199702951.773    38350841.893   154423176.303  
C27  23384390.674   121769707.465                                  
C29  24145007.597   125729451.436                                  
C30  21567459.166   112307220.527                                  
C32  25870371.122   134713370.422                                  
C33  26670420.191   138879368.896                                  
C36  22896126.196   119225730.696                                  
> 2025 01 06 18 44 40.0000000  0 38                     
G26  21527640.468   113128244.101    21527640.564    88152031.764  
G10  23234045.016   122095480.302    23234044.747    95139786.680  
G27  20852441.701   109579935.336    20852440.918    85387483.455  
G07  24984569.562   131294587.434    24984567.375   102307411.462  
G08  23340012.762   122652818.810    23340013.539    95573397.845  
G23  21591488.868   113463529.001    21591486.612    88413674.054  
G29  25470554.385   133848499.277    25470552.789   104297936.544  
G15  24763683.057   130134446.541    24763681.254   101402916.005  
G31  25742031.102   135275062.033    25742032.582   105409134.547  
G18  21913950.347   115159333.160    21913947.470    89733973.755  
G16  20327356.976   106821530.615                                  
R14  19793144.566   105508066.303    19793145.594    82061726.652  
R22  24163043.557   128984102.595    24163042.182   100321147.769  
R15  22592122.117   120724951.701    22592122.559    93897193.470  
R06  24362901.919   130004666.698                                  
R24  19947633.280   106668902.834    19947632.375    82965350.858  
R13  21546636.312   115058668.463                                  
R07  22700964.699   121519710.214    22700962.699    94515823.927  
R08  23065839.469   123517312.184    23065836.598    96068404.949  
R23  20450721.990   109397553.749                                  
R17  23766699.672   127180086.035    23766700.306    98917999.052  
E02  24905322.870   130878267.308    24905322.692   100283527.426  
E10  24373357.441   128082540.794    24373358.149    98141328.823  
E11  23304629.554   122466974.629    23304626.830    93838603.392  
E12  26292105.404   138165710.841    26292104.107   105867958.014  
E14  22003950.522   115632094.513    22003952.177    88600972.064  
E16  24395902.829   128201984.304    24395903.342    98232852.858  
E24  26673943.194   140172858.826    26673944.107   107404966.452  
E25  23472159.573   123346662.524    23472161.241    94513359.555  
E36  25125892.873   132037460.986    25125895.340   101172125.607  
C08  38577113.807   200880691.743    38577104.212   155333603.138  
C13  38350902.038   199703259.270    38350900.901   154423414.078  
C27  23384787.978   121771776.616                                  
C29  24144495.351   125726784.134                                  
C30  21567405.704   112306942.836                                  
C32  25869759.017   134710183.208                                  
C33  26670664.861   138880642.921                                  
C36  22896389.863   119227104.152                                  
> 2025 01 06 18 44 41.0000000  0 38                     
G26  21528092.309   113130618.784    21528092.339    88153882.174  
G10  23233390.175   122092038.983    23233389.875    95137105.134  
G27  20852048.918   109577870.806    20852048.056    85385874.735  
G07  24984250.379   131292910.384    24984248.313   102306104.674  
G08  23339386.617   122649528.332    23339387.419    95570833.831  
G23  21591197.189   113461995.985    21591194.846    88412479.503  
G29  25471123.499   133851490.250    25471122.036   104300267.171  
G15  24763320.406   130132540.849    24763318.545   101401431.029  
G31  25742638.180   135278252.354    25742639.615   105411532.203  
G18  21914366.418   115161520.090    21914363.613    89735677.860  
G16  20327423.403   106821880.010                                  
R14  19793069.941   105507668.410    19793070.897    82061417.190  
R22  24163684.746   128987525.421    24163683.387   100323809.975  
R15  22591393.748   120721059.212    22591394.228    93894165.983  
R06  24363355.100   130007085.132                                  
R24  19947324.886   106667253.922    19947324.013    82964068.372  
R13  21547348.990   115062474.110                                  
R07  22700868.020   121519193.552    22700866.203    94515422.092  
R08  23065215.193   123513968.938    23065212.311    96065804.661  
R23  20451131.721   109399745.561                                  
R17  23766015.524   127176424.894    23766016.211    98915151.509  
E02  24904916.513   130876133.035    24904916.581   100281892.077  
E10  24373622.893   128083936.067    24373623.694    98142397.930  
E11  23304621.128   122466929.440    23304618.171    93838568.753  
E12  26292534.160   138167962.824    26292532.628   105869683.523  
E14  22004872.525   115636938.655    22004874.080    88604683.807  
E16  24396257.901   128203850.135    24396258.328    98234282.517  
E24  26674448.667   140175515.645    26674449.678   107407002.193  
E25  23472278.624   123347288.312    23472280.423    94513839.053  
E36  25125427.950   132035017.692    25125430.489   101170253.478  
C08  38577225.572   200881273.876    38577216.018   155334053.276  
C13  38350961.076   199703566.841    38350959.971   154423651.932  
C27  23385185.400   121773845.850                                  
C29  24143983.239   125724116.925                                  
C30  21567352.518   112306665.389                                  
C32  25869146.932   134706996.082                                  
C33  26670909.583   138881917.383                                  
C36  22896653.599   119228478.041                                  
> 2025 01 06 18 44 42.0000000  0 38                     
G26  21528544.254   113132993.831    21528544.274    88155732.854  
G10  23232735.338   122088597.849    23232735.047    95134423.739  
G27  20851656.132   109575806.555    20851655.200    85384266.227  
G07  24983931.375   131291233.782    24983929.245   102304798.229  
G08  23338760.447   122646237.913    23338761.353    95568269.868  
G23  21590905.637   113460463.521    21590903.223    88411285.367  
G29  25471692.759   133854481.189    25471691.215   104302597.769  
G15  24762957.805   130130635.612    24762955.987   101399946.422  
G31  25743245.211   135281442.413    25743246.560   105413929.859  
G18  21914782.659   115163707.275    21914779.793    89737382.151  
G16  20327490.041   106822229.968                                  
R14  19792995.500   105507271.340    19792996.567    82061108.359  
R22  24164325.851   128990948.130    24164324.548   100326472.079  
R15  22590665.281   120717167.066    22590665.834    93891138.749  
R06  24363808.541   130009504.119                                  
R24  19947016.627   106665605.399    19947015.762    82962786.192  
R13  21548061.758   115066280.111                                  
R07  22700771.735   121518677.661    22700769.782    94515020.834  
R08  23064591.000   123510626.116    23064588.150    96063204.683  
R23  20451541.519   109401937.606                                  
R17  23765331.413   127172763.814    23765332.029    98912304.007  
E02  24904510.535   130873998.963    24904510.495   100280256.878  
E10  24373888.475   128085331.524    24373889.321    98143467.174  
E11  23304612.524   122466884.525    23304609.662    93838534.347  
E12  26292962.700   138170214.785    26292961.268   105871409.084  
E14  22005794.528   115641783.344    22005796.059    88608395.983  
E16  24396613.118   128205716.210    24396613.540    98235712.370  
E24  26674954.399   140178172.564    26674955.348   107409038.007  
E25  23472397.807   123347914.425    23472399.602    94514318.797  
E36  25124963.007   132032574.597    25124965.550   101168381.490  
C08  38577337.394   200881856.081    38577327.788   155334503.461  
C13  38351020.125   199703874.514    38351019.072   154423889.839  
C27  23385582.852   121775915.173                                  
C29  24143471.078   125721449.809                                  
C30  21567299.398   112306388.194                                  
C32  25868534.932   134703809.019                                  
C33  26671154.278   138883192.264                                  
C36  22896917.548   119229852.351                                  
> 2025 01 06 18 44 43.0000000  0 38                     
G26  21528996.266   113135369.112    21528996.260    88157583.731  
G10  23232080.529   122085156.758    23232080.230    95131742.376  
G27  20851263.389   109573742.472    20851262.523    85382657.858  
G07  24983612.486   131289557.474    24983610.277   102303492.016  
G08  23338134.300   122642947.405    23338135.181    95565705.847  
G23  21590614.125   113458931.471    21590611.738    88410091.563  
G29  25472261.917   133857471.980    25472260.351   104304928.253  
G15  24762595.315   130128730.648    24762593.492   101398462.060  
G31  25743852.298   135284632.224    25743853.396   105416327.515  
G18  21915198.951   115165894.590    21915196.046    89739086.558  
G16  20327556.719   106822580.383                                  
R14  19792921.122   105506874.989    19792922.192    82060800.085  
R22  24164966.947   128994370.598    24164965.597   100329133.999  
R15  22589936.969   120713275.164    22589937.482    93888111.726  
R06  24364261.910   130011923.509                                  
R24  19946708.369   106663957.157    19946707.525    82961504.221  
R13  21548774.450   115070086.329                                  
R07  22700675.498   121518162.413    22700673.402    94514620.090  
R08  23063966.830   123507283.566    23063963.994    96060604.930  
R23  20451951.363   109404129.766                                  
R17  23764647.345   127169102.678    23764647.810    98909456.465  
E02  24904104.406   130871864.984    24904104.436   100278621.751  
E10  24374153.992   128086727.059    24374154.842    98144536.480  
E11  23304604.005   122466839.787    23304601.112    93838500.072  
E12  26293391.164   138172466.739    26293389.869   105873134.592  
E14  22006716.399   115646628.437    22006718.029    88612108.446  
E16  24396968.217   128207582.403    24396968.675    98237142.312  
E24  26675460.035   140180829.464    26675460.844   107411073.822  
E25  23472517.002   123348540.756    23472518.777    94514798.722  
E36  25124498.211   132030131.571    25124500.751   101166509.558  
C08  38577449.080   200882438.226    38577439.670   155334953.621  
C13  38351079.080   199704182.156    38351078.178   154424127.713  
C27  23385980.214   121777984.458                                  
C29  24142959.072   125718782.651                                  
C30  21567246.138   112306111.098                                  
C32  25867922.819   134700621.883                                  
C33  26671399.100   138884467.443                                  
C36  22897181.636   119231226.949                                  
> 2025 01 06 18 44 44.0000000  0 38                     
G26  21529448.402   113137744.917    21529448.323    88159435.014  
G10  23231425.815   122081716.031    23231425.514    95129061.286  
G27  20850870.603   109571678.814    20850869.836    85381049.814  
G07  24983293.648   131287881.769    24983291.481   102302186.274  
G08  23337508.205   122639657.100    23337508.985    95563142.007  
G23  21590322.783   113457400.142    21590320.360    88408898.312  
G29  25472831.036   133860462.905    25472829.583   104307258.809  
G15  24762232.974   130126826.295    24762231.017   101396978.119  
G31  25744459.260   135287821.960    25744460.469   105418725.172  
G18  21915615.208   115168082.331    21915612.341    89740791.293  
G16  20327623.506   106822931.529                                  
R14  19792846.980   105506479.660    19792847.970    82060492.611  
R22  24165608.100   128997793.073    24165606.625   100331795.915  
R15  22589208.762   120709383.805    22589209.208    93885085.115  
R06  24364715.547   130014343.581                                  
R24  19946400.232   106662309.499    19946399.305    82960222.711  
R13  21549487.315   115073893.061                                  
R07  22700579.456   121517648.102    22700577.440    94514220.079  
R08  23063342.718   123503941.554    23063339.941    96058005.593  
R23  20452361.205   109406322.328                                  
R17  23763963.152   127165441.829    23763963.680    98906609.149  
E02  24903698.343   130869731.374    24903698.369   100276986.911  
E10  24374419.703   128088122.929    24374420.397    98145606.049  
E11  23304595.693   122466795.530    23304592.765    93838466.151  
E12  26293819.872   138174718.878    26293818.411   105874860.262  
E14  22007638.505   115651474.169    22007640.123    88615821.416  
E16  24397323.291   128209449.014    24397323.803    98238572.578  
E24  26675965.601   140183486.604    26675966.470   107413109.808  
E25  23472636.149   123349167.586    23472638.047    94515279.016  
E36  25124033.253   132027688.870    25124035.966   101164637.892  
C08  38577560.920   200883020.624    38577551.520   155335403.960  
C13  38351138.183   199704490.030    38351137.425   154424365.791  
C27  23386377.679   121780053.970                                  
C29  24142446.989   125716115.732                                  
C30  21567193.000   112305834.409                                  
C32  25867310.841   134697434.970                                  
C33  26671644.126   138885743.207                                  
C36  22897445.592   119232602.124                                  
> 2025 01 06 18 44 45.0000000  0 38                     
G26  21529900.659   113140121.239    21529900.606    88161286.682  
G10  23230771.145   122078275.604    23230770.831    95126380.425  
G27  20850478.010   109569615.589    20850477.140    85379442.107  
G07  24982974.904   131286206.649    24982972.696   102300880.990  
G08  23336882.095   122636367.004    23336882.885    95560578.299  
G23  21590031.538   113455869.492    21590029.136    88407705.593  
G29  25473400.116   133863453.923    25473398.642   104309589.519  
G15  24761870.623   130124922.477    24761868.645   101395494.622  
G31  25745066.323   135291011.571    25745067.330   105421122.828  
G18  21916031.611   115170270.460    21916028.791    89742496.338  
G16  20327690.465   106823283.382                                  
R14  19792772.944   105506085.325    19792773.912    82060185.900  
R22  24166249.165   129001215.580    24166247.778   100334457.874  
R15  22588480.572   120705492.987    22588481.081    93882058.943  
R06  24365169.369   130016764.336                                  
R24  19946092.188   106660662.374    19946091.221    82958941.615  
R13  21550200.292   115077700.308                                  
R07  22700483.567   121517134.715    22700481.560    94513820.783  
R08  23062718.645   123500600.081    23062715.939    96055406.670  
R23  20452771.222   109408515.287                                  
R17  23763278.940   127161781.270    23763279.615    98903762.062  
E02  24903292.509   130867598.125    24903292.382   100275352.338  
E10  24374685.448   128089519.150    24374686.156    98146675.885  
E11  23304587.408   122466751.685    23304584.327    93838432.545  
E12  26294248.364   138176971.224    26294247.143   105876586.095  
E14  22008560.751   115656320.597    22008562.308    88619534.902  
E16  24397678.572   128211316.030    24397679.073    98240003.143  
E24  26676471.230   140186143.987    26676472.209   107415145.990  
E25  23472755.732   123349794.911    23472757.337    94515759.692  
E36  25123568.412   132025246.532    25123571.114   101162766.481  
C08  38577672.806   200883603.199    38577663.425   155335854.450  
C13  38351197.281   199704798.113    38351196.624   154424604.019  
C27  23386775.141   121782123.705                                  
C29  24141934.866   125713449.050                                  
C30  21567139.923   112305558.097                                  
C32  25866698.851   134694248.260                                  
C33  26671889.392   138887019.535                                  
C36  22897709.944   119233977.869                                  
> 2025 01 06 18 44 46.0000000  0 38                     
G26  21530352.960   113142498.107    21530353.027    88163138.783  
G10  23230116.526   122074835.552    23230116.280    95123699.861  
G27  20850085.495   109567552.839    20850084.656    85377834.764  
G07  24982656.246   131284532.133    24982654.039   102299576.169  
G08  23336255.989   122633077.154    23336256.685    95558014.763  
G23  21589740.502   113454339.593    21589738.047    88406513.473  
G29  25473969.378   133866445.122    25473967.952   104311920.340  
G15  24761508.495   130123019.337    24761506.523   101394011.665  
G31  25745673.281   135294201.196    25745674.224   105423520.484  
G18  21916448.081   115172459.046    21916445.310    89744201.726  
G16  20327757.487   106823636.006                                  
R14  19792699.241   105505692.010    19792700.171    82059879.994  
R22  24166890.372   129004638.134    24166888.875   100337119.857  
R15  22587752.502   120701602.745    22587753.088    93879033.186  
R06  24365623.240   130019185.812                                  
R24  19945784.227   106659015.821    19945783.228    82957660.967  
R13  21550913.355   115081508.092                                  
R07  22700387.886   121516622.332    22700385.829    94513422.255  
R08  23062094.735   123497259.171    23062091.999    96052808.183  
R23  20453181.262   109410708.674                                  
R17  23762595.000   127158120.975    23762595.758    98900915.162  
E02  24902886.692   130865465.275    24902886.608   100273718.085  
E10  24374951.304   128090915.764    24374951.894    98147746.011  
E11  23304579.119   122466708.300    23304576.025    93838399.316  
E12  26294677.203   138179223.828    26294675.663   105878312.110  
E14  22009483.158   115661167.690    22009484.705    88623248.908  
E16  24398034.098   128213183.487    24398034.441    98241434.046  
E24  26676977.010   140188801.689    26676977.891   107417182.396  
E25  23472875.206   123350422.766    23472876.922    94516240.778  
E36  25123103.696   132022804.551    25123106.401   101160895.363  
C08  38577784.749   200884186.064    38577775.385   155336305.150  
C13  38351256.553   199705106.466    38351255.876   154424842.460  
C27  23387172.741   121784193.697                                  
C29  24141422.849   125710782.640                                  
C30  21567086.895   112305282.223                                  
C32  25866086.969   134691061.800                                  
C33  26672134.572   138888296.473                                  
C36  22897974.358   119235354.211                                  
> 2025 01 06 18 44 47.0000000  0 38                     
G26  21530805.464   113144875.872    21530805.504    88164991.592  
G10  23229461.954   122071396.203    23229461.747    95121019.851  
G27  20849693.289   109565490.891    20849692.309    85376228.057  
G07  24982337.827   131282858.590    24982335.672   102298272.101  
G08  23335630.082   122629787.877    23335630.688    95555451.691  
G23  21589449.596   113452810.755    21589447.045    88405322.177  
G29  25474538.584   133869436.814    25474537.271   104314251.501  
G15  24761146.547   130121117.097    24761144.613   101392529.381  
G31  25746280.274   135297391.142    25746281.160   105425918.140  
G18  21916864.688   115174648.420    21916861.933    89745907.729  
G16  20327824.918   106823989.718                                  
R14  19792625.882   105505300.047    19792626.562    82059575.134  
R22  24167531.599   129008061.089    24167530.155   100339782.162  
R15  22587024.568   120697713.382    22587025.219    93876008.134  
R06  24366077.040   130021608.336                                  
R24  19945476.559   106657370.214    19945475.407    82956381.052  
R13  21551626.564   115085316.742                                  
R07  22700292.468   121516111.268    22700290.464    94513024.761  
R08  23061471.063   123493919.170    23061468.218    96050210.397  
R23  20453591.477   109412902.835                                  
R17  23761911.109   127154461.259    23761911.859    98898068.724  
E02  24902480.877   130863333.166    24902480.812   100272084.391  
E10  24375217.202   128092313.086    24375217.823    98148816.687  
E11  23304571.015   122466665.760    23304568.084    93838366.713  
E12  26295105.969   138181477.041    26295104.510   105880038.606  
E14  22010405.599   115666015.774    22010407.365    88626963.665  
E16  24398389.504   128215051.711    24398389.974    98242865.543  
E24  26677482.739   140191459.983    26677483.796   107419219.277  
E25  23472994.871   123351051.489    23472996.464    94516722.520  
E36  25122639.094   132020363.301    25122641.824   101159024.796  
C08  38577896.886   200884769.518    38577887.454   155336756.325  
C13  38351315.900   199705415.437    38351315.233   154425081.372  
C27  23387570.299   121786264.303                                  
C29  24140910.858   125708116.835                                  
C30  21567033.989   112305007.095                                  
C32  25865475.128   134687875.932                                  
C33  26672380.042   138889574.352                                  
C36  22898238.700   119236731.493                                  
> 2025 01 06 18 44 48.0000000  0 38                     
G26  21531257.996   113147254.038    21531258.126    88166844.714  
G10  23228807.495   122067957.083    23228807.320    95118340.022  
G27  20849300.934   109563429.265    20849299.973    85374621.593  
G07  24982019.452   131281185.509    24982017.359   102296968.406  
G08  23335004.181   122626498.678    23335004.858    95552888.692  
G23  21589158.847   113451282.520    21589156.271    88404131.344  
G29  25475107.918   133872428.525    25475106.553   104316582.722  
G15  24760784.601   130119215.344    24760782.709   101391047.537  
G31  25746887.239   135300580.938    25746887.979   105429514.625  
G18  21917281.234   115176838.073    21917278.593    89747613.964  
G16  20327892.262   106824344.045                                  
R14  19792552.496   105504908.985    19792553.146    82059270.978  
R22  24168172.797   129011483.976    24168171.436   100342444.405  
R15  22586296.786   120693824.443    22586297.537    93872983.406  
R06  24366531.053   130024031.533                                  
R24  19945168.971   106655725.088    19945167.713    82955101.510  
R13  21552339.922   115089125.770                                  
R07  22700197.176   121515601.042    22700195.166    94512627.924  
R08  23060847.530   123490579.624    23060844.539    96047612.997  
R23  20454001.766   109415097.271                                  
R17  23761227.140   127150801.622    23761227.960    98895222.367  
E02  24902075.344   130861201.314    24902075.154   100270450.894  
E10  24375483.158   128093710.645    24375483.686    98149887.548  
E11  23304563.098   122466623.552    23304560.028    93838334.374  
E12  26295534.904   138183730.355    26295533.321   105881765.172  
E14  22011328.228   115670864.505    22011329.944    88630678.936  
E16  24398745.157   128216920.234    24398745.412    98244297.273  
E24  26677988.632   140194118.432    26677989.649   107421256.269  
E25  23473114.678   123351680.583    23473116.251    94517204.558  
E36  25122174.512   132017922.276    25122177.356   101157154.403  
C08  38578008.939   200885353.118    38577999.481   155337207.605  
C13  38351375.310   199705724.549    38351374.584   154425320.402  
C27  23387967.844   121788335.021                                  
C29  24140398.980   125705451.159                                  
C30  21566981.187   112304732.258                                  
C32  25864863.325   134684690.153                                  
C33  26672625.516   138890852.694                                  
C36  22898503.229   119238109.238                                  
> 2025 01 06 18 44 49.0000000  0 38                     
G26  21531710.542   113149632.632    21531710.672    88168698.148  
G10  23228153.021   122064518.183    23228152.885    95115660.364  
G27  20848908.737   109561367.979    20848907.753    85373015.387  
G07  24981701.219   131279512.933    24981699.093   102295665.098  
G08  23334378.280   122623209.592    23334378.993    95550325.757  
G23  21588868.170   113449754.893    21588865.519    88402940.971  
G29  25475677.249   133875420.284    25475675.853   104318913.911  
G15  24760422.796   130117314.111    24760420.950   101389566.061  
G31  25747494.242   135303770.487    25747494.990   105431912.281  
G18  21917697.933   115179028.052    21917695.287    89749320.435  
G16  20327959.779   106824699.006                                  
R14  19792479.366   105504518.854    19792479.989    82058967.535  
R22  24168813.952   129014906.781    24168812.616   100345106.584  
R15  22585569.090   120689935.957    22585569.818    93869959.028  
R06  24366985.082   130026455.271                                  
R24  19944861.433   106654080.405    19944860.034    82953822.304  
R13  21553053.207   115092935.188                                  
R07  22700101.991   121515091.652    22700100.057    94512231.710  
R08  23060223.922   123487240.563    23060220.969    96045015.941  
R23  20454412.033   109417291.993                                  
R17  23760543.270   127147142.145    23760544.076    98892376.105  
E02  24901669.778   130859069.742    24901669.522   100268817.603  
E10  24375749.076   128095108.454    24375749.713    98150958.596  
E11  23304555.012   122466581.690    23304552.065    93838302.299  
E12  26295963.657   138185983.772    26295962.063   105883491.802  
E14  22012250.971   115675713.875    22012252.810    88634394.685  
E16  24399100.781   128218789.055    24399101.122    98245729.233  
E24  26678494.470   140196777.025    26678495.608   107423293.384  
E25  23473234.397   123352310.079    23473236.053    94517686.896  
E36  25121710.150   132015481.499    25121712.889   101155284.198  
C08  38578121.162   200885936.857    38578111.550   155337658.980  
C13  38351434.675   199706033.790    38351434.017   154425559.518  
C27  23388365.526   121790405.877                                  
C29  24139887.082   125702785.628                                  
C30  21566928.429   112304457.712                                  
C32  25864251.549   134681504.513                                  
C33  26672871.049   138892131.502                                  
C36  22898767.983   119239487.451                                  
> 2025 01 06 18 44 50.0000000  0 38                     
G26  21532163.352   113152011.755    21532163.363    88170552.016  
G10  23227498.687   122061079.625    23227498.569    95112980.976  
G27  20848516.525   109559307.136    20848515.570    85371409.546  
G07  24981383.077   131277840.939    24981380.853   102294362.264  
G08  23333752.347   122619920.724    23333753.117    95547763.018  
G23  21588577.586   113448227.971    21588574.983    88401751.165  
G29  25476246.656   133878412.143    25476245.183   104321245.231  
G15  24760061.062   130115413.443    24760059.220   101388085.028  
G31  25748101.226   135306960.100    25748101.905   105434309.937  
G18  21918114.753   115181218.452    21918112.123    89751027.241  
G16  20328027.448   106825054.696                                  
R14  19792406.390   105504129.760    19792407.010    82058664.914  
R22  24169455.153   129018329.639    24169453.761   100347768.803  
R15  22584841.533   120686048.006    22584842.221    93866935.079  
R06  24367439.486   130028879.809                                  
R24  19944553.918   106652436.245    19944552.713    82952543.522  
R13  21553766.826   115096745.130                                  
R07  22700007.108   121514583.182    22700005.127    94511836.252  
R08  23059600.522   123483902.049    23059597.552    96042419.332  
R23  20454822.390   109419487.103                                  
R17  23759859.469   127143482.958    23759860.328    98889530.085  
E02  24901263.919   130856938.533    24901264.088   100267184.610  
E10  24376015.217   128096506.636    24376015.816    98152029.932  
E11  23304547.308   122466540.291    23304544.090    93838270.587  
E12  26296392.628   138188237.422    26296391.037   105885218.633  
E14  22013173.886   115680564.011    22013175.886    88638111.033  
E16  24399456.597   128220658.321    24399456.829    98247161.513  
E24  26679000.292   140199435.915    26679001.546   107425330.702  
E25  23473354.424   123352940.086    23473355.896    94518169.631  
E36  25121245.698   132013041.086    25121248.501   101153414.274  
C08  38578233.243   200886520.845    38578223.686   155338110.564  
C13  38351494.079   199706343.270    38351493.449   154425798.835  
C27  23388763.181   121792476.966                                  
C29  24139375.145   125700120.337                                  
C30  21566875.798   112304183.572                                  
C32  25863639.886   134678319.073                                  
C33  26673116.699   138893410.916                                  
C36  22899032.643   119240866.250                                  
> 2025 01 06 18 44 51.0000000  0 38                     
G26  21532616.084   113154391.309    21532616.268    88172406.208  
G10  23226844.488   122057641.324    23226844.238    95110301.784  
G27  20848124.384   109557246.647    20848123.483    85369803.973  
G07  24981065.061   131276169.461    24981062.711   102293059.803  
G08  23333126.535   122616631.975    23333127.343    95545200.351  
G23  21588287.187   113446701.676    21588284.533    88400561.840  
G29  25476815.985   133881404.049    25476814.683   104323576.629  
G15  24759699.418   130113513.282    24759697.618   101386604.396  
G31  25748708.135   135310149.495    25748708.734   105436707.594  
G18  21918531.684   115183409.181    21918529.051    89752734.292  
G16  20328095.259   106825411.026                                  
R14  19792333.613   105503741.599    19792334.279    82058363.016  
R22  24170096.340   129021752.440    24170094.935   100350430.979  
R15  22584114.077   120682160.477    22584114.708    93863911.438  
R06  24367894.059   130031304.902                                  
R24  19944246.521   106650792.555    19944245.241    82951265.093  
R13  21554480.323   115100555.485                                  
R07  22699912.243   121514075.564    22699910.278    94511441.432  
R08  23058977.105   123480564.003    23058974.220    96039823.061  
R23  20455232.698   109421682.500                                  
R17  23759175.779   127139823.931    23759176.451    98886684.196  
E02  24900858.451   130854807.613    24900858.503   100265551.828  
E10  24376281.255   128097905.065    24376281.919    98153101.453  
E11  23304539.439   122466499.248    23304536.439    93838239.132  
E12  26296821.439   138190491.193    26296819.863   105886945.553  
E14  22014097.015   115685414.747    22014098.899    88641827.820  
E16  24399812.313   128222527.884    24399812.585    98248594.046  
E24  26679506.367   140202094.938    26679507.617   107427368.140  
E25  23473474.359   123353570.509    23473475.852    94518652.683  
E36  25120781.254   132010600.933    25120784.210   101151544.541  
C08  38578345.492   200887104.963    38578335.830   155338562.241  
C13  38351553.550   199706652.888    38351552.909   154426038.253  
C27  23389160.953   121794548.208                                  
C29  24138863.362   125697455.200                                  
C30  21566823.135   112303909.738                                  
C32  25863028.132   134675133.769                                  
C33  26673362.420   138894690.830                                  
C36  22899297.512   119242245.536                                  
> 2025 01 06 18 44 52.0000000  0 38                     
G26  21533069.096   113156771.319    21533069.107    88174260.765  
G10  23226190.295   122054203.305    23226189.976    95107622.808  
G27  20847732.451   109555186.529    20847731.456    85368198.681  
G07  24980747.119   131274498.525    24980744.785   102291757.768  
G08  23332500.730   122613343.397    23332501.548    95542637.827  
G23  21587996.853   113445176.018    21587994.167    88399373.015  
G29  25477385.348   133884396.040    25477384.089   104325908.022  
G15  24759337.972   130111613.671    24759336.065   101385124.145  
G31  25749315.140   135313338.791    25749315.601   105439105.250  
G18  21918948.534   115185600.255    21918946.140    89754441.623  
G16  20328163.235   106825768.028                                  
R14  19792260.964   105503354.365    19792261.576    82058061.816  
R22  24170737.480   129025175.197    24170736.252   100353093.133  
R15  22583386.742   120678273.402    22583387.263    93860888.161  
R06  24368348.495   130033730.679                                  
R24  19943939.306   106649149.388    19943937.859    82949987.074  
R13  21555193.937   115104366.278                                  
R07  22699817.646   121513568.839    22699815.543    94511047.312  
R08  23058353.680   123477226.412    23058350.960    96037227.163  
R23  20455643.013   109423878.226                                  
R17  23758492.023   127136165.066    23758492.689    98883838.404  
E02  24900452.942   130852677.003    24900453.013   100263919.280  
E10  24376547.440   128099303.791    24376548.145    98154173.203  
E11  23304531.638   122466458.610    23304528.642    93838207.999  
E12  26297250.314   138192745.121    26297248.843   105888672.579  
E14  22015020.308   115690266.104    22015022.177    88645545.093  
E16  24400168.145   128224397.798    24400168.258    98250026.833  
E24  26680012.530   140204754.151    26680013.635   107429405.727  
E25  23473594.517   123354201.358    23473595.916    94519136.059  
E36  25120316.988   132008161.065    25120319.856   101149675.037  
C08  38578457.774   200887689.293    38578448.111   155339014.075  
C13  38351613.008   199706962.702    38351612.440   154426277.817  
C27  23389558.886   121796619.623                                  
C29  24138351.471   125694790.232                                  
C30  21566770.678   112303636.233                                  
C32  25862416.365   134671948.628                                  
C33  26673608.327   138895971.226                                  
C36  22899562.433   119243625.339                                  
> 2025 01 06 18 44 53.0000000  0 38                     
G26  21533522.097   113159151.902    21533522.118    88176115.789  
G10  23225536.110   122050765.675    23225535.896    95104944.113  
G27  20847340.494   109553126.907    20847339.588    85366593.779  
G07  24980429.328   131272828.209    24980426.898   102290456.219  
G08  23331875.000   122610055.054    23331875.836    95540075.477  
G23  21587706.666   113443651.114    21587704.022    88398184.788  
G29  25477954.760   133887388.193    25477953.474   104328239.594  
G15  24758976.503   130109714.658    24758974.767   101383644.405  
G31  25749922.026   135316528.037    25749922.556   105441502.906  
G18  21919365.557   115187791.795    21919363.217    89756149.327  
G16  20328231.335   106826125.797                                  
R14  19792188.461   105502968.146    19792189.188    82057761.428  
R22  24171378.524   129028598.015    24171377.485   100355755.328  
R15  22582659.543   120674386.907    22582659.995    93857865.336  
R06  24368803.177   130036157.181                                  
R24  19943632.174   106647506.842    19943630.673    82948709.540  
R13  21555907.731   115108177.650                                  
R07  22699723.273   121513063.138    22699721.036    94510653.989  
R08  23057730.568   123473889.417    23057727.809    96034631.734  
R23  20456053.498   109426074.393                                  
R17  23757808.415   127132506.444    23757809.069    98880992.835  
E02  24900047.523   130850546.811    24900047.612   100262287.065  
E10  24376813.678   128100702.918    24376814.383    98155245.267  
E11  23304524.094   122466418.470    23304520.980    93838177.243  
E12  26297679.104   138194999.319    26297677.873   105890399.825  
E14  22015943.477   115695118.152    22015945.388    88649262.910  
E16  24400523.875   128226268.187    24400524.231    98251459.985  
E24  26680518.550   140207413.701    26680519.696   107431443.550  
E25  23473714.425   123354832.768    23473716.031    94519619.869  
E36  25119852.570   132005721.597    25119855.597   101147805.838  
C08  38578570.020   200888273.865    38578560.338   155339466.113  
C13  38351672.664   199707272.773    38351671.986   154426517.601  
C27  23389956.751   121798691.319                                  
C29  24137839.770   125692125.571                                  
C30  21566718.391   112303363.181                                  
C32  25861804.765   134668763.758                                  
C33  26673854.260   138897252.271                                  
C36  22899827.625   119245005.762                                  
> 2025 01 06 18 44 54.0000000  0 38                     
G26  21533975.178   113161533.058    21533975.215    88177971.217  
G10  23224882.046   122047328.406    23224881.725    95102265.746  
G27  20846948.730   109551067.762    20846947.702    85364989.255  
G07  24980111.664   131271158.557    24980109.129   102289155.191  
G08  23331249.311   122606766.959    23331250.102    95537513.359  
G23  21587416.705   113442126.960    21587414.028    88396997.139  
G29  25478524.202   133890380.527    25478522.847   104330571.286  
G15  24758615.276   130107816.280    24758613.484   101382165.164  
G31  25750529.013   135319717.390    25750529.489   105443900.562  
G18  21919782.652   115189983.787    21919780.255    89757857.370  
G16  20328299.598   106826484.348                                  
R14  19792116.350   105502582.950    19792116.971    82057461.828  
R22  24172019.689   129032020.937    24172018.651   100358417.596  
R15  22581932.371   120670500.985    22581932.854    93854842.942  
R06  24369257.974   130038584.365                                  
R24  19943325.224   106645864.919    19943323.560    82947432.492  
R13  21556621.546   115111989.553                                  
R07  22699629.034   121512558.422    22699626.678    94510261.438  
R08  23057107.577   123470553.018    23057104.965    96032036.750  
R23  20456464.084   109428270.994                                  
R17  23757124.944   127128848.156    23757125.465    98878147.511  
E02  24899642.327   130848417.035    24899642.524   100260655.153  
E10  24377079.986   128102102.439    24377080.679    98156317.624  
E11  23304516.586   122466378.815    23304513.391    93838146.854  
E12  26298108.217   138197253.776    26298106.811   105892127.265  
E14  22016867.034   115699971.064    22016868.873    88652981.359  
E16  24400879.981   128228139.014    24400880.289    98252893.477  
E24  26681024.544   140210073.521    26681025.824   107433481.592  
E25  23473834.867   123355464.710    23473836.370    94520104.085  
E36  25119388.510   132003282.521    25119391.538   101145936.941  
C08  38578682.204   200888858.747    38578672.649   155339918.377  
C13  38351732.275   199707583.141    38351731.542   154426757.584  
C27  23390354.630   121800763.291                                  
C29  24137328.014   125689461.183                                  
C30  21566665.961   112303090.550                                  
C32  25861193.268   134665579.144                                  
C33  26674100.527   138898533.921                                  
C36  22900092.888   119246386.799                                  
> 2025 01 06 18 44 55.0000000  0 38                     
G26  21534428.348   113163914.472    21534428.356    88179826.869  
G10  23224228.016   122043891.233    23224227.663    95099587.422  
G27  20846556.905   109549008.794    20846555.839    85363384.863  
G07  24979794.033   131269489.215    24979791.462   102287854.388  
G08  23330623.533   122603478.812    23330624.363    95534951.153  
G23  21587126.716   113440603.262    21587124.124    88395809.833  
G29  25479093.608   133893372.734    25479092.172   104332902.868  
G15  24758254.063   130105918.268    24758252.250   101380686.163  
G31  25751135.998   135322906.294    25751136.286   105446298.219  
G18  21920199.869   115192175.938    21920197.390    89759565.538  
G16  20328367.999   106826843.367                                  
R14  19792044.243   105502198.474    19792044.812    82057162.803  
R22  24172660.814   129035443.604    24172659.820   100361079.662  
R15  22581205.137   120666615.323    22581205.669    93851820.760  
R06  24369713.041   130041012.046                                  
R24  19943018.090   106644223.310    19943016.561    82946155.684  
R13  21557335.270   115115801.659                                  
R07  22699534.918   121512054.404    22699532.563    94509869.423  
R08  23056484.539   123467216.905    23056482.054    96029442.010  
R23  20456874.753   109430467.741                                  
R17  23756441.415   127125189.866    23756441.805    98875302.182  
E02  24899236.817   130846287.375    24899237.079   100259023.339  
E10  24377346.014   128103502.058    24377346.999    98157390.050  
E11  23304508.915   122466339.348    23304505.885    93838116.618  
E12  26298537.356   138199508.193    26298535.836   105893854.677  
E14  22017790.531   115704824.211    22017792.419    88656700.039  
E16  24401236.070   128230009.986    24401236.314    98254327.085  
E24  26681530.750   140212733.346    26681531.967   107435519.640  
E25  23473955.150   123356096.889    23473956.626    94520588.479  
E36  25118924.480   132000843.531    25118927.282   101144068.103  
C08  38578794.466   200889443.599    38578784.929   155340370.627  
C13  38351791.797   199707893.487    38351791.143   154426997.567  
C27  23390752.518   121802835.234                                  
C29  24136816.259   125686796.790                                  
C30  21566613.712   112302818.075                                  
C32  25860581.660   134662394.479                                  
C33  26674346.808   138899815.892                                  
C36  22900358.170   119247768.144                                  
> 2025 01 06 18 44 56.0000000  0 38                     
G26  21534881.685   113166296.199    21534881.666    88181682.749  
G10  23223574.003   122040454.190    23223573.723    95096909.211  
G27  20846165.209   109546950.068    20846164.135    85361780.657  
G07  24979476.486   131267820.268    24979473.749   102286553.914  
G08  23329997.741   122600190.672    23329998.578    95532388.978  
G23  21586836.832   113439080.072    21586834.306    88394622.938  
G29  25479663.098   133896364.862    25479661.574   104335234.400  
G15  24757892.860   130104020.594    24757891.110   101379207.488  
G31  25751742.689   135326095.021    25751743.170   105448695.875  
G18  21920617.050   115194368.316    21920614.635    89761273.879  
G16  20328436.413   106827202.925                                  
R14  19791972.343   105501814.817    19791972.784    82056864.396  
R22  24173301.911   129038866.109    24173301.109   100363741.610  
R15  22580478.052   120662729.976    22580478.525    93848798.839  
R06  24370168.129   130043440.246                                  
R24  19942711.198   106642582.041    19942709.670    82944879.147  
R13  21558049.315   115119614.054                                  
R07  22699440.938   121511551.134    22699438.494    94509477.990  
R08  23055861.642   123463881.112    23055859.083    96026847.498  
R23  20457285.412   109432664.693                                  
R17  23755757.775   127121531.632    23755758.193    98872456.898  
E02  24898831.566   130844157.878    24898831.933   100257391.651  
E10  24377612.457   128104901.816    24377613.330    98158462.604  
E11  23304501.458   122466300.153    23304498.461    93838086.585  
E12  26298966.437   138201762.624    26298964.824   105895582.098  
E14  22018714.071   115709677.966    22018716.121    88660419.108  
E16  24401592.067   128231881.187    24401592.353    98255760.854  
E24  26682036.926   140215393.236    26682038.133   107437557.731  
E25  23474075.467   123356729.378    23474077.039    94521073.108  
E36  25118460.250   131998404.685    25118463.240   101142199.382  
C08  38578906.736   200890028.493    38578897.235   155340822.890  
C13  38351851.351   199708203.872    38351850.710   154427237.576  
C27  23391150.409   121804907.222                                  
C29  24136304.606   125684132.439                                  
C30  21566561.501   112302545.788                                  
C32  25859970.119   134659209.838                                  
C33  26674593.151   138901098.261                                  
C36  22900623.631   119249149.880                                  
> 2025 01 06 18 44 57.0000000  0 39                     
G26  21535335.015   113168678.640    21535335.045    88183539.205  
G10  23222920.097   122037017.670    23222919.825    95094231.385  
G27  20845773.498   109544891.964    20845772.499    85360176.944  
G07  24979159.161   131266152.085    24979156.213   102285254.083  
G08  23329372.106   122596902.939    23329372.879    95529827.115  
G23  21586547.064   113437557.776    21586544.730    88393436.733  
G29  25480232.570   133899357.307    25480230.975   104337566.172  
G15  24757531.905   130102123.728    24757530.193   101377729.401  
G31  25752349.361   135329283.782    25752350.048   105451503.463  
G18  21921034.390   115196561.273    21921031.851    89762982.690  
G16  20328505.048   106827563.389                                  
R14  19791900.544   105501432.377    19791901.066    82056566.945  
R22  24173943.091   129042288.835    24173942.164   100366403.726  
R15  22579751.126   120658845.373    22579751.728    93845777.481  
R06  24370623.300   130045869.372                                  
R24  19942404.509   106640941.501    19942402.876    82943603.167  
R26  22884124.983   122027854.4091                                 
R13  21558763.395   115123427.117                                  
R07  22699347.241   121511048.980    22699344.742    94509087.417  
R08  23055238.851   123460546.052    23055236.416    96024253.575  
R23  20457696.207   109434862.232                                  
R17  23755074.189   127117873.834    23755074.598    98869611.948  
E02  24898426.462   130842028.957    24898426.728   100255760.395  
E10  24377878.940   128106302.119    24377879.847    98159535.563  
E11  23304494.263   122466261.580    23304491.026    93838057.029  
E12  26299395.476   138204017.459    26299393.931   105897309.820  
E14  22019637.852   115714532.558    22019639.734    88664138.880  
E16  24401948.211   128233752.963    24401948.505    98257195.079  
E24  26682543.053   140218053.537    26682544.365   107439596.157  
E25  23474196.108   123357362.548    23474197.454    94521558.269  
E36  25117996.124   131995966.378    25117999.294   101140331.073  
C08  38579019.109   200890613.796    38579009.575   155341275.491  
C13  38351911.119   199708514.680    38351910.382   154427477.918  
C27  23391548.436   121806979.629                                  
C29  24135793.098   125681468.515                                  
C30  21566509.338   112302274.092                                  
C32  25859358.509   134656025.606                                  
C33  26674839.566   138902381.371                                  
C36  22900889.127   119250532.375                                  
> 2025 01 06 18 44 58.0000000  0 38                     
G26  21535788.484   113171061.493    21535788.498    88185395.970  
G10  23222266.229   122033581.375    23222265.968    95091553.764  
G27  20845381.978   109542834.188    20845380.902    85358573.489  
G07  24978841.828   131264484.411    24978838.835   102283954.569  
G08  23328746.480   122593615.304    23328747.326    95527265.320  
G23  21586257.487   113436036.070    21586255.203    88392250.985  
G29  25480802.056   133902349.745    25480800.433   104339897.962  
G15  24757170.961   130100227.340    24757169.255   101376251.701  
G31  25752956.239   135332472.443    25752956.905   105453988.109  
G18  21921451.711   115198754.548    21921449.257    89764691.728  
G16  20328573.729   106827924.475                                  
R14  19791828.914   105501050.824    19791829.576    82056270.182  
R22  24174584.178   129045711.462    24174583.379   100369065.777  
R15  22579024.250   120654961.182    22579024.856    93842756.459  
R06  24371078.503   130048299.020                                  
R24  19942097.776   106639301.431    19942096.224    82942327.553  
R13  21559477.527   115127240.559                                  
R07  22699253.666   121510547.643    22699250.916    94508697.489  
R08  23054616.183   123457211.441    23054613.703    96021659.981  
R23  20458107.076   109437060.060                                  
R17  23754390.738   127114216.145    23754391.037    98866767.088  
E02  24898021.352   130839900.282    24898021.619   100254129.334  
E10  24378145.589   128107702.662    24378146.377    98160608.706  
E11  23304486.984   122466223.358    23304483.818    93838027.739  
E12  26299824.326   138206272.390    26299822.990   105899037.637  
E14  22020561.788   115719387.729    22020563.735    88667859.081  
E16  24402304.597   128235625.048    24402304.843    98258629.530  
E24  26683049.310   140220714.007    26683050.645   107441634.693  
E25  23474316.621   123357996.099    23474317.957    94522043.717  
E36  25117532.258   131993528.319    25117535.320   101138462.949  
C08  38579131.523   200891199.236    38579122.035   155341728.196  
C13  38351970.808   199708825.622    38351970.077   154427718.354  
C27  23391946.426   121809052.154                                  
C29  24135281.525   125678804.718                                  
C30  21566457.170   112302002.666                                  
C32  25858747.084   134652841.488                                  
C33  26675086.068   138903664.958                                  
C36  22901154.809   119251915.323                                  
> 2025 01 06 18 44 59.0000000  0 38                     
G26  21536241.983   113173444.676    21536241.981    88187253.003  
G10  23221612.438   122030145.221    23221612.106    95088876.247  
G27  20844990.412   109540776.664    20844989.308    85356970.217  
G07  24978524.568   131262817.128    24978521.599   102282655.377  
G08  23328120.843   122590327.687    23328121.658    95524703.538  
G23  21585968.006   113434514.885    21585965.738    88391065.651  
G29  25481371.475   133905342.162    25481369.913   104342229.698  
G15  24756810.181   130098331.376    24756808.551   101374774.304  
G31  25753562.719   135335660.876    25753563.651   105455888.844  
G18  21921869.093   115200948.039    21921866.637    89766400.952  
G16  20328642.547   106828286.101                                  
R14  19791757.550   105500670.087    19791758.209    82055974.051  
R22  24175225.279   129049133.924    24175224.512   100371727.691  
R15  22578297.476   120651077.349    22578298.052    93839735.689  
R06  24371534.023   130050729.185                                  
R24  19941791.095   106637661.754    19941789.670    82941052.250  
R13  21560191.710   115131054.325                                  
R07  22699160.162   121510047.059    22699157.394    94508308.163  
R08  23053993.497   123453877.214    23053991.157    96019066.711  
R23  20458518.021   109439258.085                                  
R17  23753707.137   127110558.478    23753707.607    98863922.248  
E02  24897616.410   130837771.800    24897616.746   100252498.418  
E10  24378412.194   128109103.382    24378412.915    98161681.983  
E11  23304479.568   122466185.384    23304476.629    93837998.643  
E12  26300253.548   138208527.364    26300252.049   105900765.473  
E14  22021485.678   115724243.400    22021487.698    88671579.652  
E16  24402660.872   128237497.353    24402661.045    98260064.161  
E24  26683555.599   140223374.547    26683556.950   107443673.290  
E25  23474437.309   123358629.974    23474438.740    94522529.411  
E36  25117068.214   131991090.420    25117071.443   101136594.948  
C08  38579243.973   200891784.723    38579234.465   155342180.931  
C13  38352030.378   199709136.627    38352029.826   154427958.846  
C27  23392344.424   121811124.724                                  
C29  24134769.983   125676140.984                                  
C30  21566404.977   112301731.452                                  
C32  25858135.645   134649657.397                                  
C33  26675332.630   138904948.921                                  
C36  22901420.448   119253298.667                                  
> 2025 01 06 18 45 00.0000000  0 38                     
G26  21536695.636   113175828.107    21536695.471    88189110.216  
G10  23220958.667   122026709.131    23220958.145    95086198.784  
G27  20844598.846   109538719.287    20844597.869    85355367.064  
G07  24978207.371   131261150.166    24978204.382   102281356.476  
G08  23327495.167   122587039.986    23327496.021    95522141.704  
G23  21585678.657   113432994.118    21585676.258    88389880.639  
G29  25481940.862   133908334.402    25481939.291   104344561.326  
G15  24756449.363   130096435.639    24756447.791   101373297.125  
G31  25754169.462   135338848.984    25754170.411   105458286.500  
G18  21922286.555   115203141.662    21922284.017    89768110.259  
G16  20328711.425   106828648.159                                  
R14  19791686.360   105500290.068    19791686.974    82055678.485  
R22  24175866.272   129052556.127    24175865.553   100374389.418  
R15  22577570.694   120647193.771    22577571.202    93836715.126  
R06  24371989.593   130053159.787                                  
R24  19941484.533   106636022.323    19941483.118    82939777.139  
R13  21560906.005   115134868.319                                  
R07  22699066.862   121509547.105    22699063.977    94507919.309  
R08  23053370.920   123450543.287    23053368.544    96016473.649  
R23  20458928.847   109441456.196                                  
R17  23753023.779   127106900.771    23753024.092    98861077.372  
E02  24897211.293   130835643.396    24897211.681   100250867.565  
E10  24378678.650   128110504.145    24378679.601    98162755.299  
E11  23304472.365   122466147.573    23304469.399    93837969.673  
E12  26300682.549   138210782.276    26300681.223   105902493.256  
E14  22022409.720   115729099.400    22022411.840    88675300.479  
E16  24403017.192   128239369.776    24403017.321    98261498.872  
E24  26684061.794   140226035.046    26684063.162   107445711.853  
E25  23474558.047   123359264.043    23474559.339    94523015.266  
E36  25116604.269   131988652.567    25116607.517   101134726.991  
C08  38579356.394   200892370.158    38579346.797   155342633.627  
C13  38352090.130   199709447.567    38352089.548   154428199.290  
C27  23392742.448   121813197.241                                  
C29  24134258.366   125673477.184                                  
C30  21566353.084   112301460.347                                  
C32  25857524.150   134646473.235                                  
C33  26675579.336   138906233.202                                  
C36  22901686.131   119254682.298                                  
> 2025 01 06 18 45 01.0000000  0 38                     
G26  21537149.202   113178212.002    21537149.226    88190967.796  
G10  23220304.937   122023273.339    23220304.435    95083521.533  
G27  20844207.471   109536662.312    20844206.424    85353764.233  
G07  24977890.230   131259483.737    24977887.251   102280057.952  
G08  23326869.551   122583752.469    23326870.570    95519580.011  
G23  21585389.377   113431474.029    21585386.974    88388696.155  
G29  25482510.280   133911326.735    25482508.806   104346893.000  
G15  24756088.769   130094540.515    24756087.138   101371820.389  
G18  21922704.003   115205335.670    21922701.576    89769819.879  
G16  20328780.449   106829010.923                                  
G31                              1   25754777.088   105460684.156  
R14  19791615.291   105499911.026    19791615.866    82055383.668  
R22  24176507.275   129055978.319    24176506.688   100377051.137  
R15  22576844.152   120643310.686    22576844.671    93833694.937  
R06  24372445.535   130055591.037                                  
R24  19941178.104   106634383.395    19941176.621    82938502.419  
R13  21561620.172   115138682.798                                  
R07  22698973.637   121509048.093    22698970.802    94507531.189  
R08  23052748.498   123447209.864    23052746.065    96013880.993  
R23  20459339.820   109443654.653                                  
R17  23752340.251   127103243.306    23752340.587    98858232.663  
E02  24896806.300   130833515.326    24896806.592   100249236.974  
E10  24378945.204   128111905.235    24378946.144    98163828.859  
E11  23304465.412   122466110.202    23304462.248    93837941.041  
E12  26301111.529   138213037.367    26301110.277   105904221.194  
E14  22023333.831   115733955.994    22023336.035    88679021.768  
E16  24403373.432   128241242.585    24403373.754    98262933.878  
E24  26684567.919   140228695.773    26684569.519   107447750.587  
E25  23474678.902   123359898.590    23474680.147    94523501.472  
E36  25116140.618   131986215.045    25116143.659   101132859.275  
C08  38579468.852   200892955.815    38579459.290   155343086.492  
C13  38352149.862   199709758.703    38352149.240   154428439.875  
C27  23393140.514   121815269.967                                  
C29  24133746.659   125670813.615                                  
C30  21566300.922   112301189.616                                  
C32  25856912.649   134643289.264                                  
C33  26675825.984   138907518.013                                  
C36  22901951.947   119256066.467                                  
> 2025 01 06 18 45 02.0000000  0 38                     
G26  21537602.859   113180596.184    21537602.751    88192825.600  
G10  23219651.201   122019837.645    23219650.639    95080844.387  
G27  20843816.087   109534605.544    20843815.053    85352161.551  
G07  24977573.222   131257817.664    24977570.214   102278759.707  
G08  23326243.881   122580464.914    23326244.903    95517018.278  
G23  21585100.231   113429954.413    21585097.755    88387512.050  
G29  25483079.764   133914318.977    25483078.188   104349224.617  
G15  24755728.147   130092645.730    24755726.591   101370343.929  
G18  21923121.589   115207529.836    21923119.165    89771529.615  
G16  20328849.558   106829374.177                                  
G31                                  25755383.847   105464280.640  
R14  19791544.260   105499532.720    19791544.925    82055089.424  
R22  24177148.319   129059400.317    24177147.672   100379712.674  
R15  22576117.557   120639427.855    22576118.076    93830674.952  
R06  24372901.228   130058022.803                                  
R24  19940871.714   106632744.787    19940870.212    82937227.947  
R13  21562334.625   115142497.525                                  
R07  22698880.663   121508549.797    22698877.577    94507143.631  
R08  23052126.114   123443876.737    23052123.635    96011288.547  
R23  20459750.785   109445853.254                                  
R17  23751656.802   127099585.835    23751657.065    98855387.980  
E02  24896401.413   130831387.384    24896401.786   100247606.470  
E10  24379211.978   128113306.431    24379212.834    98164902.499  
E11  23304458.291   122466073.022    23304455.348    93837912.555  
E12  26301540.705   138215292.450    26301539.387   105905949.099  
E14  22024258.202   115738813.111    22024260.204    88682743.457  
E16  24403730.016   128243115.549    24403730.178    98264369.003  
E24  26685074.232   140231356.503    26685075.929   107449789.330  
E25  23474799.619   123360533.385    23474800.983    94523987.873  
E36  25115676.778   131983777.620    25115679.785   101130991.645  
C08  38579581.257   200893541.481    38579571.751   155343539.370  
C13  38352209.687   199710069.865    38352208.987   154428680.483  
C27  23393538.564   121817342.689                                  
C29  24133235.145   125668150.034                                  
C30  21566249.081   112300919.034                                  
C32  25856301.374   134640105.267                                  
C33  26676072.818   138908803.148                                  
C36  22902217.840   119257450.973                                  
> 2025 01 06 18 45 03.0000000  0 38                     
G26  21538056.644   113182980.995    21538056.569    88194683.887  
G10  23218997.536   122016402.390    23218996.948    95078167.563  
G27  20843424.841   109532549.305    20843423.779    85350559.287  
G07  24977256.289   131256152.280    24977253.287   102277461.982  
G08  23325618.269   122577177.662    23325619.368    95514456.790  
G23  21584811.214   113428435.586    21584808.721    88386328.536  
G29  25483649.360   133917311.440    25483647.708   104351556.382  
G15  24755367.775   130090751.617    24755366.123   101368868.007  
G18  21923539.275   115209724.521    21923536.768    89773239.764  
G16  20328918.873   106829738.246                                  
G31                                  25755990.487   105466678.297  
R14  19791473.486   105499155.493    19791474.118    82054796.037  
R22  24177789.406   129062822.443    24177788.703   100382374.327  
R15  22575391.033   120635545.639    22575391.533    93827655.459  
R06  24373357.212   130060455.273                                  
R24  19940565.344   106631106.861    19940563.844    82935954.003  
R13  21563049.067   115146312.873                                  
R07  22698787.762   121508052.551    22698784.654    94506756.878  
R08  23051503.831   123440544.217    23051501.427    96008696.606  
R23  20460161.922   109448052.325                                  
R17  23750973.438   127095928.723    23750973.612    98852543.578  
E02  24895996.605   130829259.931    24895996.867   100245976.343  
E10  24379478.669   128114708.083    24379479.401    98165976.495  
E11  23304451.322   122466036.392    23304448.367    93837884.486  
E12  26301969.774   138217547.819    26301968.745   105907677.246  
E14  22025182.602   115743671.058    22025184.797    88686465.780  
E16  24404086.409   128244989.026    24404086.626    98265804.527  
E24  26685580.624   140234017.603    26685582.182   107451828.342  
E25  23474920.405   123361168.796    23474921.866    94524474.746  
E36  25115213.059   131981340.640    25115216.106   101129124.352  
C08  38579693.719   200894127.456    38579684.377   155343992.478  
C13  38352269.580   199710381.341    38352268.823   154428921.334  
C27  23393936.623   121819415.727                                  
C29  24132723.712   125665486.794                                  
C30  21566197.259   112300648.939                                  
C32  25855690.079   134636921.574                                  
C33  26676319.742   138910088.960                                  
C36  22902483.846   119258836.149                                  
> 2025 01 06 18 45 04.0000000  0 38                     
G26  21538510.492   113185366.158    21538510.401    88196542.461  
G10  23218343.882   122012967.306    23218343.169    95075490.871  
G27  20843033.658   109530493.352    20843032.485    85348957.237  
G07  24976939.422   131254487.332    24976936.354   102276164.636  
G08  23324992.675   122573890.463    23324993.870    95511895.346  
G23  21584522.239   113426917.309    21584519.725    88385145.478  
G29  25484218.775   133920303.848    25484217.150   104353888.159  
G15  24755007.372   130088857.958    24755005.825   101367392.414  
G18  21923956.863   115211919.459    21923954.481    89774950.097  
G16  20328988.285   106830102.893                                  
G31                                  25756597.024   105469075.953  
R14  19791402.880   105498779.117    19791403.470    82054503.297  
R22  24178430.477   129066244.428    24178429.615   100385035.848  
R15  22574664.630   120631663.802    22574665.084    93824636.255  
R06  24373812.978   130062888.343                                  
R24  19940259.070   106629469.330    19940257.686    82934680.362  
R13  21563763.580   115150128.547                                  
R07  22698695.010   121507556.056    22698691.772    94506370.714  
R08  23050881.711   123437212.119    23050879.265    96006104.959  
R23  20460573.128   109450251.630                                  
R17  23750289.919   127092271.691    23750290.189    98849699.205  
E02  24895591.776   130827132.669    24895591.995   100244346.368  
E10  24379745.437   128116109.908    24379746.202    98167050.624  
E11  23304444.484   122466000.049    23304441.481    93837856.634  
E12  26302399.004   138219803.235    26302397.819   105909405.435  
E14  22026107.170   115748529.617    22026109.236    88690188.550  
E16  24404442.892   128246862.739    24404443.162    98267240.236  
E24  26686087.148   140236678.757    26686088.623   107453867.414  
E25  23475041.490   123361804.523    23475042.688    94524961.863  
E36  25114749.472   131978903.852    25114752.382   101127257.195  
C08  38579806.207   200894713.507    38579796.947   155344445.661  
C13  38352329.459   199710692.898    38352328.569   154429162.248  
C27  23394334.711   121821488.846                                  
C29  24132212.262   125662823.644                                  
C30  21566145.437   112300379.077                                  
C32  25855078.762   134633737.948                                  
C33  26676566.766   138911375.212                                  
C36  22902749.866   119260221.725                                  
> 2025 01 06 18 45 05.0000000  0 38                     
G26  21538964.443   113187751.552    21538964.434    88198401.214  
G10  23217690.192   122009532.264    23217689.423    95072814.216  
G27  20842642.466   109528437.539    20842641.291    85347355.317  
G07  24976622.590   131252822.673    24976619.582   102274867.505  
G08  23324367.212   122570603.158    23324368.266    95509333.797  
G23  21584233.386   113425399.463    21584230.838    88383962.730  
G29  25484788.199   133923296.121    25484786.613   104356219.779  
G15  24754647.008   130086964.597    24754645.483   101365917.057  
G18  21924374.520   115214114.512    21924372.230    89776660.529  
G16  20329057.764   106830467.968                                  
G31                                  25757203.538   105471473.609  
R14  19791332.403   105498403.479    19791333.026    82054211.130  
R22  24179071.475   129069666.142    24179070.616   100387697.181  
R15  22573938.251   120627782.237    22573938.596    93821617.268  
R06  24374269.293   130065321.910                                  
R24  19939952.894   106627832.034    19939951.530    82933406.918  
R13  21564478.258   115153944.411                                  
R07  22698602.373   121507060.215    22698599.150    94505985.047  
R08  23050259.496   123433880.296    23050257.153    96003513.557  
R23  20460984.308   109452451.039                                  
R17  23749606.512   127088614.583    23749606.788    98846854.801  
E02  24895186.814   130825005.499    24895187.359   100242716.455  
E10  24380012.205   128117511.803    24380013.111    98168124.797  
E11  23304437.627   122465963.874    23304434.481    93837828.917  
E12  26302828.046   138222058.595    26302827.030   105911133.560  
E14  22027031.671   115753388.553    22027033.895    88693911.621  
E16  24404799.249   128248736.587    24404799.785    98268676.034  
E24  26686593.552   140239339.927    26686595.129   107455906.478  
E25  23475162.609   123362440.459    23475163.807    94525449.137  
E36  25114285.783   131976467.111    25114288.674   101125390.092  
C08  38579918.673   200895299.523    38579909.457   155344898.788  
C13  38352389.255   199711004.401    38352388.431   154429403.122  
C27  23394732.764   121823561.913                                  
C29  24131700.885   125660160.434                                  
C30  21566093.631   112300109.333                                  
C32  25854467.417   134630554.266                                  
C33  26676813.790   138912661.736                                  
C36  22903016.178   119261607.598                                  
> 2025 01 06 18 45 06.0000000  0 38                     
G26  21539418.372   113190137.349    21539418.497    88200260.268  
G10  23217036.571   122006097.458    23217035.865    95070137.732  
G27  20842251.207   109526382.051    20842250.210    85345753.633  
G07  24976305.919   131251158.502    24976302.864   102273570.768  
G08  23323741.706   122567315.974    23323742.747    95506772.366  
G23  21583944.635   113423882.195    21583942.178    88382780.451  
G29  25485357.628   133926288.396    25485356.030   104358551.416  
G15  24754286.880   130085071.662    24754285.280   101364442.067  
G18  21924792.285   115216309.868    21924789.941    89778371.200  
G16  20329127.366   106830833.673                                  
G31                                  25757810.272   105473871.265  
R14  19791262.152   105498028.735    19791262.712    82053919.666  
R22  24179712.374   129073087.783    24179711.619   100390358.469  
R15  22573211.969   120623901.108    22573212.243    93818598.613  
R06  24374725.515   130067755.935                                  
R24  19939646.822   106626195.180    19939645.447    82932133.810  
R13  21565192.969   115157760.651                                  
R07  22698509.891   121506565.195    22698506.616    94505600.045  
R08  23049637.584   123430548.926    23049635.015    96000922.492  
R23  20461395.454   109454650.731                                  
R17  23748923.200   127084957.591    23748923.399    98844010.493  
E02  24894782.048   130822878.586    24894782.612   100241086.747  
E10  24380278.929   128118913.938    24380279.897    98169199.164  
E11  23304430.725   122465928.048    23304427.752    93837801.462  
E12  26303257.273   138224314.094    26303256.280   105912861.786  
E14  22027956.537   115758247.943    22027958.606    88697635.093  
E16  24405155.864   128250610.728    24405156.423    98270112.065  
E24  26687099.910   140242001.184    26687101.576   107457945.649  
E25  23475283.676   123363076.796    23475284.833    94525936.720  
E36  25113822.322   131974030.631    25113825.016   101123523.172  
C08  38580031.273   200895885.655    38580022.103   155345352.033  
C13  38352449.044   199711316.029    38352448.233   154429644.098  
C27  23395130.854   121825635.103                                  
C29  24131189.450   125657497.357                                  
C30  21566041.856   112299839.864                                  
C32  25853856.000   134627370.668                                  
C33  26677060.816   138913948.724                                  
C36  22903282.523   119262993.933                                  
> 2025 01 06 18 45 07.0000000  0 38                     
G26  21539872.459   113192523.789    21539872.574    88202119.829  
G10  23216383.028   122002663.110    23216382.396    95067461.629  
G27  20841860.179   109524327.117    20841859.295    85344152.394  
G07  24975989.343   131249495.067    24975986.230   102272274.575  
G08  23323116.240   122564029.099    23323117.251    95504211.183  
G23  21583656.000   113422365.762    21583653.661    88381598.821  
G29  25485927.058   133929280.941    25485925.436   104360883.237  
G15  24753926.775   130083179.490    24753925.272   101362967.633  
G18  21925210.116   115218505.768    21925207.730    89780082.285  
G16  20329197.086   106831200.213                                  
G31                                  25758416.922   105476268.922  
R14  19791192.134   105497655.091    19791192.609    82053629.052  
R22  24180353.363   129076509.570    24180352.718   100393019.868  
R15  22572485.837   120620020.630    22572486.064    93815580.453  
R06  24375181.944   130070190.875                                  
R24  19939340.808   106624559.023    19939339.522    82930861.244  
R13  21565907.791   115161577.476                                  
R07  22698417.572   121506071.259    22698414.290    94505215.871  
R08  23049015.598   123427218.229    23049012.981    95998331.948  
R23  20461806.755   109456850.961                                  
R17  23748239.914   127081300.974    23748240.088    98841166.468  
E02  24894377.379   130820752.168    24894377.896   100239457.409  
E10  24380545.709   128120316.545    24380546.789    98170273.889  
E11  23304424.077   122465892.769    23304420.901    93837774.432  
E12  26303686.524   138226569.887    26303685.396   105914590.255  
E14  22028881.529   115763108.120    22028883.504    88701359.114  
E16  24405512.590   128252485.391    24405513.177    98271548.498  
E24  26687606.477   140244662.868    26687608.110   107459985.104  
E25  23475404.935   123363713.743    23475406.028    94526424.770  
E36  25113358.633   131971594.602    25113361.455   101121656.609  
C08  38580143.780   200896472.149    38580134.690   155345805.542  
C13  38352508.899   199711628.007    38352508.175   154429885.344  
C27  23395529.097   121827708.645                                  
C29  24130678.150   125654834.656                                  
C30  21565990.189   112299570.902                                  
C32  25853244.735   134624187.428                                  
C33  26677308.116   138915236.417                                  
C36  22903549.019   119264380.955                                  
> 2025 01 06 18 45 08.0000000  0 38                     
G26  21540326.704   113194910.544    21540326.711    88203979.647  
G10  23215729.548   121999228.884    23215728.940    95064785.612  
G27  20841469.258   109522272.426    20841468.319    85342551.336  
G07  24975672.817   131247831.980    24975669.785   102270978.696  
G08  23322490.712   122560742.239    23322491.781    95501650.004  
G23  21583367.569   113420849.825    21583365.202    88380417.567  
G29  25486496.530   133932273.375    25486494.813   104363215.011  
G15  24753566.788   130081287.646    24753565.207   101361493.509  
G18  21925628.061   115220701.855    21925625.628    89781793.512  
G16  20329267.024   106831567.289                                  
G31                                  25759023.647   105478666.578  
R14  19791122.189   105497282.205    19791122.573    82053339.033  
R22  24180994.439   129079931.173    24180993.655   100395681.102  
R15  22571759.712   120616140.431    22571759.934    93812562.511  
R06  24375638.473   130072626.201                                  
R24  19939034.868   106622923.246    19939033.718    82929588.963  
R13  21566622.574   115165394.571                                  
R07  22698325.411   121505578.047    22698322.147    94504832.267  
R08  23048393.697   123423887.845    23048390.922    95995741.636  
R23  20462218.138   109459051.386                                  
R17  23747556.676   127077644.410    23747556.787    98838322.468  
E02  24893972.856   130818625.902    24893973.304   100237828.200  
E10  24380812.681   128121719.292    24380813.625    98171348.717  
E11  23304417.353   122465857.737    23304414.326    93837747.591  
E12  26304115.726   138228825.700    26304114.703   105916318.729  
E14  22029806.467   115767968.764    22029808.415    88705083.488  
E16  24405869.413   128254360.252    24405869.886    98272985.081  
E24  26688113.010   140247324.564    26688114.556   107462024.589  
E25  23475526.093   123364350.980    23475527.250    94526913.042  
E36  25112895.174   131969158.717    25112898.002   101119790.154  
C08  38580256.436   200897058.680    38580247.249   155346259.087  
C13  38352568.858   199711940.031    38352568.151   154430126.612  
C27  23395927.418   121829782.203                                  
C29  24130166.884   125652171.980                                  
C30  21565938.615   112299302.142                                  
C32  25852633.386   134621004.190                                  
C33  26677555.491   138916524.462                                  
C36  22903815.358   119265768.350                                  
> 2025 01 06 18 45 09.0000000  0 38                     
G26  21540780.976   113197297.675    21540781.071    88205839.754  
G10  23215076.123   121995794.864    23215075.527    95062109.754  
G27  20841078.303   109520218.028    20841077.352    85340950.504  
G07  24975356.387   131246169.365    24975353.330   102269683.120  
G08  23321865.187   122557455.452    23321866.339    95499088.864  
G23  21583079.204   113419334.458    21583076.892    88379236.770  
G29  25487065.994   133935265.811    25487064.220   104365546.800  
G15  24753206.855   130079396.313    24753205.310   101360019.712  
G18  21926045.961   115222898.219    21926043.579    89783504.977  
G16  20329337.063   106831934.952                                  
G31                                  25759630.385   105481064.234  
R14  19791052.422   105496910.154    19791052.745    82053049.665  
R22  24181635.321   129083352.654    24181634.643   100398342.257  
R15  22571033.635   120612260.584    22571033.750    93809544.867  
R06  24376094.917   130075062.121                                  
R24  19938728.961   106621287.854    19938727.883    82928317.001  
R13  21567337.338   115169212.001                                  
R07  22698233.444   121505085.659    22698230.044    94504449.306  
R08  23047771.869   123420557.840    23047769.065    95993151.649  
R23  20462629.503   109461252.058                                  
R17  23746873.472   127073987.929    23746873.406    98835478.558  
E02  24893568.151   130816499.879    24893568.649   100236199.167  
E10  24381079.763   128123122.243    24381080.708    98172423.714  
E11  23304410.882   122465823.024    23304407.770    93837720.994  
E12  26304544.917   138231081.572    26304544.042   105918047.274  
E14  22030731.654   115772829.996    22030733.532    88708808.341  
E16  24406226.278   128256235.387    24406226.798    98274421.873  
E24  26688619.344   140249986.390    26688621.078   107464064.169  
E25  23475647.622   123364988.574    23475648.588    94527401.587  
E36  25112431.713   131966723.046    25112434.498   101117923.864  
C08  38580369.205   200897645.269    38580359.926   155346712.684  
C13  38352628.783   199712252.146    38352628.126   154430367.969  
C27  23396325.616   121831855.866                                  
C29  24129655.593   125649509.406                                  
C30  21565887.099   112299033.624                                  
C32  25852022.155   134617821.040                                  
C33  26677803.003   138917812.970                                  
C36  22904081.894   119267156.177                                  
> 2025 01 06 18 45 10.0000000  0 38                     
G26  21541235.232   113199685.067    21541235.291    88207700.059  
G10  23214422.668   121992360.908    23214422.103    95059433.940  
G27  20840687.387   109518163.794    20840686.393    85339349.808  
G07  24975040.016   131244507.064    24975036.893   102268387.838  
G08  23321239.695   122554168.583    23321240.779    95496527.680  
G23  21582790.910   113417819.526    21582788.662    88378056.304  
G29  25487635.330   133938258.098    25487633.535   104367878.445  
G15  24752847.045   130077505.227    24752845.457   101358546.182  
G18  21926464.001   115225094.723    21926461.539    89785216.530  
G16  20329407.078   106832303.072                                  
G31                                  25760238.984   105483687.7851 
R14  19790982.763   105496538.852    19790983.100    82052760.870  
R22  24182276.170   129086773.888    24182275.512   100401003.212  
R15  22570307.570   120608381.018    22570307.849    93806527.429  
R06  24376551.621   130077498.522                                  
R24  19938423.143   106619652.747    19938422.106    82927045.250  
R13  21568052.242   115173029.681                                  
R07  22698141.467   121504593.938    22698138.204    94504066.865  
R08  23047149.929   123417228.127    23047147.318    95990561.884  
R23  20463040.854   109463452.841                                  
R17  23746190.218   127070331.433    23746190.106    98832634.617  
E02  24893163.592   130814373.952    24893164.098   100234570.215  
E10  24381346.744   128124525.285    24381347.662    98173498.772  
E11  23304404.239   122465788.497    23304401.150    93837694.544  
E12  26304974.308   138233337.402    26304973.310   105919775.760  
E14  22031656.818   115777691.665    22031658.695    88712533.495  
E16  24406583.083   128258110.657    24406583.653    98275858.774  
E24  26689125.801   140252648.204    26689127.678   107466103.738  
E25  23475769.063   123365626.402    23475769.987    94527890.318  
E36  25111968.357   131964287.457    25111970.870   101116057.631  
C08  38580481.871   200898231.848    38580472.609   155347166.262  
C13  38352688.794   199712564.251    38352688.114   154430609.310  
C27  23396723.885   121833929.490                                  
C29  24129144.237   125646846.805                                  
C30  21565835.566   112298765.239                                  
C32  25851410.888   134614637.826                                  
C33  26678050.365   138919101.768                                  
C36  22904348.442   119268544.313                                  
> 2025 01 06 18 45 11.0000000  0 38                     
G26  21541689.641   113202073.044    21541689.592    88209560.811  
G10  23213769.294   121988927.361    23213768.800    95056758.455  
G27  20840296.578   109516110.065    20840295.599    85337749.501  
G07  24974723.770   131242845.433    24974720.583   102267093.035  
G08  23320614.255   122550882.019    23320615.310    95493966.717  
G23  21582502.789   113416305.375    21582500.576    88376876.436  
G29  25488204.766   133941250.589    25488202.987   104370210.277  
G15  24752487.328   130075614.872    24752485.763   101357073.178  
G18  21926882.154   115227291.712    21926879.614    89786928.475  
G16  20329477.233   106832671.984                                  
G31                                  25760846.582   105486170.569  
R14  19790913.270   105496168.627    19790913.682    82052472.922  
R22  24182917.058   129090195.221    24182916.389   100403664.256  
R15  22569581.571   120604502.064    22569582.013    93803510.462  
R06  24377008.555   130079935.594                                  
R24  19938117.507   106618018.289    19938116.393    82925774.012  
R13  21568767.330   115176847.955                                  
R07  22698049.654   121504103.228    22698046.527    94503685.191  
R08  23046528.183   123413899.059    23046525.712    95987972.599  
R23  20463452.299   109465654.069                                  
R17  23745506.986   127066675.276    23745506.859    98829790.943  
E02  24892759.066   130812248.466    24892759.696   100232941.592  
E10  24381613.815   128125928.741    24381614.693    98174574.137  
E11  23304397.748   122465754.488    23304394.616    93837668.473  
E12  26305403.719   138235593.532    26305402.559   105921504.469  
E14  22032582.077   115782554.049    22032583.880    88716259.223  
E16  24406940.152   128259986.413    24406940.497    98277296.037  
E24  26689632.416   140255310.322    26689634.232   107468143.543  
E25  23475890.599   123366264.781    23475891.567    94528379.466  
E36  25111504.949   131961852.264    25111507.601   101114191.711  
C08  38580594.617   200898818.738    38580585.315   155347620.090  
C13  38352748.684   199712876.640    38352748.131   154430850.856  
C27  23397122.130   121836003.409                                  
C29  24128632.944   125644184.501                                  
C30  21565783.974   112298497.311                                  
C32  25850799.581   134611454.922                                  
C33  26678298.017   138920391.217                                  
C36  22904615.154   119269933.080                                  
> 2025 01 06 18 45 12.0000000  0 38                     
G26  21542144.255   113204461.661    21542144.220    88211422.075  
G10  23213115.956   121985494.270    23213115.484    95054083.326  
G27  20839905.866   109514056.920    20839905.006    85336149.640  
G07  24974407.795   131241184.510    24974404.515   102265798.819  
G08  23319988.723   122547595.755    23319989.943    95491406.022  
G23  21582214.875   113414792.060    21582212.615    88375697.231  
G29  25488774.322   133944243.366    25488772.483   104372542.266  
G15  24752127.652   130073725.188    24752126.249   101355600.685  
G18  21927300.311   115229489.238    21927297.721    89788640.831  
G16  20329547.580   106833041.770                                  
G31                                  25761454.387   105488653.378  
R14  19790844.081   105495799.568    19790844.465    82052185.876  
R22  24183558.010   129093616.728    24183557.347   100406325.408  
R15  22568855.774   120600623.782    22568856.379    93800494.034  
R06  24377465.300   130082373.514                                  
R24  19937811.963   106616384.564    19937810.801    82924503.330  
R13  21569482.545   115180666.851                                  
R07  22697957.913   121503613.577    22697954.995    94503304.347  
R08  23045906.736   123410570.670    23045904.159    95985383.844  
R23  20463863.923   109467855.809                                  
R17  23744823.786   127063019.482    23744823.699    98826947.569  
E02  24892354.522   130810123.481    24892355.270   100231313.355  
E10  24381880.920   128127332.666    24381881.892    98175649.878  
E11  23304391.350   122465721.042    23304388.347    93837642.858  
E12  26305833.206   138237849.993    26305831.987   105923233.444  
E14  22033507.530   115787417.259    22033509.396    88719985.595  
E16  24407297.071   128261862.701    24407297.618    98278733.711  
E24  26690139.189   140257972.842    26690140.925   107470183.652  
E25  23476012.193   123366903.804    23476013.035    94528869.106  
E36  25111041.686   131959417.565    25111044.286   101112326.160  
C08  38580707.378   200899406.002    38580698.116   155348074.182  
C13  38352808.843   199713189.395    38352808.210   154431092.709  
C27  23397520.428   121838077.694                                  
C29  24128121.755   125641522.593                                  
C30  21565732.781   112298229.914                                  
C32  25850188.484   134608272.348                                  
C33  26678545.725   138921681.370                                  
C36  22904881.955   119271322.552                                  
> 2025 01 06 18 45 13.0000000  0 38                     
G26  21542598.870   113206850.665    21542598.839    88213283.649  
G10  23212462.733   121982061.397    23212462.294    95051408.355  
G27  20839515.202   109512004.063    20839514.292    85334550.020  
G07  24974091.834   131239524.035    24974088.603   102264504.936  
G08  23319363.351   122544309.592    23319364.574    95488845.372  
G23  21581926.913   113413279.314    21581924.738    88374518.470  
G29  25489343.806   133947236.086    25489342.039   104374874.278  
G15  24751768.200   130071836.009    24751766.643   101354128.556  
G18  21927718.625   115231687.045    21927715.959    89790353.407  
G16  20329618.180   106833412.129                                  
G31                                  25762061.696   105491136.092  
R14  19790774.978   105495431.380    19790775.447    82051899.510  
R22  24184199.024   129097038.123    24184198.317   100408986.509  
R15  22568130.117   120596745.915    22568130.774    93797477.912  
R06  24377922.544   130084812.009                                  
R24  19937506.466   106614751.253    19937505.404    82923232.982  
R13  21570197.873   115184486.137                                  
R07  22697866.492   121503124.719    22697863.716    94502924.121  
R08  23045285.333   123407242.688    23045282.652    95982795.417  
R23  20464275.587   109470057.791                                  
R17  23744140.501   127059363.754    23744140.618    98824104.237  
E02  24891950.182   130807998.734    24891950.904   100229685.305  
E10  24382148.213   128128736.823    24382149.228    98176725.792  
E11  23304384.995   122465687.922    23304382.061    93837617.476  
E12  26306262.548   138240106.520    26306261.384   105924962.486  
E14  22034432.855   115792280.982    22034434.789    88723712.335  
E16  24407654.297   128263739.267    24407654.658    98280171.604  
E24  26690645.770   140260635.460    26690647.534   107472223.842  
E25  23476133.696   123367543.187    23476134.728    94529359.026  
E36  25110578.504   131956983.071    25110581.117   101110460.780  
C08  38580820.080   200899993.365    38580810.843   155348528.377  
C13  38352869.047   199713502.267    38352868.303   154431334.641  
C27  23397918.718   121840152.073                                  
C29  24127610.418   125638860.774                                  
C30  21565681.635   112297962.776                                  
C32  25849577.214   134605089.866                                  
C33  26678793.509   138922971.965                                  
C36  22905149.024   119272712.458                                  
> 2025 01 06 18 45 14.0000000  0 38                     
G26  21543053.588   113209240.216    21543053.605    88215145.619  
G10  23211809.464   121978628.897    23211809.144    95048733.691  
G27  20839124.625   109509951.685    20839123.796    85332950.762  
G07  24973775.997   131237864.197    24973772.765   102263211.567  
G08  23318737.948   122541023.681    23318739.253    95486284.906  
G23  21581639.088   113411767.307    21581637.050    88373340.298  
G29  25489913.450   133950228.996    25489911.593   104377206.440  
G15  24751408.667   130069947.406    24751407.356   101352656.934  
G18  21928136.958   115233885.298    21928134.238    89792066.328  
G16  20329688.745   106833783.262                                  
G31                                  25762669.072   105493618.856  
R14  19790705.993   105495064.192    19790706.684    82051613.917  
R22  24184839.927   129100459.565    24184839.390   100411647.617  
R15  22567404.599   120592868.595    22567405.207    93794462.212  
R06  24378379.901   130087251.285                                  
R24  19937201.134   106613118.510    19937200.147    82921963.073  
R13  21570913.204   115188305.949                                  
R07  22697775.339   121502636.851    22697772.503    94502544.688  
R08  23044664.045   123403915.306    23044661.236    95980207.443  
R23  20464687.289   109472260.188                                  
R17  23743457.313   127055708.305    23743457.512    98821261.096  
E02  24891546.111   130805874.378    24891546.661   100228057.560  
E10  24382415.450   128130141.344    24382416.430    98177801.983  
E11  23304378.960   122465655.285    23304375.869    93837592.465  
E12  26306692.099   138242363.307    26306690.828   105926691.717  
E14  22035358.625   115797145.379    22035360.400    88727439.610  
E16  24408011.492   128265616.258    24408011.973    98281609.820  
E24  26691152.439   140263298.374    26691154.357   107474264.251  
E25  23476255.535   123368183.090    23476256.521    94529849.340  
E36  25110115.537   131954548.957    25110117.770   101108595.682  
C08  38580932.793   200900581.041    38580923.673   155348982.778  
C13  38352929.166   199713815.392    38352928.367   154431576.765  
C27  23398317.042   121842226.723                                  
C29  24127099.264   125636199.222                                  
C30  21565630.353   112297696.059                                  
C32  25848966.041   134601907.629                                  
C33  26679041.358   138924263.177                                  
C36  22905416.094   119274102.975                                  
> 2025 01 06 18 45 15.0000000  0 38                     
G26  21543508.398   113211630.112    21543508.269    88217007.880  
G10  23211156.274   121975196.539    23211156.068    95046059.128  
G27  20838734.113   109507899.552    20838733.310    85331351.699  
G07  24973460.282   131236204.752    24973457.055   102261918.486  
G08  23318112.497   122537737.778    23318114.012    95483724.471  
G23  21581351.426   113410255.825    21581349.321    88372162.510  
G29  25490483.019   133953221.851    25490481.027   104379538.504  
G15  24751049.336   130068059.240    24751048.017   101351185.631  
G18  21928555.294   115236083.777    21928552.615    89793779.429  
G16  20329759.437   106834154.934                                  
G31                                  25763276.118   105496691.000  
R14  19790637.194   105494697.805    19790637.886    82051328.948  
R22  24185480.807   129103880.843    24185480.339   100414308.611  
R15  22566679.121   120588991.624    22566679.652    93791446.779  
R06  24378837.065   130089691.042                                  
R24  19936895.839   106611486.111    19936894.859    82920693.429  
R13  21571628.578   115192126.048                                  
R07  22697684.320   121502149.760    22697681.410    94502165.831  
R08  23044042.682   123400588.294    23044039.928    95977619.775  
R23  20465099.077   109474462.785                                  
R17  23742774.154   127052052.956    23742774.335    98818418.064  
E02  24891141.770   130803750.226    24891142.407   100226429.962  
E10  24382682.841   128131546.043    24382683.798    98178878.309  
E11  23304372.792   122465622.906    23304369.626    93837567.666  
E12  26307121.553   138244620.139    26307120.422   105928420.971  
E14  22036284.592   115802010.329    22036286.141    88731167.286  
E16  24408368.769   128267493.487    24408369.092    98283048.211  
E24  26691659.134   140265961.367    26691661.150   107476304.718  
E25  23476377.488   123368823.322    23476378.340    94530339.899  
E36  25109652.396   131952115.020    25109654.590   101106730.706  
C08  38581045.705   200901168.722    38581036.520   155349437.239  
C13  38352989.218   199714128.566    38352988.585   154431818.935  
C27  23398715.459   121844301.427                                  
C29  24126588.048   125633537.732                                  
C30  21565579.072   112297429.557                                  
C32  25848354.891   134598725.439                                  
C33  26679289.277   138925554.774                                  
C36  22905683.124   119275493.876                                  
> 2025 01 06 18 45 16.0000000  0 38                     
G26  21543963.255   113214020.634    21543963.142    88218870.627  
G10  23210503.313   121971764.652    23210503.001    95043384.930  
G27  20838343.677   109505847.972    20838342.974    85329753.074  
G07  24973144.568   131234546.040    24973141.424   102260626.003  
G08  23317487.233   122534452.208    23317488.748    95481164.304  
G23  21581064.069   113408745.171    21581061.821    88370985.380  
G29  25491052.608   133956214.963    25491050.605   104381870.802  
G15  24750690.116   130066171.757    24750688.831   101349714.899  
G18  21928973.698   115238282.784    21928971.057    89795492.941  
G16  20329830.268   106834527.443                                  
G31                                  25763884.094   105498583.821  
R14  19790568.741   105494332.560    19790569.405    82051044.867  
R22  24186121.784   129107302.297    24186121.392   100416969.742  
R15  22565953.726   120585115.306    22565954.285    93788431.869  
R06  24379294.401   130092131.641                                  
R24  19936590.793   106609854.398    19936589.753    82919424.324  
R13  21572344.081   115195946.770                                  
R07  22697593.380   121501663.718    22697590.625    94501787.802  
R08  23043421.559   123397261.955    23043418.676    95975032.631  
R23  20465510.911   109476665.905                                  
R17  23742091.127   127048397.965    23742091.339    98815575.297  
E02  24890737.766   130801626.560    24890738.241   100224802.734  
E10  24382950.141   128132951.207    24382951.065    98179954.993  
E11  23304366.596   122465591.096    23304363.642    93837543.288  
E12  26307551.091   138246877.292    26307549.900   105930150.483  
E14  22037210.497   115806876.119    22037212.124    88734895.623  
E16  24408726.139   128269371.240    24408726.397    98284487.007  
E24  26692166.000   140268624.709    26692167.844   107478345.472  
E25  23476499.261   123369464.158    23476500.242    94530830.934  
E36  25109189.208   131949681.542    25109191.621   101104866.098  
C08  38581158.590   200901756.763    38581149.465   155349891.943  
C13  38353049.395   199714442.109    38353048.790   154432061.386  
C27  23399113.999   121846376.471                                  
C29  24126076.877   125630876.596                                  
C30  21565528.151   112297163.565                                  
C32  25847743.850   134595543.560                                  
C33  26679537.334   138926847.066                                  
C36  22905950.304   119276885.465                                  
> 2025 01 06 18 45 17.0000000  0 38                     
G26  21544418.294   113216411.936    21544418.174    88220733.968  
G10  23209850.317   121968333.326    23209850.057    95040711.169  
G27  20837953.318   109503797.089    20837952.606    85328154.982  
G07  24972829.065   131232888.146    24972825.993   102259334.124  
G08  23316862.089   122531167.071    23316863.585    95478604.474  
G23  21580776.880   113407235.465    21580774.569    88369808.982  
G29  25491622.319   133959208.401    25491620.182   104384203.376  
G15  24750331.024   130064285.106    24750329.768   101348244.771  
G18  21929392.270   115240482.448    21929389.620    89797206.971  
G16  20329901.349   106834900.940                                  
G31                                  25764489.335   105501486.312  
R14  19790500.546   105493968.599    19790501.226    82050761.790  
R22  24186762.766   129110723.988    24186762.526   100419631.082  
R15  22565228.445   120581239.761    22565228.947    93785417.561  
R06  24379752.036   130094573.216                                  
R24  19936285.883   106608223.516    19936284.812    82918155.859  
R13  21573059.726   115199768.235                                  
R07  22697502.808   121501178.893    22697500.147    94501410.715  
R08  23042800.538   123393936.387    23042797.666    95972446.078  
R23  20465923.004   109478869.671                                  
R17  23741408.091   127044743.475    23741408.371    98812732.918  
E02  24890333.675   130799503.511    24890334.273   100223175.982  
E10  24383217.562   128134356.963    24383218.564    98181032.134  
E11  23304360.708   122465559.975    23304357.744    93837519.439  
E12  26307980.591   138249134.891    26307979.397   105931880.337  
E14  22038136.465   115811742.830    22038138.368    88738624.673  
E16  24409083.587   128271249.642    24409083.818    98285926.302  
E24  26692672.956   140271288.557    26692674.803   107480386.603  
E25  23476621.417   123370105.745    23476622.352    94531322.543  
E36  25108726.215   131947248.657    25108728.700   101103001.944  
C08  38581271.589   200902345.259    38581262.578   155350347.018  
C13  38353109.784   199714756.135    38353109.023   154432304.204  
C27  23399512.547   121848451.991                                  
C29  24125565.939   125628215.947                                  
C30  21565477.071   112296898.206                                  
C32  25847132.909   134592362.165                                  
C33  26679785.590   138928140.179                                  
C36  22906217.547   119278277.867                                  
> 2025 01 06 18 45 18.0000000  0 38                     
G26  21544873.513   113218803.851    21544873.372    88222597.812  
G10  23209197.475   121964902.448    23209197.134    95038037.758  
G27  20837563.146   109501746.746    20837562.508    85326557.305  
G07  24972513.726   131231230.957    24972510.704   102258042.825  
G08  23316236.907   122527882.273    23316238.519    95476044.871  
G23  21580489.691   113405726.573    21580487.402    88368633.232  
G29  25492192.016   133962202.088    25492189.908   104386536.119  
G15  24749972.047   130062399.202    24749970.813   101346775.197  
G18  21929810.928   115242682.628    21929808.196    89798921.391  
G16  20329972.540   106835275.264                                  
G31                                  25765095.809   105503549.236  
R14  19790432.388   105493605.741    19790433.114    82050479.562  
R22  24187403.816   129114145.851    24187403.553   100422292.504  
R15  22564503.359   120577364.861    22564503.764    93782403.757  
R06  24380209.722   130097015.598                                  
R24  19935981.088   106606593.326    19935979.850    82916887.942  
R13  21573775.470   115203590.280                                  
R07  22697412.340   121500695.112    22697409.851    94501034.439  
R08  23042179.693   123390611.481    23042176.760    95969860.039  
R23  20466335.005   109481073.941                                  
R17  23740725.177   127041089.350    23740725.555    98809890.836  
E02  24889929.694   130797380.935    24889930.387   100221549.600  
E10  24383485.120   128135763.175    24383486.246    98182109.621  
E11  23304354.932   122465529.432    23304351.954    93837496.035  
E12  26308410.161   138251392.842    26308409.162   105933610.447  
E14  22039062.536   115816610.391    22039064.687    88742354.361  
E16  24409441.158   128273128.561    24409441.436    98287365.992  
E24  26693179.841   140273952.775    26693181.829   107482428.014  
E25  23476743.846   123370747.934    23476744.548    94531814.607  
E36  25108263.386   131944816.228    25108265.701   101101138.134  
C08  38581384.739   200902934.124    38581375.661   155350802.344  
C13  38353170.222   199715070.506    38353169.386   154432547.303  
C27  23399911.186   121850527.849                                  
C29  24125055.121   125625555.655                                  
C30  21565426.114   112296633.349                                  
C32  25846522.075   134589181.093                                  
C33  26680034.103   138929433.955                                  
C36  22906485.084   119279670.956                                  
> 2025 01 06 18 45 19.0000000  0 38                     
G26  21545328.792   113221196.339    21545328.690    88224462.085  
G10  23208544.673   121961471.974    23208544.413    95035364.658  
G27  20837173.090   109499696.895    20837172.492    85324960.030  
G07  24972198.485   131229574.434    24972195.471   102256751.991  
G08  23315611.823   122524597.742    23315613.425    95473485.501  
G23  21580202.752   113404218.442    21580200.442    88367458.070  
G29  25492761.729   133965195.990    25492759.657   104388869.003  
G15  24749613.303   130060513.874    24749612.057   101345306.130  
G31  25765691.440   135399963.9531   25765701.435   105506032.057  
G18  21930229.662   115244883.277    21930226.876    89800636.177  
G16  20330043.919   106835650.371                                  
R14  19790364.554   105493243.917    19790365.224    82050198.145  
R22  24188044.881   129117567.794    24188044.718   100424954.031  
R15  22563778.253   120573490.564    22563778.753    93779390.411  
R06  24380667.591   130099458.613                                  
R24  19935676.305   106604963.753    19935675.040    82915620.495  
R13  21574491.299   115207412.881                                  
R07  22697322.095   121500212.328    22697319.671    94500658.948  
R08  23041558.976   123387287.190    23041555.897    95967274.483  
R23  20466747.066   109483278.661                                  
R17  23740042.289   127037435.527    23740042.706    98807048.966  
E02  24889525.809   130795258.791    24889526.448   100219923.544  
E10  24383752.963   128137169.799    24383753.832    98183187.423  
E11  23304349.255   122465499.378    23304346.120    93837473.009  
E12  26308839.713   138253651.055    26308838.849   105935340.774  
E14  22039988.722   115821478.607    22039990.923    88746084.541  
E16  24409798.632   128275007.941    24409798.877    98288806.039  
E24  26693687.004   140276617.293    26693688.916   107484469.657  
E25  23476865.877   123371390.680    23476866.824    94532307.100  
E36  25107800.545   131942384.197    25107802.901   101099274.637  
C08  38581497.788   200903523.264    38581488.771   155351257.908  
C13  38353230.676   199715385.164    38353229.775   154432790.624  
C27  23400309.963   121852603.992                                  
C29  24124544.296   125622895.639                                  
C30  21565375.387   112296368.941                                  
C32  25845911.196   134586000.295                                  
C33  26680282.687   138930728.372                                  
C36  22906752.765   119281064.660                                  
> 2025 01 06 18 45 20.0000000  0 38                     
G26  21545784.065   113223588.814    21545783.870    88226326.346  
G10  23207891.863   121958041.305    23207891.685    95032691.421  
G27  20836783.018   109497646.957    20836782.316    85323362.662  
G07  24971883.251   131227917.935    24971880.223   102255461.239  
G08  23314986.731   122521312.869    23314988.304    95470925.851  
G23  21579915.860   113402710.488    21579913.561    88366283.040  
G29  25493331.364   133968189.428    25493329.250   104391201.582  
G15  24749254.513   130058628.631    24749253.217   101343837.109  
G31  25766297.803   135403149.522    25766306.390   105508679.281  
G18  21930648.412   115247083.790    21930645.598    89802350.873  
G16  20330115.334   106836025.669                                  
R14  19790296.696   105492882.546    19790297.396    82049917.080  
R22  24188685.867   129120989.232    24188685.653   100427615.130  
R15  22563053.154   120569616.257    22563053.687    93776377.050  
R06  24381125.717   130101901.854                                  
R24  19935371.620   106603334.151    19935370.350    82914353.029  
R13  21575207.165   115211235.434                                  
R07  22697231.870   121499729.951    22697229.569    94500283.762  
R08  23040938.175   123383962.933    23040935.136    95964688.950  
R23  20467159.168   109485483.224                                  
R17  23739359.399   127033781.360    23739359.714    98804206.856  
E02  24889121.902   130793136.500    24889122.706   100218297.364  
E10  24384020.804   128138576.233    24384021.542    98184265.079  
E11  23304343.363   122465469.240    23304340.384    93837449.919  
E12  26309269.474   138255908.949    26309268.556   105937070.836  
E14  22040915.062   115826346.946    22040917.296    88749814.828  
E16  24410156.627   128276887.201    24410156.646    98290245.988  
E24  26694194.311   140279281.546    26694195.786   107486511.087  
E25  23476988.127   123372033.382    23476989.120    94532799.563  
E36  25107337.886   131939951.993    25107340.176   101097411.001  
C08  38581610.903   200904112.106    38581601.921   155351713.254  
C13  38353291.106   199715699.544    38353290.157   154433033.705  
C27  23400708.647   121854679.839                                  
C29  24124033.417   125620235.344                                  
C30  21565324.435   112296104.407                                  
C32  25845300.293   134582819.180                                  
C33  26680531.279   138932022.838                                  
C36  22907020.406   119282458.416                                  
> 2025 01 06 18 45 21.0000000  0 38                     
G26  21546239.432   113225981.816    21546239.217    88228191.021  
G10  23207239.023   121954610.967    23207238.981    95030018.437  
G27  20836392.996   109495597.444    20836392.296    85321765.653  
G07  24971568.186   131226262.037    24971565.066   102254170.940  
G08  23314361.618   122518028.208    23314363.213    95468366.367  
G23  21579629.018   113401203.248    21579626.788    88365108.570  
G29  25493900.983   133971183.031    25493898.887   104393534.260  
G15  24748895.911   130056743.966    24748894.443   101342368.566  
G31  25766904.015   135406335.032    25766910.679   105511076.937  
G18  21931067.234   115249284.736    21931064.314    89804065.892  
G16  20330186.883   106836401.707                                  
R14  19790228.960   105492522.211    19790229.792    82049636.818  
R22  24189326.824   129124410.674    24189326.542   100430276.271  
R15  22562328.374   120565742.482    22562328.787    93773364.123  
R06  24381583.595   130104345.773                                  
R24  19935066.932   106601705.105    19935065.723    82913086.004  
R13  21575923.069   115215058.505                                  
R07  22697141.765   121499248.526    22697139.644    94499909.322  
R08  23040317.423   123380639.251    23040314.495    95962103.871  
R23  20467571.518   109487688.179                                  
R17  23738676.559   127030127.422    23738676.867    98801364.929  
E02  24888718.264   130791014.566    24888718.946   100216671.469  
E10  24384288.367   128139983.029    24384289.245    98185343.012  
E11  23304337.907   122465439.551    23304334.869    93837427.176  
E12  26309699.105   138258167.070    26309698.273   105938801.079  
E14  22041841.870   115831215.957    22041843.800    88753545.621  
E16  24410514.281   128278766.862    24410514.193    98291686.252  
E24  26694701.284   140281946.041    26694702.880   107488552.719  
E25  23477110.465   123372676.593    23477111.561    94533292.413  
E36  25106875.351   131937520.144    25106877.368   101095547.626  
C08  38581724.001   200904701.179    38581715.042   155352168.757  
C13  38353351.503   199716014.142    38353350.509   154433276.981  
C27  23401107.303   121856755.925                                  
C29  24123522.619   125617575.298                                  
C30  21565273.822   112295840.254                                  
C32  25844689.435   134579638.298                                  
C33  26680779.925   138933317.863                                  
C36  22907288.134   119283852.742                                  
> 2025 01 06 18 45 22.0000000  0 38                     
G26  21546695.016   113228375.417    21546694.734    88230056.161  
G10  23206586.328   121951181.056    23206586.164    95027345.782  
G27  20836003.018   109493548.468    20836002.508    85320169.038  
G07  24971253.231   131224606.817    24971250.129   102252881.153  
G08  23313736.674   122514743.840    23313738.172    95465807.131  
G23  21579342.350   113399696.791    21579340.138    88363934.699  
G29  25494470.665   133974176.861    25494468.679   104395867.093  
G15  24748537.510   130054859.996    24748535.903   101340900.534  
G31  25767510.206   135409520.588    25767515.284   105513478.636  
G18  21931486.161   115251486.162    21931483.198    89805781.293  
G16  20330258.523   106836778.541                                  
R14  19790161.540   105492162.971    19790162.369    82049357.403  
R22  24189967.810   129127832.242    24189967.642   100432937.476  
R15  22561603.572   120561869.330    22561603.792    93770351.665  
R06  24382041.683   130106790.548                                  
R24  19934762.463   106600076.724    19934761.173    82911819.475  
R13  21576639.115   115218882.149                                  
R07  22697052.164   121498768.122    22697049.887    94499535.673  
R08  23039696.935   123377316.193    23039693.796    95959519.265  
R23  20467983.885   109489893.605                                  
R17  23737993.736   127026473.841    23737994.105    98798523.254  
E02  24888314.585   130788893.072    24888315.214   100215045.917  
E10  24384556.220   128141390.234    24384557.001    98186421.265  
E11  23304332.274   122465410.411    23304329.259    93837404.840  
E12  26310128.999   138260425.462    26310127.995   105940531.542  
E14  22042768.436   115836085.788    22042770.675    88757277.064  
E16  24410872.068   128280647.019    24410872.063    98293126.881  
E24  26695208.452   140284610.873    26695209.833   107490594.594  
E25  23477233.080   123373320.368    23477234.056    94533785.697  
E36  25106412.790   131935088.703    25106414.600   101093684.580  
C08  38581837.314   200905290.585    38581828.189   155352624.526  
C13  38353411.970   199716329.040    38353411.016   154433520.483  
C27  23401506.045   121858832.319                                  
C29  24123011.912   125614915.574                                  
C30  21565223.165   112295576.586                                  
C32  25844078.572   134576457.712                                  
C33  26681028.789   138934613.559                                  
C36  22907555.977   119285247.724                                  
> 2025 01 06 18 45 23.0000000  0 38                     
G26  21547150.487   113230769.013    21547150.199    88231921.309  
G10  23205933.623   121947750.961    23205933.480    95024672.993  
G27  20835613.101   109491499.400    20835612.459    85318572.364  
G07  24970938.286   131222951.691    24970935.197   102251591.460  
G08  23313111.695   122511459.169    23313113.105    95463247.642  
G23  21579055.673   113398190.525    21579053.472    88362760.987  
G29  25495040.305   133977170.263    25495038.324   104398199.618  
G15  24748179.118   130052976.102    24748177.338   101339432.545  
G31  25768115.964   135412705.541    25768120.640   105515960.474  
G18  21931905.175   115253687.477    21931902.086    89807496.607  
G16  20330330.325   106837155.596                                  
R14  19790094.291   105491804.168    19790095.088    82049078.340  
R22  24190608.671   129131253.287    24190608.625   100435598.264  
R15  22560878.692   120557996.173    22560878.968    93767339.212  
R06  24382499.693   130109235.421                                  
R24  19934457.867   106598448.371    19934456.690    82910552.983  
R13  21577355.132   115222705.768                                  
R07  22696962.478   121498288.133    22696960.230    94499162.344  
R08  23039076.261   123373993.144    23039073.181    95956934.685  
R23  20468396.190   109492098.908                                  
R17  23737310.931   127022819.996    23737311.292    98795681.374  
E02  24887910.562   130786771.453    24887911.474   100213420.256  
E10  24384824.006   128142797.280    24384824.815    98187499.389  
E11  23304326.821   122465381.196    23304323.715    93837382.463  
E12  26310558.627   138262683.554    26310557.767   105942261.774  
E14  22043695.174   115840955.845    22043697.371    88761008.664  
E16  24411229.618   128282527.059    24411229.845    98294567.437  
E24  26695715.479   140287275.411    26695716.944   107492636.266  
E25  23477355.556   123373964.131    23477356.493    94534278.972  
E36  25105950.075   131932657.106    25105951.960   101091821.414  
C08  38581950.416   200905879.713    38581941.265   155353080.078  
C13  38353472.364   199716643.680    38353471.433   154433763.785  
C27  23401904.731   121860908.427                                  
C29  24122501.167   125612255.556                                  
C30  21565172.506   112295312.789                                  
C32  25843467.605   134573276.825                                  
C33  26681277.578   138935909.321                                  
C36  22907823.738   119286642.752                                  
> 2025 01 06 18 45 24.0000000  0 38                     
G26  21547606.109   113233162.994    21547605.768    88233786.746  
G10  23205281.004   121944321.080    23205280.811    95022000.358  
G27  20835223.257   109489450.640    20835222.637    85316975.934  
G07  24970623.475   131221297.018    24970620.262   102250302.049  
G08  23312486.697   122508174.554    23312488.087    95460688.219  
G23  21578769.096   113396684.842    21578766.930    88361587.727  
G29  25495610.011   133980163.677    25495607.948   104400532.123  
G15  24747820.821   130051092.665    24747818.972   101337964.926  
G31  25768722.004   135415890.333    25768726.306   105518442.065  
G18  21932324.028   115255889.081    21932320.918    89809212.140  
G16  20330402.259   106837533.228                                  
R14  19790027.087   105491446.230    19790027.925    82048799.941  
R22  24191249.519   129134674.260    24191249.571   100438259.029  
R15  22560153.861   120554123.405    22560154.225    93764327.051  
R06  24382958.129   130111680.826                                  
R24  19934153.400   106596820.448    19934152.245    82909286.824  
R13  21578071.186   115226529.734                                  
R07  22696872.881   121497808.968    22696870.715    94498789.668  
R08  23038455.683   123370670.522    23038452.719    95954350.428  
R23  20468808.561   109494304.454                                  
R17  23736627.983   127019166.287    23736628.508    98792839.622  
E02  24887506.944   130784650.076    24887507.743   100211794.787  
E10  24385091.709   128144204.550    24385092.623    98188577.688  
E11  23304321.440   122465352.292    23304318.146    93837360.314  
E12  26310988.260   138264941.749    26310987.520   105943992.079  
E14  22044621.974   115845826.397    22044624.309    88764740.645  
E16  24411587.647   128284407.380    24411587.549    98296008.208  
E24  26696222.532   140289940.141    26696224.040   107494678.054  
E25  23477478.054   123374608.268    23477479.136    94534772.531  
E36  25105487.484   131930225.725    25105489.149   101089958.405  
C08  38582063.542   200906468.931    38582054.486   155353535.694  
C13  38353532.825   199716958.430    38353531.898   154434007.173  
C27  23402303.436   121862984.646                                  
C29  24121990.265   125609595.664                                  
C30  21565121.926   112295049.255                                  
C32  25842856.826   134570096.033                                  
C33  26681526.512   138937205.511                                  
C36  22908091.631   119288038.231                                  
> 2025 01 06 18 45 25.0000000  0 38                     
G26  21548061.648   113235557.366    21548061.389    88235652.493  
G10  23204628.355   121940891.398    23204628.245    95019327.879  
G27  20834833.507   109487402.182    20834832.868    85315379.737  
G07  24970308.675   131219642.799    24970305.510   102249013.082  
G08  23311861.715   122504890.011    23311862.970    95458128.837  
G23  21578482.676   113395179.719    21578480.505    88360414.901  
G29  25496179.660   133983157.084    25496177.560   104402864.653  
G15  24747462.445   130049209.613    24747460.666   101336497.643  
G31  25769327.956   135419074.956    25769330.777   105520667.562  
G18  21932743.039   115258090.958    21932739.913    89810927.880  
G16  20330474.147   106837911.468                                  
R14  19789959.995   105491089.149    19789960.938    82048522.212  
R22  24191890.422   129138095.074    24191890.480   100440919.674  
R15  22559429.124   120550251.039    22559429.568    93761315.225  
R06  24383416.391   130114126.944                                  
R24  19933849.221   106595192.960    19933847.855    82908020.992  
R13  21578787.345   115230354.071                                  
R07  22696783.509   121497330.631    22696781.427    94498417.623  
R08  23037835.187   123367348.341    23037832.148    95951766.498  
R23  20469220.908   109496510.243                                  
R17  23735945.089   127015512.677    23735945.813    98789997.921  
E02  24887103.363   130782528.922    24887104.159   100210169.491  
E10  24385359.495   128145612.020    24385360.404    98189656.139  
E11  23304315.963   122465323.697    23304312.683    93837338.392  
E12  26311417.998   138267200.006    26311417.243   105945722.428  
E14  22045548.975   115850697.461    22045551.348    88768473.018  
E16  24411945.391   128286287.958    24411945.549    98297449.166  
E24  26696729.603   140292604.913    26696731.217   107496719.911  
E25  23477600.502   123375252.755    23477601.723    94535266.364  
E36  25105024.873   131927794.547    25105026.604   101088095.556  
C08  38582176.777   200907058.269    38582167.661   155353991.417  
C13  38353593.223   199717273.291    38353592.340   154434250.640  
C27  23402702.100   121865060.954                                  
C29  24121479.537   125606935.881                                  
C30  21565071.419   112294785.984                                  
C32  25842245.989   134566915.317                                  
C33  26681775.608   138938502.145                                  
C36  22908359.696   119289434.143                                  
> 2025 01 06 18 45 26.0000000  0 38                     
G26  21548517.384   113237952.321    21548517.212    88237518.691  
G10  23203975.771   121937462.147    23203975.733    95016655.737  
G27  20834443.843   109485354.248    20834443.220    85313783.941  
G07  24969993.950   131217989.238    24969990.820   102247724.576  
G08  23311236.761   122501605.774    23311238.001    95455569.709  
G23  21578196.398   113393675.393    21578194.250    88359242.702  
G29  25496749.343   133986150.704    25496747.246   104405197.341  
G15  24747104.315   130047327.303    24747102.488   101335030.890  
G31  25769934.077   135422259.512    25769936.614   105523065.219  
G18  21933162.133   115260293.314    21933158.950    89812644.007  
G16  20330546.201   106838290.511                                  
R14  19789893.267   105490733.149    19789894.205    82048245.324  
R22  24192531.376   129141516.049    24192531.355   100443580.403  
R15  22558704.542   120546379.260    22558704.882    93758303.843  
R06  24383875.056   130116573.789                                  
R24  19933544.995   106593566.122    19933543.707    82906755.668  
R13  21579503.639   115234178.964                                  
R07  22696694.383   121496853.299    22696692.356    94498046.363  
R08  23037214.854   123364026.801    23037211.917    95949183.071  
R23  20469633.293   109498716.504                                  
R17  23735262.265   127011859.366    23735263.076    98787156.472  
E02  24886699.844   130780408.227    24886700.480   100208544.541  
E10  24385627.518   128147019.931    24385628.382    98190734.931  
E11  23304310.606   122465295.641    23304307.340    93837316.906  
E12  26311847.874   138269458.576    26311846.998   105947453.023  
E14  22046476.218   115855569.236    22046478.429    88772205.968  
E16  24412303.483   128288169.043    24412303.401    98298890.516  
E24  26697236.897   140295270.075    26697238.319   107498762.035  
E25  23477723.449   123375897.838    23477724.515    94535760.643  
E36  25104562.252   131925363.803    25104564.040   101086233.043  
C08  38582290.064   200907647.917    38582280.903   155354447.373  
C13  38353653.753   199717588.438    38353652.843   154434494.331  
C27  23403100.845   121867137.575                                  
C29  24120968.832   125604276.411                                  
C30  21565020.945   112294523.184                                  
C32  25841635.203   134563734.917                                  
C33  26682024.711   138939799.439                                  
C36  22908627.803   119290830.703                                  
> 2025 01 06 18 45 27.0000000  0 39                     
G26  21548973.274   113240347.640    21548972.912    88239385.175  
G10  23203323.246   121934033.058    23203323.212    95013983.722  
G27  20834054.240   109483306.577    20834053.458    85312188.357  
G07  24969679.544   131216336.123    24969676.294   102246436.410  
G08  23310611.866   122498321.580    23310612.985    95453010.587  
G23  21577910.292   113392171.601    21577908.024    88358070.918  
G29  25497319.017   133989144.265    25497316.909   104407530.005  
G15  24746746.125   130045445.394    24746744.513   101333564.479  
G31  25770540.012   135425443.892    25770542.739   105525462.875  
G18  21933581.213   115262495.922    21933577.978    89814360.328  
G16  20330618.422   106838670.117                                  
R14  19789826.719   105490378.000    19789827.632    82047969.093  
R22  24193172.160   129144936.860    24193172.153   100446241.032  
R15  22557979.973   120542507.850    22557980.370    93755292.745  
R06  24384333.652   130119021.060                                  
R24  19933240.802   106591939.665    19933239.628    82905490.649  
R26  22866774.329   121935746.0011   22866775.549    94838913.3921 
R13  21580219.891   115238004.163                                  
R07  22696605.358   121496376.734    22696603.333    94497675.699  
R08  23036594.720   123360705.629    23036591.696    95946599.947  
R23  20470045.732   109500922.983                                  
R17  23734579.451   127008206.089    23734580.437    98784315.027  
E02  24886296.256   130778287.729    24886297.017   100206919.740  
E10  24385895.460   128148428.009    24385896.194    98191813.846  
E11  23304305.201   122465267.876    23304302.131    93837295.617  
E12  26312277.668   138271717.174    26312276.812   105949183.638  
E14  22047403.425   115860441.542    22047405.459    88775939.270  
E16  24412661.545   128290050.350    24412661.346    98300332.036  
E24  26697744.017   140297935.267    26697745.508   107500804.199  
E25  23477846.081   123376543.222    23477847.310    94536255.157  
E36  25104099.842   131922933.240    25104101.449   101084370.661  
C08  38582403.277   200908237.632    38582394.056   155354903.381  
C13  38353714.220   199717903.670    38353713.378   154434738.086  
C27  23403499.666   121869214.264                                  
C29  24120458.186   125601617.015                                  
C30  21564970.444   112294260.610                                  
C32  25841024.428   134560554.563                                  
C33  26682273.881   138941097.160                                  
C36  22908895.973   119292227.673                                  
> 2025 01 06 18 45 28.0000000  0 38                     
G26  21549429.259   113242743.392    21549428.734    88241251.988  
G10  23202670.759   121930604.214    23202670.893    95011311.891  
G27  20833664.623   109481259.266    20833663.828    85310593.042  
G07  24969365.129   131214683.493    24969361.827   102245148.689  
G08  23309986.937   122495037.503    23309988.005    95450451.571  
G23  21577624.175   113390668.437    21577621.955    88356899.620  
G29  25497888.611   133992137.894    25497886.522   104409862.683  
G15  24746388.188   130043563.963    24746386.508   101332098.445  
G31  25771145.982   135428628.055    25771147.180   105527860.531  
G18  21934000.425   115264698.860    21933997.154    89816076.898  
G16  20330690.845   106839050.359                                  
R14  19789760.230   105490023.795    19789761.035    82047693.599  
R22  24193812.895   129148357.607    24193813.042   100448901.625  
R15  22557255.466   120538636.902    22557255.956    93752282.004  
R06  24384792.256   130121469.054                                  
R24  19932936.681   106590313.687    19932935.575    82904225.999  
R13  21580936.205   115241829.766                                  
R07  22696516.528   121495901.011    22696514.484    94497305.692  
R08  23035974.584   123357384.935    23035971.401    95944017.177  
R23  20470458.206   109503129.775                                  
R17  23733896.788   127004552.967    23733897.665    98781473.736  
E02  24885892.737   130776167.518    24885893.605   100205295.172  
E10  24386163.447   128149836.367    24386164.339    98192892.971  
E11  23304300.011   122465240.450    23304297.008    93837274.612  
E12  26312707.533   138273975.926    26312706.544   105950914.353  
E14  22048330.711   115865314.507    22048332.745    88779673.086  
E16  24413019.619   128291931.979    24413019.450    98301773.813  
E24  26698251.360   140300600.669    26698252.715   107502846.523  
E25  23477969.000   123377189.034    23477970.201    94536750.000  
E36  25103637.365   131920502.937    25103638.953   101082508.481  
C08  38582516.585   200908827.509    38582507.316   155355359.498  
C13  38353774.857   199718219.049    38353773.900   154434981.968  
C27  23403898.505   121871291.098                                  
C29  24119947.548   125598957.789                                  
C30  21564919.950   112293998.352                                  
C32  25840413.666   134557374.335                                  
C33  26682523.075   138942395.353                                  
C36  22909164.345   119293625.134                                  
> 2025 01 06 18 45 29.0000000  0 38                     
G26  21549885.170   113245139.381    21549884.723    88243119.001  
G10  23202018.256   121927175.443    23202018.343    95008640.115  
G27  20833274.979   109479212.113    20833274.324    85308997.859  
G07  24969050.699   131213031.152    24969047.527   102243861.173  
G08  23309362.163   122491753.366    23309363.134    95447892.505  
G23  21577338.147   113389165.686    21577336.023    88355728.648  
G29  25498458.159   133995131.326    25498456.180   104412195.292  
G15  24746030.211   130041682.877    24746028.516   101330632.673  
G31  25771751.979   135431812.008    25771751.781   105530258.187  
G18  21934419.645   115266901.912    21934416.392    89817793.563  
G16  20330763.222   106839431.052                                  
R14  19789693.975   105489670.305    19789694.785    82047418.675  
R22  24194453.657   129151778.102    24194453.884   100451561.992  
R15  22556531.155   120534766.196    22556531.683    93749271.449  
R06  24385250.946   130123917.383                                  
R24  19932632.763   106588687.951    19932631.459    82902961.536  
R13  21581652.686   115245655.595                                  
R07  22696427.827   121495425.922    22696425.765    94496936.182  
R08  23035354.414   123354064.506    23035351.287    95941434.614  
R23  20470870.658   109505336.663                                  
R17  23733214.088   127000899.841    23733214.980    98778632.413  
E02  24885489.270   130774047.417    24885490.113   100203670.671  
E10  24386431.580   128151244.776    24386432.190    98193972.149  
E11  23304294.888   122465213.194    23304291.716    93837253.717  
E12  26313137.307   138276234.597    26313136.294   105952645.033  
E14  22049258.038   115870187.815    22049260.121    88783407.193  
E16  24413377.464   128293813.747    24413377.417    98303215.683  
E24  26698758.576   140303266.049    26698759.808   107504888.810  
E25  23478091.811   123377835.058    23478093.055    94537245.011  
E36  25103174.827   131918072.709    25103176.468   101080646.353  
C08  38582629.869   200909417.321    38582620.577   155355815.584  
C13  38353835.354   199718534.394    38353834.479   154435225.800  
C27  23404297.273   121873367.887                                  
C29  24119436.914   125596298.510                                  
C30  21564869.622   112293736.199                                  
C32  25839802.923   134554194.053                                  
C33  26682772.349   138943693.857                                  
C36  22909432.790   119295022.878                                  
> 2025 01 06 18 45 30.0000000  0 38                     
G26  21550341.164   113247535.818    21550340.707    88244986.371  
G10  23201365.876   121923746.952    23201365.837    95005968.567  
G27  20832885.444   109477165.333    20832884.811    85307402.971  
G07  24968736.403   131211379.389    24968733.226   102242574.060  
G08  23308737.335   122488469.349    23308738.154    95445333.530  
G23  21577052.295   113387663.599    21577050.163    88354558.194  
G29  25499027.791   133998124.874    25499025.903   104414527.905  
G15  24745672.331   130039802.332    24745670.646   101329167.280  
G31  25772357.825   135435692.629    25772358.191   105533854.672  
G18  21934838.962   115269105.321    21934835.577    89819510.512  
G16  20330835.709   106839812.417                                  
R14  19789627.765   105489317.760    19789628.738    82047144.459  
R22  24195094.519   129155198.554    24195094.639   100454222.344  
R15  22555806.924   120530895.967    22555807.304    93746261.293  
R06  24385709.911   130126366.383                                  
R24  19932328.850   106587062.730    19932327.596    82901697.477  
R13  21582369.234   115249481.867                                  
R07  22696339.325   121494951.722    22696337.118    94496567.351  
R08  23034734.469   123350744.560    23034731.228    95938852.449  
R23  20471283.314   109507543.890                                  
R17  23732531.293   126997246.940    23732532.273    98775791.249  
E02  24885085.857   130771927.627    24885086.784   100202046.413  
E10  24386699.628   128152653.491    24386700.358    98195051.549  
E11  23304289.849   122465186.332    23304286.862    93837233.143  
E12  26313567.285   138278493.409    26313566.146   105954375.826  
E14  22050185.387   115875061.805    22050187.591    88787141.804  
E16  24413735.739   128295695.870    24413735.670    98304657.818  
E24  26699265.613   140305931.603    26699267.057   107506931.256  
E25  23478214.834   123378481.528    23478216.104    94537740.358  
E36  25102712.358   131915642.758    25102714.133   101078784.453  
C08  38582743.170   200910007.330    38582733.886   155356271.820  
C13  38353895.885   199718849.900    38353895.048   154435469.775  
C27  23404696.118   121875444.838                                  
C29  24118926.461   125593639.416                                  
C30  21564819.269   112293474.387                                  
C32  25839192.186   134551013.944                                  
C33  26683021.690   138944992.849                                  
C36  22909701.395   119296421.139                                  
> 2025 01 06 18 45 31.0000000  0 38                     
G26  21550797.299   113249932.534    21550796.752    88246853.918  
G10  23200713.468   121920318.540    23200713.360    95003297.082  
G27  20832495.973   109475118.740    20832495.280    85305808.228  
G07  24968422.145   131209727.930    24968418.975   102241287.217  
G08  23308112.371   122485185.288    23308113.214    95442774.549  
G23  21576766.493   113386161.960    21576764.435    88353388.085  
G29  25499597.444   134001118.313    25499595.462   104416860.439  
G15  24745314.469   130037922.106    24745312.889   101327702.193  
G31  25772963.751   135438769.621    25772962.848   105536252.328  
G18  21935258.290   115271308.891    21935254.821    89821227.583  
G16  20330908.386   106840194.249                                  
R14  19789561.714   105488965.924    19789562.714    82046870.808  
R22  24195735.164   129158618.773    24195735.480   100456882.526  
R15  22555082.615   120527026.028    22555083.078    93743251.348  
R06  24386168.757   130128815.866                                  
R24  19932024.913   106585437.843    19932023.693    82900433.680  
R13  21583085.891   115253308.399                                  
R07  22696250.942   121494478.212    22696248.617    94496199.065  
R08  23034114.632   123347424.901    23034111.179    95936270.492  
R23  20471696.096   109509751.241                                  
R17  23731848.627   126993594.016    23731849.474    98772950.095  
E02  24884682.579   130769807.932    24884683.325   100200422.241  
E10  24386967.691   128154062.294    24386968.442    98196131.019  
E11  23304284.762   122465159.671    23304281.633    93837212.718  
E12  26313996.915   138280752.204    26313996.072   105956106.582  
E14  22051112.890   115879936.217    22051115.140    88790876.739  
E16  24414094.042   128297578.120    24414093.902    98306100.078  
E24  26699772.824   140308597.145    26699774.363   107508973.694  
E25  23478337.817   123379128.229    23478339.123    94538235.882  
E36  25102249.970   131913212.905    25102251.596   101076922.625  
C08  38582856.509   200910597.323    38582847.183   155356728.033  
C13  38353956.417   199719165.397    38353955.574   154435713.737  
C27  23405094.952   121877521.784                                  
C29  24118415.769   125590980.315                                  
C30  21564769.135   112293212.713                                  
C32  25838581.482   134547833.791                                  
C33  26683271.106   138946292.184                                  
C36  22909969.903   119297819.719                                  
> 2025 01 06 18 45 32.0000000  0 38                     
G26  21551253.461   113252329.954    21551253.004    88248722.048  
G10  23200061.101   121916890.664    23200061.079    95000626.009  
G27  20832106.619   109473072.774    20832105.967    85304213.966  
G07  24968108.037   131208077.272    24968104.939   102240000.973  
G08  23307487.560   122481901.628    23307488.344    95440215.847  
G23  21576480.934   113384661.216    21576478.929    88352218.676  
G29  25500167.146   134004111.978    25500165.112   104419193.206  
G15  24744956.732   130036042.654    24744955.172   101326237.695  
G31  25773569.576   135441846.614    25773568.745   105538649.984  
G18  21935677.838   115273513.049    21935674.290    89822945.112  
G16  20330981.184   106840577.003                                  
R14  19789495.864   105488615.268    19789496.951    82046598.081  
R22  24196375.998   129162039.217    24196376.189   100459542.863  
R15  22554358.549   120523156.818    22554359.039    93740241.965  
R06  24386627.929   130131266.165                                  
R24  19931721.256   106583813.735    19931719.910    82899170.492  
R13  21583802.624   115257135.604                                  
R07  22696162.793   121494005.860    22696160.400    94495831.692  
R08  23033494.894   123344105.962    23033491.244    95933689.099  
R23  20472108.822   109511959.175                                  
R17  23731166.074   126989941.525    23731166.846    98770109.289  
E02  24884279.304   130767688.804    24884280.041   100198798.494  
E10  24387235.600   128155471.620    24387236.604    98197210.904  
E11  23304279.778   122465133.655    23304276.637    93837192.782  
E12  26314426.761   138283011.381    26314425.962   105957837.644  
E14  22052040.706   115884811.541    22052042.857    88794612.390  
E16  24414452.326   128299460.981    24414452.205    98307542.782  
E24  26700280.223   140311263.153    26700281.725   107511016.468  
E25  23478460.963   123379775.630    23478462.296    94538731.944  
E36  25101787.570   131910783.594    25101789.317   101075061.198  
C08  38582969.857   200911187.722    38582960.528   155357184.569  
C13  38354017.172   199719481.292    38354016.296   154435958.007  
C27  23405493.916   121879599.142                                  
C29  24117905.228   125588321.642                                  
C30  21564719.107   112292951.627                                  
C32  25837970.793   134544654.038                                  
C33  26683520.755   138947592.277                                  
C36  22910238.611   119299219.055                                  
> 2025 01 06 18 45 33.0000000  0 38                     
G26  21551709.773   113254727.862    21551709.284    88250590.551  
G10  23199408.879   121913463.092    23199408.922    94997955.179  
G27  20831717.310   109471027.229    20831716.637    85302620.034  
G07  24967794.065   131206427.194    24967790.901   102238715.207  
G08  23306862.758   122478618.168    23306863.501    95437657.314  
G23  21576195.619   113383161.163    21576193.421    88351049.797  
G29  25500736.797   134007105.829    25500734.820   104421526.070  
G15  24744599.159   130034163.794    24744597.587   101324773.645  
G31  25774175.299   135444546.279    25774175.015   105541047.640  
G18  21936097.367   115275717.603    21936093.826    89824662.947  
G16  20331054.151   106840960.464                                  
R14  19789430.240   105488265.598    19789431.400    82046326.120  
R22  24197016.712   129165459.667    24197017.044   100462203.219  
R15  22553634.495   120519288.127    22553635.050    93737232.981  
R06  24387087.293   130133717.166                                  
R24  19931417.656   106582190.156    19931416.231    82897907.700  
R13  21584519.488   115260963.264                                  
R07  22696074.725   121493534.482    22696072.449    94495465.065  
R08  23032875.130   123340787.558    23032871.570    95931108.126  
R23  20472521.680   109514167.471                                  
R17  23730483.621   126986289.221    23730484.345    98767268.617  
E02  24883876.099   130765570.034    24883876.883   100197175.024  
E10  24387503.865   128156881.298    24387504.830    98198291.037  
E11  23304274.796   122465108.054    23304271.757    93837173.168  
E12  26314856.823   138285270.764    26314855.894   105959568.856  
E14  22052968.480   115889687.566    22052970.712    88798348.555  
E16  24414810.677   128301344.233    24414810.572    98308985.794  
E24  26700787.440   140313929.343    26700789.062   107513059.409  
E25  23478584.142   123380423.507    23478585.605    94539228.368  
E36  25101325.445   131908354.614    25101327.142   101073200.034  
C08  38583083.330   200911778.358    38583073.945   155357641.287  
C13  38354077.889   199719797.440    38354077.086   154436202.469  
C27  23405892.882   121881676.717                                  
C29  24117394.714   125585663.188                                  
C30  21564669.077   112292690.909                                  
C32  25837360.294   134541474.506                                  
C33  26683770.509   138948892.913                                  
C36  22910507.368   119300618.943                                  
> 2025 01 06 18 45 34.0000000  0 38                     
G26  21552166.133   113257126.217    21552165.702    88252459.392  
G10  23198756.809   121910035.805    23198756.782    94995284.555  
G27  20831328.106   109468982.055    20831327.345    85301026.386  
G07  24967480.188   131204777.618    24967477.022   102237429.824  
G08  23306237.997   122475334.836    23306238.663    95435098.877  
G23  21575910.265   113381661.751    21575908.158    88349881.434  
G29  25501306.436   134010099.680    25501304.534   104423858.952  
G15  24744241.797   130032285.425    24744240.088   101323309.987  
G31  25774781.114   135447729.630    25774781.252   105543445.297  
G18  21936516.943   115277922.493    21936513.443    89826381.050  
G16  20331127.144   106841344.580                                  
R14  19789364.788   105487916.864    19789365.971    82046054.879  
R22  24197657.516   129168880.101    24197657.870   100464863.551  
R15  22552910.705   120515419.882    22552911.059    93734224.327  
R06  24387546.796   130136168.845                                  
R24  19931114.164   106580567.010    19931112.689    82896645.254  
R13  21585236.325   115264791.331                                  
R07  22695986.858   121493063.992    22695984.627    94495099.122  
R08  23032255.525   123337469.684    23032251.880    95928527.535  
R23  20472934.559   109516376.082                                  
R17  23729801.087   126982637.112    23729801.973    98764428.100  
E02  24883473.171   130763451.575    24883473.810   100195551.782  
E10  24387772.306   128158291.236    24387773.181    98199371.380  
E11  23304270.047   122465082.831    23304267.051    93837153.841  
E12  26315286.814   138287530.305    26315285.694   105961300.191  
E14  22053896.717   115894564.164    22053898.747    88802085.170  
E16  24415169.288   128303227.804    24415169.047    98310429.058  
E24  26701294.779   140316595.781    26701296.465   107515102.504  
E25  23478707.586   123381071.801    23478709.041    94539725.116  
E36  25100863.379   131905925.905    25100864.898   101071339.077  
C08  38583196.885   200912369.128    38583187.370   155358098.107  
C13  38354138.677   199720113.745    38354137.839   154436447.058  
C27  23406291.878   121883754.439                                  
C29  24116884.100   125583004.903                                  
C30  21564619.053   112292430.510                                  
C32  25836749.748   134538295.116                                  
C33  26684020.414   138950194.068                                  
C36  22910776.319   119302019.321                                  
> 2025 01 06 18 45 35.0000000  0 38                     
G26  21552622.551   113259524.913    21552622.252    88254328.507  
G10  23198104.761   121906608.669    23198104.577    94992614.068  
G27  20830939.060   109466937.146    20830938.158    85299432.953  
G07  24967166.341   131203128.462    24967163.258   102236144.767  
G08  23305613.212   122472051.552    23305613.812    95432540.475  
G23  21575624.980   113380162.862    21575622.736    88348713.463  
G29  25501876.048   134013093.531    25501874.162   104426191.806  
G15  24743884.425   130030407.483    24743882.758   101321846.644  
G31  25775387.144   135450912.761    25775386.659   105545842.953  
G18  21936936.478   115280127.619    21936933.051    89828099.322  
G16  20331200.344   106841729.249                                  
R14  19789299.538   105487568.969    19789300.706    82045784.293  
R22  24198298.254   129172300.363    24198298.694   100467523.746  
R15  22552186.837   120511551.992    22552187.190    93731215.989  
R06  24388006.544   130138620.972                                  
R24  19930810.642   106578944.239    19930809.308    82895383.098  
R13  21585953.253   115268619.707                                  
R07  22695899.119   121492594.263    22695896.827    94494733.781  
R08  23031636.004   123334152.196    23031632.388    95925947.295  
R23  20473347.510   109518584.897                                  
R17  23729118.664   126978985.070    23729119.475    98761587.633  
E02  24883070.066   130761333.307    24883070.744   100193928.693  
E10  24388040.937   128159701.362    24388041.628    98200451.865  
E11  23304265.304   122465057.894    23304262.274    93837134.741  
E12  26315716.837   138289789.869    26315715.852   105963031.543  
E14  22054824.807   115899441.226    22054826.821    88805822.143  
E16  24415527.794   128305111.629    24415527.508    98311872.503  
E24  26701802.410   140319262.266    26701803.815   107517145.665  
E25  23478830.963   123381720.426    23478832.535    94540222.115  
E36  25100401.227   131903497.371    25100402.770   101069478.251  
C08  38583310.321   200912959.991    38583300.824   155358554.999  
C13  38354199.530   199720430.121    38354198.611   154436691.695  
C27  23406690.854   121885832.228                                  
C29  24116373.638   125580346.693                                  
C30  21564569.154   112292170.335                                  
C32  25836139.283   134535115.776                                  
C33  26684270.562   138951495.615                                  
C36  22911045.261   119303420.109                                  
> 2025 01 06 18 45 36.0000000  0 38                     
G26  21553079.072   113261924.056    21553078.858    88256197.978  
G10  23197452.699   121903181.802    23197452.488    94989943.798  
G27  20830549.904   109464892.598    20830548.988    85297839.798  
G07  24966852.607   131201479.820    24966849.609   102234860.112  
G08  23304988.399   122468768.409    23304989.033    95429982.164  
G23  21575339.853   113378664.611    21575337.613    88347546.000  
G29  25502445.684   134016087.408    25502443.826   104428524.687  
G15  24743527.140   130028530.070    24743525.428   101320383.723  
G31  25775992.936   135454095.811    25775992.871   105548240.609  
G18  21937356.088   115282333.078    21937352.730    89829817.860  
G16  20331273.542   106842114.567                                  
R14  19789234.376   105487221.983    19789235.621    82045514.417  
R22  24198938.988   129175720.554    24198939.452   100470183.902  
R15  22551463.116   120507684.587    22551463.359    93728208.004  
R06  24388466.365   130141073.697                                  
R24  19930507.342   106577321.967    19930506.064    82894121.335  
R13  21586670.260   115272448.478                                  
R07  22695811.606   121492125.383    22695809.318    94494369.097  
R08  23031016.453   123330835.169    23031012.825    95923367.373  
R23  20473760.554   109520794.022                                  
R17  23728436.239   126975333.183    23728436.953    98758747.286  
E02  24882666.875   130759215.335    24882667.640   100192305.835  
E10  24388309.210   128161111.751    24388309.867    98201532.555  
E11  23304260.580   122465033.337    23304257.511    93837115.916  
E12  26316146.678   138292049.577    26316145.815   105964763.017  
E14  22055752.907   115904318.821    22055754.985    88809559.512  
E16  24415886.140   128306995.779    24415886.028    98313316.199  
E24  26702309.724   140321928.944    26702311.244   107519188.954  
E25  23478954.434   123382369.474    23478955.958    94540719.436  
E36  25099939.116   131901069.118    25099940.712   101067617.639  
C08  38583423.757   200913551.002    38583414.330   155359011.998  
C13  38354260.403   199720746.660    38354259.370   154436936.477  
C27  23407089.912   121887910.177                                  
C29  24115863.121   125577688.646                                  
C30  21564519.290   112291910.474                                  
C32  25835528.725   134531936.569                                  
C33  26684520.586   138952797.660                                  
C36  22911314.439   119304821.389                                  
> 2025 01 06 18 45 37.0000000  0 38                     
G26  21553535.676   113264323.596    21553535.483    88258067.745  
G10  23196800.620   121899755.157    23196800.470    94987273.679  
G27  20830160.902   109462848.356    20830160.012    85296246.882  
G07  24966538.915   131199831.640    24966535.958   102233575.801  
G08  23304363.755   122465485.330    23304364.219    95427423.928  
G23  21575054.827   113377166.944    21575052.580    88346378.981  
G29  25503015.356   134019081.312    25503013.421   104430857.548  
G15  24743169.973   130026653.100    24743168.175   101318921.173  
G31  25776598.649   135457278.524    25776599.068   105550638.265  
G18  21937775.828   115284538.823    21937772.519    89831536.628  
G16  20331347.056   106842500.476                                  
R14  19789169.344   105486875.868    19789170.669    82045245.210  
R22  24199579.755   129179140.667    24199580.179   100472843.992  
R15  22550739.617   120503817.596    22550739.764    93725200.343  
R06  24388926.259   130143527.070                                  
R24  19930204.077   106575700.155    19930202.788    82892859.925  
R13  21587387.233   115276277.629                                  
R07  22695724.200   121491657.292    22695721.926    94494005.031  
R08  23030396.989   123327518.565    23030393.509    95920787.783  
R23  20474173.533   109523003.413                                  
R17  23727753.808   126971681.406    23727754.555    98755907.042  
E02  24882263.780   130757097.598    24882264.644   100190683.162  
E10  24388577.705   128162522.352    24388578.327    98202613.410  
E11  23304255.869   122465009.076    23304252.926    93837097.327  
E12  26316576.762   138294309.366    26316575.908   105966494.531  
E14  22056681.286   115909197.000    22056683.350    88813297.337  
E16  24416244.837   128308880.195    24416244.684    98314760.103  
E24  26702817.088   140324595.729    26702818.760   107521232.328  
E25  23479078.122   123383018.875    23479079.528    94541217.028  
E36  25099477.104   131898641.063    25099478.725   101065757.184  
C08  38583537.263   200914142.108    38583527.889   155359469.086  
C13  38354321.212   199721063.314    38354320.178   154437181.326  
C27  23407488.957   121889988.224                                  
C29  24115352.746   125575030.696                                  
C30  21564469.319   112291650.887                                  
C32  25834918.268   134528757.461                                  
C33  26684770.955   138954100.145                                  
C36  22911583.501   119306223.104                                  
> 2025 01 06 18 45 38.0000000  0 38                     
G26  21553992.406   113266723.566    21553992.092    88259937.846  
G10  23196148.675   121896328.776    23196148.454    94984603.767  
G27  20829771.993   109460804.474    20829771.035    85294654.250  
G07  24966225.412   131198183.960    24966222.412   102232291.934  
G08  23303739.036   122462202.384    23303739.431    95424865.801  
G23  21574769.930   113375669.910    21574767.671    88345212.468  
G29  25503584.970   134022075.223    25503583.135   104433190.488  
G15  24742812.882   130024776.631    24742811.165   101317459.004  
G31  25777204.240   135460461.239    25777204.458   105553035.922  
G18  21938195.665   115286744.902    21938192.393    89833255.650  
G16  20331420.671   106842887.050                                  
R14  19789104.525   105486530.687    19789105.949    82044976.738  
R22  24200220.445   129182560.706    24200220.880   100475504.037  
R15  22550016.153   120499951.066    22550016.127    93722193.037  
R06  24389386.307   130145981.023                                  
R24  19929900.933   106574078.821    19929899.622    82891598.880  
R13  21588104.351   115280107.192                                  
R07  22695636.931   121491190.060    22695634.686    94493641.633  
R08  23029777.760   123324202.420    23029774.174    95918208.569  
R23  20474586.631   109525213.114                                  
R17  23727071.389   126968029.823    23727072.180    98753066.917  
E02  24881860.898   130754980.167    24881861.804   100189060.713  
E10  24388846.169   128163933.245    24388846.804    98203694.480  
E11  23304251.405   122464985.202    23304248.406    93837079.030  
E12  26317006.720   138296569.297    26317005.936   105968226.166  
E14  22057609.801   115914075.783    22057611.682    88817035.606  
E16  24416603.570   128310764.957    24416603.233    98316204.270  
E24  26703324.559   140327262.693    26703326.304   107523275.848  
E25  23479201.647   123383668.719    23479203.223    94541714.958  
E36  25099015.063   131896213.298    25099016.698   101063896.954  
C08  38583650.916   200914733.346    38583641.484   155359926.283  
C13  38354381.990   199721380.110    38354381.034   154437426.297  
C27  23407888.113   121892066.424                                  
C29  24114842.178   125572372.924                                  
C30  21564419.566   112291391.620                                  
C32  25834307.756   134525578.498                                  
C33  26685021.165   138955403.146                                  
C36  22911852.811   119307625.327                                  
> 2025 01 06 18 45 39.0000000  0 38                     
G26  21554449.055   113269124.117    21554448.874    88261808.413  
G10  23195496.762   121892902.788    23195496.533    94981934.163  
G27  20829383.155   109458761.102    20829382.212    85293062.021  
G07  24965911.985   131196536.950    24965909.031   102231008.542  
G08  23303114.423   122458919.700    23303114.866    95422307.873  
G23  21574485.173   113374173.636    21574483.004    88344046.535  
G29  25504154.730   134025069.340    25504152.896   104435523.585  
G15  24742455.933   130022900.845    24742454.212   101315997.339  
G31  25777810.101   135463643.875    25777809.698   105555433.578  
G18  21938615.632   115288951.449    21938612.111    89834975.040  
G16  20331494.379   106843274.404                                  
R14  19789039.927   105486186.581    19789041.323    82044709.099  
R22  24200861.097   129185980.838    24200861.669   100478164.138  
R15  22549292.693   120496085.108    22549292.540    93719186.185  
R06  24389846.548   130148435.693                                  
R24  19929597.866   106572458.097    19929596.471    82890338.328  
R13  21588821.586   115283937.317                                  
R07  22695549.828   121490723.815    22695547.583    94493279.003  
R08  23029158.629   123320886.897    23029155.006    95915629.831  
R23  20474999.863   109527423.273                                  
R17  23726389.079   126964378.529    23726389.791    98750227.037  
E02  24881458.049   130752863.168    24881458.960   100187438.595  
E10  24389114.538   128165344.529    24389115.406    98204775.858  
E11  23304247.074   122464961.852    23304243.837    93837061.137  
E12  26317436.811   138298829.504    26317436.006   105969958.016  
E14  22058538.449   115918955.241    22058540.290    88820774.414  
E16  24416962.193   128312650.174    24416962.026    98317648.795  
E24  26703831.957   140329929.963    26703833.728   107525319.604  
E25  23479325.482   123384319.112    23479326.968    94542213.319  
E36  25098553.060   131893785.931    25098554.747   101062037.030  
C08  38583764.594   200915324.905    38583755.042   155360383.705  
C13  38354442.807   199721697.203    38354441.934   154437671.494  
C27  23408287.296   121894144.916                                  
C29  24114331.881   125569715.457                                  
C30  21564369.841   112291132.798                                  
C32  25833697.303   134522399.823                                  
C33  26685271.685   138956706.767                                  
C36  22912122.202   119309028.178                                  
