     3.02           OBSERVATION DATA    GAL                 RINEX VERSION / TYPE
G = GPS  R = GLONASS  E = GALILEO  S = GEO  M = MIXED       COMMENT
GALILEO OBSERVATION DATA FILE GENERATED BY GNSS-SDR         COMMENT
GNSS-SDR VERSION 0.0.19.git-main-87fcfd237                  COMMENT
See https://gnss-sdr.org                                    COMMENT
GNSS-SDR            jmfriedt            20250108 183134 UTC PGM / RUN BY / DATE
jmfriedt            CTTC                                    OBSERVER /AGENCY
DEFAULT MARKER NAME                                         MARKER NAME
        0.0000        0.0000        0.0000                  APPROX POSITION XYZ
Antenna number      Antenna type                            ANT # / TYPE
        0.0000        0.0000        0.0000                  ANTENNA: DELTA H/E/N
GNSS-SDR            Software Receiver   0.0.19.gi           REC # / TYPE / VERS
    18    18   137     7                                    LEAP SECONDS
  2025    01    08    17    42   17.16000000     GAL        TIME OF FIRST OBS
E    4 C1B L1B D1B S1B                                      SYS / # / OBS TYPES
                                                            END OF HEADER
> 2025 01 08 17 42  7.0000000  0  4
E21        -5.290       33197.512          -0.200           0.526  
E27        -3.145         -90.513           0.058          -0.120  
E30        -3.341      -43082.480           0.061           0.366  
E34        -5.254        -111.515          -1.775           0.584
> 2025 01 08 17 42  8.0000000  0  4
E21        -4.217       33197.520          -0.129           0.316  
E27        -4.271         -90.529          -0.127           0.011  
E30        -5.450      -43082.474           0.395           0.706  
E34        -6.915        -111.527           0.260           0.381
> 2025 01 08 17 42  9.0000000  0  4
E21        -4.056       33197.529           0.108           0.420  
E27        -6.218         -90.526          -0.738          -0.008  
E30        -5.557      -43082.471           0.308           0.353  
E34        -6.004        -111.522          -2.179           0.460
> 2025 01 08 17 42 10.0000000  0  4
E21        -4.593       33197.520           0.234           0.339  
E27        -5.075         -90.522           0.953           0.132  
E30        -2.144      -43082.486          -0.023           0.436  
E34        -4.056        -111.517          -0.178           0.418
> 2025 01 08 17 42 11.0000000  0  4
E21        -7.040       33197.538           0.746           0.363  
E27        -5.253         -90.532           0.457           0.085  
E30        -6.039      -43082.467           0.492           0.609  
E34        -5.950        -111.545           1.105           0.432
> 2025 01 08 17 42 12.0000000  0  4
E21        -4.610       33197.532          -0.418           0.448  
E27        -4.950         -90.531          -0.486           0.233  
E30        -5.004      -43082.473          -0.984           0.410  
E34        -4.467        -111.531           0.395           0.228
> 2025 01 08 17 42 13.0000000  0  4
E21        -5.539       33197.531          -1.006           0.075  
E27        -4.396         -90.530          -0.749          -0.051  
E30        -4.646      -43082.471          -0.974           0.229  
E34        -4.432        -111.531           0.615          -0.042
> 2025 01 08 17 42 14.0000000  0  4
E21        -3.663       33197.523           1.202           0.031  
E27        -5.539         -90.526          -0.102           0.081  
E30        -5.378      -43082.475           0.891           0.644  
E34        -5.022        -111.522          -0.820           0.102
> 2025 01 08 17 42 15.0000000  0  4
E21        -2.412       33197.530          -0.203          -0.159  
E27        -5.539         -90.525           0.229           0.165  
E30        -4.414      -43082.470           1.207           0.474  
E34       -10.936        -111.535          -0.183           0.261
> 2025 01 08 17 42 16.0000000  0  4
E21        -3.949       33197.514           0.188          -0.015  
E27        -3.252         -90.522           0.135           0.292  
E30        -2.377      -43082.487          -0.580           0.210  
E34        -3.914        -111.516          -0.698           0.133
> 2025 01 08 17 42 17.0000000  0  4
E21        -3.771       33197.519           0.336           0.117  
E27        -4.771         -90.517          -0.217           0.386  
E30        -5.665      -43082.481           0.253           0.261  
E34        -4.646        -111.518          -1.327           0.325
> 2025 01 08 17 42 18.0000000  0  4
E21        -5.539       33197.517           1.172           0.529  
E27        -5.486         -90.519          -0.671           0.145  
E30        -3.949      -43082.480           1.499           0.446  
E34        -4.896        -111.531          -0.108           0.284
> 2025 01 08 17 42 19.0000000  0  4
E21        -3.949       33197.516          -1.217           0.429  
E27        -5.147         -90.519           0.021           0.299  
E30        -3.252      -43082.494          -0.577           0.597  
E34        -3.788        -111.519           0.897           0.206
> 2025 01 08 17 42 20.0000000  0  4
E21        -4.306       33197.515          -0.095           0.466  
E27        -3.627         -90.521           0.150           0.238  
E30        -3.878      -43082.478           0.808           0.641  
E34        -5.325        -111.511           1.438           0.071
> 2025 01 08 17 42 21.0000000  0  4
E21        -3.913       33197.511          -1.420           0.283  
E27        -4.824         -90.514           0.039           0.342  
E30        -5.861      -43082.479          -0.578           0.505  
E34        -4.646        -111.517          -0.209           0.145
> 2025 01 08 17 42 22.0000000  0  4
E21        -4.289       33197.513           0.629           0.292  
E27        -6.272         -90.512          -0.062           0.244  
E30        -5.807      -43082.483          -0.227           0.374  
E34        -5.700        -111.512          -1.275           0.338
> 2025 01 08 17 42 23.0000000  0  4
E21        -6.987       33197.533          -1.660           0.343  
E27        -5.665         -90.531          -0.152           0.114  
E30        -7.326      -43082.472           0.587           0.206  
E34        -5.021        -111.532          -1.159           0.418
> 2025 01 08 17 42 24.0000000  0  4
E21        -7.362       33197.535           0.960           0.314  
E27        -4.931         -90.530          -0.431           0.163  
E30        -4.449      -43082.474          -0.052           0.287  
E34        -5.128        -111.525          -0.726           0.451
> 2025 01 08 17 42 25.0000000  0  4
E21        -5.307       33197.528           0.155           0.564  
E27        -5.843         -90.526           0.047           0.235  
E30        -7.166      -43082.475           0.474           0.129  
E34        -5.182        -111.535           0.267           0.076
> 2025 01 08 17 42 26.0000000  0  4
E21        -3.520       33197.521          -0.947           0.496  
E27        -4.628         -90.520           0.130           0.386  
E30        -4.378      -43082.482          -0.616           0.046  
E34        -3.807        -111.523           0.343          -0.053
> 2025 01 08 17 42 27.0000000  0  4
E21        -3.163       33197.507           0.698           0.459  
E27        -4.431         -90.510          -0.363           0.348  
E30        -2.448      -43082.498          -0.016           0.235  
E34        -6.111        -111.515           0.254           0.102
> 2025 01 08 17 42 28.0000000  0  4
E21        -4.664       33197.514           0.363           0.282  
E27        -4.574         -90.519          -0.238           0.257  
E30        -4.699      -43082.485           0.362           0.478  
E34        -5.271        -111.518          -0.148           0.434
> 2025 01 08 17 42 29.0000000  0  4
E21        -2.895       33197.518           0.469           0.482  
E27        -4.056         -90.520           0.032           0.095  
E30        -3.038      -43082.484          -0.276           0.453  
E34        -6.397        -111.519           0.670           0.272
> 2025 01 08 17 42 30.0000000  0  4
E21        -5.468       33197.506           0.028           0.354  
E27        -6.290         -90.517           0.193           0.097  
E30        -4.056      -43082.486           1.348           0.177  
E34        -3.949        -111.514           0.235           0.086
> 2025 01 08 17 42 31.0000000  0  4
E21        -4.628       33197.512           1.004           0.208  
E27        -5.718         -90.507          -0.446           0.276  
E30        -3.931      -43082.498           0.421           0.304  
E34        -2.948        -111.504          -0.239           0.210
> 2025 01 08 17 42 32.0000000  0  4
E21        -4.646       33197.528          -0.982           0.277  
E27        -6.451         -90.525          -0.208           0.389  
E30        -3.931      -43082.487           0.201           0.565  
E34        -3.770        -111.520          -0.828           0.106
> 2025 01 08 17 42 33.0000000  0  4
E21        -3.913       33197.522          -1.010           0.193  
E27        -5.075         -90.520          -0.079           0.581  
E30        -4.949      -43082.481           0.134           0.533  
E34        -7.040        -111.519          -0.388           0.171
> 2025 01 08 17 42 34.0000000  0  4
E21        -3.449       33197.517           0.146           0.471  
E27        -5.343         -90.518          -0.368           0.341  
E30        -7.076      -43082.473           0.029           0.473  
E34        -5.969        -111.516           0.726          -0.070
> 2025 01 08 17 42 35.0000000  0  4
E21        -4.467       33197.529           0.322           0.286  
E27        -6.147         -90.529          -0.650           0.246  
E30        -6.933      -43082.477           1.069           0.572  
E34        -4.057        -111.522           0.525           0.146
> 2025 01 08 17 42 36.0000000  0  5
E13        -7.862        -900.477        4988.293           0.431  
E21        -3.645       33197.533          -0.675           0.556  
E27        -5.664         -90.524           0.623           0.407  
E30        -5.790      -43082.467           0.348           0.537  
E34        -7.165        -111.528          -0.403           0.062
> 2025 01 08 17 42 37.0000000  0  5
E13        -6.433       -5881.807        4979.297           0.450  
E21        -5.789       33197.515           0.598           0.704  
E27        -5.253         -90.522           0.329           0.347  
E30        -1.572      -43082.487          -1.240           0.397  
E34        -7.613        -111.524           1.460           0.123
> 2025 01 08 17 42 38.0000000  0  5
E13        -8.881      -10862.831        4981.504           0.445  
E21        -4.736       33197.503           0.038           0.598  
E27        -4.807         -90.515           0.264           0.219  
E30        -5.539      -43082.480           0.157           0.384  
E34        -4.574        -111.518          -0.021           0.142
> 2025 01 08 17 42 39.0000000  0  5
E13        -3.502      -15843.442        4982.301           0.436  
E21        -4.056       33197.517          -0.314           0.568  
E27        -3.627         -90.517           0.236           0.298  
E30        -4.414      -43082.478          -0.163           0.382  
E34        -5.754        -111.523          -0.740           0.019
> 2025 01 08 17 42 40.0000000  0  5
E13        -5.343      -20823.283        4981.831           0.544  
E21        -4.325       33197.505          -0.323           0.712  
E27        -4.253         -90.513           0.998           0.510  
E30        -4.932      -43082.487          -0.024           0.362  
E34        -5.558        -111.514           0.174           0.114
> 2025 01 08 17 42 41.0000000  0  5
E13        -4.288      -25802.752        4984.613           0.498  
E21        -4.753       33197.518           0.661           0.622  
E27        -5.182         -90.518          -1.051           0.180  
E30        -4.395      -43082.478          -0.461           0.574  
E34        -4.467        -111.522          -0.260           0.199
> 2025 01 08 17 42 42.0000000  0  5
E13        -6.861      -30781.792        4981.955           0.303  
E21        -4.736       33197.522           0.616           0.916  
E27        -2.931         -90.515           0.619           0.344  
E30        -3.770      -43082.473          -1.238           0.694  
E34        -4.289        -111.513          -0.906           0.511
> 2025 01 08 17 42 43.0000000  0  5
E13        -4.825      -35760.321        4977.811           0.330  
E21        -1.930       33197.526          -1.104           0.540  
E27        -5.593         -90.528           0.172           0.152  
E30        -5.861      -43082.477           0.383           0.405  
E34        -4.074        -111.527           0.043           0.251
> 2025 01 08 17 42 44.0000000  0  5
E13        -3.824      -40738.072        4980.796           0.567  
E21        -3.789       33197.518           1.293           0.575  
E27        -4.557         -90.515          -0.344           0.005  
E30        -3.360      -43082.483          -0.634           0.335  
E34        -6.111        -111.515           0.286           0.245
> 2025 01 08 17 42 45.0000000  0  5
E13        -2.966      -45714.478        4974.423           0.738  
E21        -3.609       33197.526          -0.097           0.806  
E27        -5.289         -90.518          -0.306           0.060  
E30        -2.824      -43082.482           0.625           0.179  
E34        -2.662        -111.505          -0.171           0.288
> 2025 01 08 17 42 46.0000000  0  5
E13        -2.251      -50690.551        4974.035           0.383  
E21        -3.967       33197.522           0.296           0.563  
E27        -4.432         -90.524           0.213           0.254  
E30        -2.895      -43082.478           0.648           0.233  
E34        -6.629        -111.515           0.537           0.153
> 2025 01 08 17 42 47.0000000  0  5
E13        -2.609      -55666.572        4979.106           0.293  
E21        -2.520       33197.530          -1.024           0.273  
E27        -6.308         -90.533          -0.015           0.187  
E30        -6.237      -43082.469           0.010           0.243  
E34        -6.558        -111.534          -0.817           0.000
> 2025 01 08 17 42 48.0000000  0  5
E13        -3.538      -60641.992        4977.115           0.491  
E21        -2.805       33197.513          -0.600           0.267  
E27        -4.825         -90.511          -1.353           0.041  
E30        -4.253      -43082.488           0.895          -0.107  
E34        -5.093        -111.518           0.005          -0.099
> 2025 01 08 17 42 49.0000000  0  5
E13        -4.217      -65617.326        4977.730           0.436  
E21        -3.896       33197.517          -0.710           0.469  
E27        -3.431         -90.517          -0.463           0.275  
E30        -3.717      -43082.480          -0.026           0.112  
E34        -3.485        -111.523           0.559          -0.257
> 2025 01 08 17 42 50.0000000  0  5
E13        -3.842      -70593.040        4975.939           0.280  
E21        -4.771       33197.530           1.927           0.365  
E27        -4.449         -90.526           0.293           0.210  
E30        -5.611      -43082.472          -0.639           0.214  
E34        -6.164        -111.531          -0.812          -0.206
> 2025 01 08 17 42 51.0000000  0  5
E13        -5.128      -75569.037        4973.905           0.378  
E21        -5.021       33197.523           0.587           0.228  
E27        -4.592         -90.526          -0.507           0.403  
E30        -2.537      -43082.477          -0.171           0.334  
E34        -5.486        -111.531           0.888          -0.128
> 2025 01 08 17 42 52.0000000  0  5
E13        -7.558      -80544.650        4977.370           0.384  
E21        -6.844       33197.543          -0.963           0.477  
E27        -6.129         -90.528          -0.233           0.508  
E30        -5.093      -43082.477           0.201           0.517  
E34        -6.254        -111.528           1.105           0.248
> 2025 01 08 17 42 53.0000000  0  5
E13        -6.791      -85518.876        4978.936           0.320  
E21        -6.969       33197.533           1.391           0.364  
E27        -5.826         -90.528          -0.606           0.493  
E30        -5.450      -43082.469           0.860           0.587  
E34        -4.485        -111.534           1.799           0.253
> 2025 01 08 17 42 54.0000000  0  5
E13        -6.272      -90491.714        4968.003           0.391  
E21        -4.789       33197.530          -0.416           0.566  
E27        -5.701         -90.537          -0.233           0.540  
E30        -5.057      -43082.469           0.125           0.550  
E34        -6.683        -111.529           0.175           0.375
> 2025 01 08 17 42 55.0000000  0  5
E13        -3.110      -95464.014        4972.244           0.413  
E21        -4.735       33197.523          -0.658           0.680  
E27        -4.539         -90.534          -0.135           0.586  
E30        -5.164      -43082.467           0.359           0.539  
E34        -5.789        -111.530           0.807           0.292
> 2025 01 08 17 42 56.0000000  0  5
E13        -4.163     -100436.379        4975.253           0.578  
E21        -8.685       33197.519           0.093           0.510  
E27        -5.503         -90.516          -0.172           0.364  
E30        -7.112      -43082.473          -0.399           0.692  
E34        -3.019        -111.516          -0.895           0.459
> 2025 01 08 17 42 57.0000000  0  5
E13        -6.665     -105408.323        4971.537           0.620  
E21        -4.021       33197.511           0.096           0.610  
E27        -3.431         -90.512          -0.196           0.399  
E30        -2.627      -43082.490          -0.705           0.211  
E34        -2.788        -111.525           0.916           0.401
> 2025 01 08 17 42 58.0000000  0  5
E13        -0.268     -110379.304        4971.720           0.819  
E21        -3.253       33197.528          -0.396           0.319  
E27        -4.682         -90.526           0.778           0.200  
E30        -5.396      -43082.470          -0.215           0.420  
E34        -3.913        -111.523           0.127           0.336
> 2025 01 08 17 42 59.0000000  0  5
E13        -5.235     -115350.179        4970.556           0.415  
E21        -4.985       33197.531          -0.795           0.364  
E27        -5.075         -90.532          -0.212           0.342  
E30        -3.985      -43082.466           0.207           0.438  
E34        -6.879        -111.531           1.387           0.435
> 2025 01 08 17 43  0.0000000  0  5
E13        -6.594     -120320.704        4971.899           0.318  
E21        -7.541       33197.519           1.981           0.203  
E27        -5.754         -90.528           0.222           0.596  
E30        -4.128      -43082.477           1.774           0.257  
E34        -6.736        -111.530           1.382           0.529
> 2025 01 08 17 43  1.0000000  0  5
E13        -8.917     -125290.330        4968.688           0.202  
E21        -6.683       33197.538           0.410           0.314  
E27        -5.236         -90.530          -0.015           0.560  
E30        -7.683      -43082.469           0.155           0.292  
E34        -6.826        -111.533           1.732           0.293
> 2025 01 08 17 43  2.0000000  0  5
E13        -5.557     -130259.678        4973.736           0.641  
E21        -4.753       33197.524          -0.379           0.357  
E27        -4.700         -90.517          -0.069           0.263  
E30        -3.842      -43082.476          -1.691           0.409  
E34        -4.932        -111.522           1.565           0.302
> 2025 01 08 17 43  3.0000000  0  5
E13        -5.521     -135229.445        4966.717           0.317  
E21        -3.270       33197.512           1.156           0.366  
E27        -4.003         -90.512          -0.034           0.209  
E30        -5.951      -43082.490          -0.314           0.452  
E34        -6.576        -111.505          -0.449           0.273
> 2025 01 08 17 43  4.0000000  0  5
E13        -5.307     -140198.880        4972.113           0.300  
E21        -4.146       33197.520          -0.392           0.535  
E27        -4.056         -90.520          -0.136           0.350  
E30        -2.949      -43082.487           0.409           0.667  
E34        -2.681        -111.510           0.065           0.085
> 2025 01 08 17 43  5.0000000  0  5
E13        -4.861     -145167.988        4967.753           0.306  
E21        -4.699       33197.501           1.865           0.475  
E27        -3.859         -90.519           0.354           0.484  
E30        -4.646      -43082.491           0.842           0.636  
E34        -5.039        -111.508          -0.208           0.187
> 2025 01 08 17 43  6.0000000  0  5
E13        -2.251     -150138.713        4970.364           0.650  
E21        -5.093       33197.502           0.388           0.326  
E27        -5.593         -90.512           0.089           0.622  
E30        -5.736      -43082.489          -1.230           0.334  
E34        -3.806        -111.502          -1.402           0.183
> 2025 01 08 17 43  7.0000000  0  5
E13        -1.394     -155107.939        4967.805           0.466  
E21        -3.663       33197.523          -0.804           0.578  
E27        -5.146         -90.515           0.049           0.501  
E30        -5.807      -43082.485           0.574           0.115  
E34        -2.323        -111.515          -0.373           0.419
> 2025 01 08 17 43  8.0000000  0  5
E13        -3.842     -160075.608        4968.992           0.212  
E21        -5.771       33197.529           0.514           0.562  
E27        -6.075         -90.534          -0.602           0.570  
E30        -5.271      -43082.468          -1.230           0.229  
E34        -5.950        -111.527          -0.647           0.366
> 2025 01 08 17 43  9.0000000  0  5
E13        -4.002     -165042.603        4971.717           0.142  
E21        -3.127       33197.515           0.872           0.198  
E27        -5.164         -90.524           0.353           0.449  
E30        -3.181      -43082.481           0.755           0.281  
E34        -4.700        -111.521          -0.511           0.372
> 2025 01 08 17 43 10.0000000  0  5
E13        -3.449     -170009.408        4965.703           0.078  
E21        -4.699       33197.521          -0.294           0.328  
E27        -3.806         -90.518          -0.199           0.370  
E30        -5.128      -43082.471           0.056           0.325  
E34        -3.824        -111.520          -1.450           0.607
> 2025 01 08 17 43 11.0000000  0  5
E13        -4.682     -174975.837        4965.315           0.335  
E21        -5.361       33197.520          -0.672           0.222  
E27        -5.164         -90.519          -0.199           0.255  
E30        -2.466      -43082.493          -0.226           0.607  
E34        -5.378        -111.520           1.446           0.684
> 2025 01 08 17 43 12.0000000  0  5
E13        -2.609     -179942.629        4967.358           0.248  
E21        -6.737       33197.521           0.154           0.155  
E27        -4.217         -90.510          -0.474           0.355  
E30        -3.878      -43082.491           0.757           0.377  
E34        -5.736        -111.522           0.593           0.481
> 2025 01 08 17 43 13.0000000  0  5
E13        -2.520     -184908.483        4966.079           0.283  
E21        -1.644       33197.515           0.320           0.189  
E27        -4.307         -90.510          -0.818           0.441  
E30        -5.468      -43082.485           0.433           0.619  
E34        -6.111        -111.518           1.058           0.605
> 2025 01 08 17 43 14.0000000  0  5
E13        -5.414     -189874.997        4961.663           0.303  
E21        -4.842       33197.516          -0.026           0.019  
E27        -4.896         -90.524          -0.031           0.345  
E30        -4.217      -43082.490          -0.482           0.534  
E34        -5.235        -111.518           0.974           0.405
> 2025 01 08 17 43 15.0000000  0  5
E13        -5.861     -194838.529        4964.526           0.122  
E21        -4.396       33197.517           0.090           0.194  
E27        -4.896         -90.527           0.154           0.541  
E30        -7.184      -43082.477          -0.894           0.379  
E34        -5.129        -111.527          -1.522           0.443
> 2025 01 08 17 43 16.0000000  0  5
E13        -6.290     -199803.138        4966.428           0.377  
E21        -6.754       33197.523           0.298           0.598  
E27        -5.397         -90.526          -0.889           0.358  
E30        -6.951      -43082.472           0.224           0.327  
E34        -6.343        -111.524           1.175           0.399
> 2025 01 08 17 43 17.0000000  0  5
E13        -1.465     -204766.922        4964.712           0.118  
E21        -3.788       33197.513           0.573           0.594  
E27        -3.984         -90.510           0.443           0.325  
E30        -4.021      -43082.495           0.570           0.340  
E34        -5.289        -111.512          -0.194           0.643
> 2025 01 08 17 43 18.0000000  0  5
E13        -6.898     -209729.924        4961.232           0.217  
E21        -5.486       33197.519           0.244           0.625  
E27        -4.021         -90.522          -0.523           0.238  
E30        -7.595      -43082.469          -0.120           0.203  
E34        -4.736        -111.522          -1.260           0.546
> 2025 01 08 17 43 19.0000000  0  5
E13        -6.165     -214693.187        4961.893           0.105  
E21        -4.860       33197.522          -0.709           0.089  
E27        -4.932         -90.527          -0.018           0.218  
E30        -5.700      -43082.475           0.382           0.266  
E34        -7.880        -111.535          -0.052           0.467
> 2025 01 08 17 43 20.0000000  0  5
E13        -4.914     -219656.214        4964.438           0.360  
E21        -4.217       33197.518          -0.436           0.098  
E27        -4.414         -90.510           0.273           0.243  
E30        -2.948      -43082.486          -0.762           0.243  
E34        -2.698        -111.514          -0.709           0.369
> 2025 01 08 17 43 21.0000000  0  5
E13        -2.770     -224618.440        4958.983           0.311  
E21        -4.503       33197.516          -0.721           0.086  
E27        -4.217         -90.515          -0.098           0.388  
E30        -5.093      -43082.488          -1.153           0.195  
E34        -4.003        -111.517           0.958           0.276
> 2025 01 08 17 43 22.0000000  0  5
E13        -4.342     -229580.055        4959.036           0.360  
E21        -6.201       33197.518           0.511           0.081  
E27        -4.056         -90.514           0.183           0.188  
E30        -5.182      -43082.482          -0.507           0.278  
E34        -3.288        -111.504          -0.993           0.264
> 2025 01 08 17 43 23.0000000  0  5
E13        -7.505     -234540.993        4961.172           0.274  
E21        -5.789       33197.526          -0.406           0.253  
E27        -2.788         -90.520          -0.397           0.048  
E30        -3.717      -43082.467          -0.305           0.224  
E34        -4.449        -111.522           0.483           0.313
> 2025 01 08 17 43 24.0000000  0  5
E13        -5.665     -239500.094        4958.572           0.247  
E21        -4.718       33197.506           0.253           0.224  
E27        -4.074         -90.521           0.261           0.246  
E30        -4.253      -43082.488           0.285           0.475  
E34        -4.986        -111.521          -0.773           0.343
> 2025 01 08 17 43 25.0000000  0  5
E13        -2.180     -244458.189        4957.760           0.525  
E21        -4.985       33197.508          -0.220          -0.046  
E27        -3.609         -90.510           0.147           0.345  
E30        -3.162      -43082.491           0.590           0.335  
E34        -4.610        -111.507           0.794           0.432
> 2025 01 08 17 43 26.0000000  0  5
E13        -5.772     -249418.042        4958.427           0.328  
E21        -1.340       33197.514          -0.607           0.188  
E27        -3.931         -90.514          -0.024          -0.075  
E30        -4.717      -43082.482          -0.642           0.372  
E34        -2.323        -111.516           0.420           0.579
> 2025 01 08 17 43 27.0000000  0  5
E13        -3.663     -254376.014        4954.486           0.504  
E21        -3.521       33197.515          -0.485           0.097  
E27        -5.004         -90.513          -0.325           0.086  
E30        -4.325      -43082.487           1.600           0.499  
E34        -2.699        -111.512          -0.647           0.467
> 2025 01 08 17 43 28.0000000  0  5
E13        -4.789     -259332.960        4958.600           0.424  
E21        -3.627       33197.505           1.632           0.135  
E27        -2.966         -90.515          -0.358           0.135  
E30        -3.663      -43082.486          -1.214           0.579  
E34        -4.003        -111.512          -0.691           0.381
> 2025 01 08 17 43 29.0000000  0  5
E13        -3.716     -264290.862        4958.222           0.599  
E21        -4.699       33197.514          -0.221           0.196  
E27        -4.646         -90.513           0.087           0.282  
E30        -4.825      -43082.490          -0.394           0.572  
E34        -6.361        -111.513          -1.204           0.391
> 2025 01 08 17 43 30.0000000  0  5
E13        -5.414     -269248.430        4958.494           0.700  
E21        -7.237       33197.534           0.639           0.357  
E27        -5.182         -90.524           0.058           0.235  
E30        -8.720      -43082.466           0.909           0.333  
E34        -3.895        -111.533           0.584           0.561
> 2025 01 08 17 43 31.0000000  0  5
E13        -5.647     -274205.437        4953.905           0.436  
E21        -5.004       33197.526           0.272           0.442  
E27        -5.897         -90.523          -0.392           0.247  
E30        -6.683      -43082.473           0.397           0.383  
E34        -5.825        -111.530          -0.518           0.409
> 2025 01 08 17 43 32.0000000  0  5
E13        -2.716     -279161.867        4954.609           0.487  
E21        -5.986       33197.524          -0.573           0.396  
E27        -4.038         -90.514          -0.071           0.276  
E30        -2.484      -43082.494          -0.200           0.558  
E34        -7.648        -111.515          -0.266           0.486
> 2025 01 08 17 43 33.0000000  0  5
E13        -4.252     -284117.635        4957.597           0.289  
E21        -5.825       33197.536           0.241           0.441  
E27        -5.468         -90.529          -0.350           0.172  
E30        -6.219      -43082.470           1.592           0.486  
E34        -8.345        -111.533           1.705           0.647
> 2025 01 08 17 43 34.0000000  0  5
E13        -5.325     -289072.650        4953.765           0.451  
E21        -4.878       33197.519          -0.794           0.473  
E27        -4.234         -90.519          -0.513           0.015  
E30        -6.093      -43082.483           0.244           0.493  
E34        -5.253        -111.523           0.054           0.493
> 2025 01 08 17 43 35.0000000  0  5
E13        -3.824     -294026.852        4954.633           0.130  
E21        -6.093       33197.525           1.226           0.617  
E27        -6.861         -90.527           0.168           0.053  
E30        -6.379      -43082.474          -0.345           0.449  
E34        -5.557        -111.518           0.575           0.527
> 2025 01 08 17 43 36.0000000  0  6
E13        -3.842     -298981.100        4955.879           0.108  
E15        -4.806        -947.512          -0.089           0.034  
E21        -4.986       33197.505           1.301           0.634  
E27        -5.629         -90.515           0.565           0.230  
E30        -3.396      -43082.493          -0.174           0.227  
E34        -3.396        -111.514           0.810           0.500
> 2025 01 08 17 43 37.0000000  0  6
E13        -4.325     -303934.955        4951.155           0.122  
E15        -4.664        -947.515          -0.077           0.234  
E21        -3.502       33197.503           1.313           0.616  
E27        -4.092         -90.513           0.080           0.268  
E30        -3.574      -43082.491           0.629           0.392  
E34        -3.967        -111.506          -0.313           0.501
> 2025 01 08 17 43 38.0000000  0  6
E13        -6.683     -308887.873        4954.474           0.118  
E15        -4.092        -947.507          -1.141           0.207  
E21        -3.198       33197.515           0.032           0.586  
E27        -3.270         -90.513           0.185           0.384  
E30        -5.057      -43082.482          -0.419           0.227  
E34        -5.253        -111.502          -0.276           0.441
> 2025 01 08 17 43 39.0000000  0  6
E13        -3.753     -313839.255        4949.090           0.082  
E15        -4.002        -947.511          -0.204           0.228  
E21        -5.003       33197.504           1.401           0.746  
E27        -5.432         -90.512           0.375           0.496  
E30        -5.486      -43082.482           0.423           0.362  
E34        -4.306        -111.518          -0.732           0.340
> 2025 01 08 17 43 40.0000000  0  6
E13        -5.789     -318790.153        4949.857           0.165  
E15        -5.200        -947.528           0.526           0.111  
E21        -0.965       33197.511          -0.379           0.615  
E27        -3.645         -90.516           0.576           0.633  
E30        -6.307      -43082.489           0.526           0.467  
E34        -3.270        -111.522           0.589           0.076
> 2025 01 08 17 43 41.0000000  0  6
E13        -8.113     -323741.971        4954.807           0.362  
E15        -3.913        -947.510          -0.798           0.117  
E21        -5.825       33197.517           0.221           0.354  
E27        -4.235         -90.516          -0.015           0.309  
E30        -1.376      -43082.483          -0.327           0.291  
E34        -4.056        -111.515          -1.318           0.311
> 2025 01 08 17 43 42.0000000  0  6
E13        -4.592     -328694.099        4954.586           0.445  
E15        -6.701        -947.522          -0.247          -0.055  
E21        -2.716       33197.506           1.386           0.532  
E27        -5.039         -90.514           0.664           0.169  
E30        -5.182      -43082.487          -0.107           0.418  
E34        -4.038        -111.507           0.124           0.182
> 2025 01 08 17 43 43.0000000  0  6
E13        -4.324     -333645.475        4954.595           0.427  
E15        -5.343        -947.518           0.166          -0.005  
E21        -5.950       33197.513           0.045           0.673  
E27        -5.218         -90.510          -0.050           0.224  
E30        -3.610      -43082.482           0.369           0.520  
E34        -5.253        -111.518           1.334           0.406
> 2025 01 08 17 43 44.0000000  0  6
E13        -6.951     -338596.478        4951.636           0.321  
E15        -5.164        -947.511           0.094           0.123  
E21        -5.450       33197.522          -0.913           0.406  
E27        -4.592         -90.509          -0.127           0.137  
E30        -3.144      -43082.482           0.306           0.429  
E34        -4.736        -111.514           1.915           0.388
> 2025 01 08 17 43 45.0000000  0  6
E13        -5.468     -343547.225        4953.987           0.076  
E15        -5.092        -947.522          -0.814           0.055  
E21        -7.094       33197.531          -0.531           0.192  
E27        -5.003         -90.528          -0.324           0.015  
E30        -6.629      -43082.471          -0.757           0.327  
E34        -5.254        -111.531           0.132           0.306
> 2025 01 08 17 43 46.0000000  0  6
E13        -5.843     -348497.828        4949.020           0.009  
E15        -5.057        -947.512           0.805          -0.179  
E21        -2.895       33197.511           0.221           0.130  
E27        -4.468         -90.509           0.137           0.308  
E30        -4.913      -43082.488          -1.355           0.412  
E34        -4.146        -111.504          -0.378           0.305
> 2025 01 08 17 43 47.0000000  0  6
E13        -1.662     -353447.910        4955.805           0.108  
E15        -3.788        -947.524          -0.203          -0.048  
E21        -6.647       33197.537          -0.047           0.350  
E27        -5.754         -90.523          -0.267           0.256  
E30        -4.736      -43082.475           0.908           0.545  
E34        -7.934        -111.514          -2.432           0.196
> 2025 01 08 17 43 48.0000000  0  6
E13        -3.109     -358397.217        4946.936           0.092  
E15        -7.112        -947.511          -0.382          -0.053  
E21        -6.343       33197.518           0.177           0.376  
E27        -5.575         -90.518           0.226           0.307  
E30        -8.005      -43082.491           0.996           0.230  
E34        -4.431        -111.517           0.517           0.135
> 2025 01 08 17 43 49.0000000  0  6
E13        -7.273     -363345.815        4944.593           0.484  
E15        -6.647        -947.527          -0.605           0.012  
E21        -6.611       33197.533           0.310           0.125  
E27        -7.326         -90.527          -0.105           0.330  
E30        -4.771      -43082.467           1.081           0.427  
E34        -4.038        -111.538           1.436           0.033
> 2025 01 08 17 43 50.0000000  0  6
E13        -3.681     -368293.442        4948.229           0.497  
E15        -4.897        -947.509          -0.488           0.029  
E21        -6.040       33197.516           0.614          -0.029  
E27        -5.414         -90.508          -0.489           0.299  
E30        -8.094      -43082.483           0.109           0.247  
E34        -4.610        -111.499          -0.005           0.407
> 2025 01 08 17 43 51.0000000  0  6
E13        -6.255     -373240.285        4946.102           0.431  
E15        -4.824        -947.518           0.107           0.067  
E21        -4.788       33197.513           0.641          -0.037  
E27        -4.199         -90.516           0.132           0.330  
E30        -5.164      -43082.486          -0.085           0.254  
E34        -4.682        -111.510          -1.178           0.147
> 2025 01 08 17 43 52.0000000  0  6
E13        -6.236     -378186.453        4947.231           0.382  
E15        -5.701        -947.523           1.011          -0.053  
E21        -7.934       33197.524           0.422           0.134  
E27        -5.468         -90.534           1.595           0.286  
E30        -4.789      -43082.482           0.993           0.361  
E34        -3.770        -111.532          -1.389           0.054
> 2025 01 08 17 43 53.0000000  0  6
E13        -7.862     -383132.304        4942.676           0.234  
E15        -3.628        -947.519          -1.518          -0.077  
E21        -7.612       33197.518          -0.033           0.419  
E27        -6.326         -90.517          -0.958           0.044  
E30        -4.218      -43082.478          -0.452           0.097  
E34        -3.360        -111.517          -1.362           0.358
> 2025 01 08 17 43 54.0000000  0  6
E13        -2.752     -388078.178        4948.721           0.251  
E15        -4.771        -947.524           0.783          -0.029  
E21        -4.896       33197.523          -0.770           0.558  
E27        -4.360         -90.517          -0.137           0.197  
E30        -5.236      -43082.477           0.155           0.218  
E34        -3.180        -111.517           0.355           0.170
> 2025 01 08 17 43 55.0000000  0  6
E13        -6.040     -393025.190        4949.762           0.317  
E15        -5.736        -947.525          -0.226          -0.011  
E21        -1.626       33197.521           1.264           0.408  
E27        -5.754         -90.519          -0.207           0.392  
E30        -4.431      -43082.476           0.669           0.384  
E34        -4.807        -111.514          -0.592           0.297
> 2025 01 08 17 43 56.0000000  0  6
E13        -5.272     -397970.468        4943.478           0.227  
E15        -5.092        -947.519          -0.288           0.024  
E21        -5.593       33197.533          -0.279           0.325  
E27        -4.057         -90.518          -0.050           0.247  
E30        -6.004      -43082.483           1.693           0.325  
E34        -4.432        -111.517          -0.542           0.461
> 2025 01 08 17 43 57.0000000  0  6
E13        -4.914     -402913.661        4938.939           0.017  
E15        -4.181        -947.527           0.419           0.077  
E21        -5.915       33197.527           0.627           0.164  
E27        -4.914         -90.532          -0.411           0.061  
E30        -2.287      -43082.468           0.493           0.321  
E34        -3.395        -111.536          -0.219           0.410
> 2025 01 08 17 43 58.0000000  0  6
E13        -3.448     -407858.387        4946.792           0.158  
E15        -6.522        -947.533          -0.115           0.111  
E21        -6.022       33197.536          -0.329           0.237  
E27        -5.004         -90.532          -0.132          -0.159  
E30        -9.703      -43082.447           0.192           0.401  
E34        -7.470        -111.538           0.203           0.569
> 2025 01 08 17 43 59.0000000  0  6
E13        -5.593     -412802.528        4940.840           0.050  
E15        -6.147        -947.521           0.960           0.110  
E21        -5.021       33197.529           0.301           0.288  
E27        -4.181         -90.517          -0.866          -0.116  
E30        -4.377      -43082.479          -1.024           0.498  
E34        -4.449        -111.524           0.429           0.506
> 2025 01 08 17 44  0.0000000  0  6
E13        -4.593     -417745.104        4946.421           0.281  
E15        -6.450        -947.523          -0.202           0.030  
E21        -6.683       33197.525          -1.075           0.418  
E27        -6.576         -90.523           0.046           0.119  
E30        -6.379      -43082.476          -0.092           0.249  
E34        -3.502        -111.526           0.888           0.640
> 2025 01 08 17 44  1.0000000  0  6
E13        -8.577     -422690.541        4943.281           0.502  
E15        -7.255        -947.527           0.900          -0.031  
E21        -5.146       33197.531           0.429           0.233  
E27        -5.414         -90.523          -0.305           0.049  
E30        -3.342      -43082.467          -0.202           0.195  
E34        -5.200        -111.524          -0.148           0.606
> 2025 01 08 17 44  2.0000000  0  6
E13        -4.270     -427632.874        4943.412           0.634  
E15        -6.736        -947.524          -0.085          -0.075  
E21        -4.146       33197.528          -0.709           0.426  
E27        -3.877         -90.513           0.180           0.225  
E30        -6.147      -43082.493          -0.537           0.192  
E34        -6.612        -111.523           0.491           0.443
> 2025 01 08 17 44  3.0000000  0  6
E13        -4.235     -432576.671        4944.729           0.423  
E15        -5.057        -947.515           0.238           0.023  
E21        -2.215       33197.506           1.467           0.350  
E27        -4.718         -90.514          -0.512           0.342  
E30        -5.415      -43082.477          -0.833           0.383  
E34        -6.379        -111.523          -0.427           0.455
> 2025 01 08 17 44  4.0000000  0  6
E13        -5.718     -437520.163        4944.071           0.508  
E15        -5.343        -947.522           0.061          -0.009  
E21        -2.788       33197.515           0.819           0.291  
E27        -4.396         -90.518          -0.040           0.264  
E30        -3.556      -43082.481          -0.540           0.319  
E34        -6.182        -111.527           0.470           0.059
> 2025 01 08 17 44  5.0000000  0  6
E13        -5.664     -442463.221        4943.778           0.643  
E15        -4.753        -947.519           0.432           0.178  
E21        -3.145       33197.523          -0.011           0.498  
E27        -6.254         -90.526           0.253           0.356  
E30        -5.807      -43082.470          -0.536          -0.050  
E34        -5.933        -111.523          -0.415          -0.037
> 2025 01 08 17 44  6.0000000  0  6
E13        -4.789     -447405.547        4938.609           0.580  
E15        -4.056        -947.516          -0.065           0.144  
E21        -3.985       33197.512           1.378           0.604  
E27        -4.414         -90.519           0.111           0.478  
E30        -2.931      -43082.486          -0.671           0.101  
E34        -2.198        -111.525          -0.595           0.264
> 2025 01 08 17 44  7.0000000  0  6
E13        -5.896     -452346.492        4938.987           0.232  
E15        -4.610        -947.508           0.379           0.018  
E21        -3.645       33197.528          -1.467           0.698  
E27        -4.879         -90.517          -0.216           0.201  
E30        -6.487      -43082.485          -0.396           0.189  
E34        -4.127        -111.509          -0.203           0.342
> 2025 01 08 17 44  8.0000000  0  6
E13        -6.040     -457285.528        4939.328           0.230  
E15        -5.146        -947.529          -0.227           0.108  
E21        -2.538       33197.525          -1.035           0.720  
E27        -5.897         -90.532           0.216           0.348  
E30        -3.949      -43082.469           0.462           0.298  
E34        -5.450        -111.536           0.224           0.425
> 2025 01 08 17 44  9.0000000  0  6
E13        -5.450     -462225.116        4942.058           0.130  
E15        -6.362        -947.533          -1.156           0.092  
E21        -5.128       33197.520          -0.038           0.553  
E27        -5.432         -90.531           0.131           0.320  
E30        -4.557      -43082.483          -0.002           0.313  
E34        -5.807        -111.523           1.200           0.467
> 2025 01 08 17 44 10.0000000  0  6
E13        -7.023     -467165.911        4944.384           0.141  
E15        -4.682        -947.523           2.592           0.064  
E21        -5.557       33197.537          -1.107           0.541  
E27        -6.951         -90.523           0.742           0.309  
E30        -4.789      -43082.475           0.864           0.492  
E34        -4.878        -111.524          -1.523           0.227
> 2025 01 08 17 44 11.0000000  0  6
E13        -4.110     -472107.349        4941.418           0.286  
E15        -5.539        -947.520           1.538          -0.018  
E21        -6.272       33197.523          -0.808           0.358  
E27        -4.414         -90.509           0.399           0.335  
E30        -3.306      -43082.486          -1.451           0.255  
E34        -5.843        -111.517          -0.326           0.489
> 2025 01 08 17 44 12.0000000  0  6
E13        -4.200     -477046.277        4936.455           0.137  
E15        -4.074        -947.524           0.410          -0.123  
E21        -3.037       33197.519           0.438           0.407  
E27        -5.879         -90.524          -0.257           0.188  
E30        -5.128      -43082.464          -0.015           0.224  
E34        -3.734        -111.528           0.301           0.531
> 2025 01 08 17 44 13.0000000  0  6
E13        -3.324     -481983.396        4937.136           0.256  
E15        -5.843        -947.514           0.295           0.016  
E21        -4.253       33197.522           0.678           0.225  
E27        -4.753         -90.515          -0.085           0.127  
E30        -3.020      -43082.498           0.733           0.374  
E34        -4.574        -111.519          -1.205           0.336
> 2025 01 08 17 44 14.0000000  0  6
E13        -3.145     -486920.510        4934.408           0.120  
E15        -4.449        -947.528           0.284           0.022  
E21        -5.682       33197.530          -0.077           0.145  
E27        -5.254         -90.530           0.338           0.214  
E30        -7.022      -43082.471          -0.117           0.496  
E34        -6.754        -111.524          -0.072           0.426
> 2025 01 08 17 44 15.0000000  0  6
E13        -4.181     -491858.117        4939.630           0.238  
E15        -7.005        -947.518          -0.233          -0.010  
E21        -3.609       33197.516           0.482           0.325  
E27        -5.557         -90.514          -0.058           0.078  
E30        -3.573      -43082.491           0.420           0.513  
E34        -6.343        -111.504          -1.550           0.425
> 2025 01 08 17 44 16.0000000  0  6
E13        -7.094     -496795.860        4936.036           0.332  
E15        -5.844        -947.536           1.321           0.024  
E21        -6.433       33197.534          -1.236           0.385  
E27        -5.397         -90.532           0.850          -0.414  
E30        -7.416      -43082.471           0.583           0.380  
E34        -6.916        -111.528           0.356           0.526
> 2025 01 08 17 44 17.0000000  0  6
E13        -4.843     -501731.181        4938.123           0.446  
E15        -3.324        -947.522          -0.027          -0.010  
E21        -5.272       33197.520           0.513           0.659  
E27        -5.861         -90.527          -0.777          -0.160  
E30        -2.019      -43082.470          -0.796           0.254  
E34        -6.290        -111.530           0.142           0.295
> 2025 01 08 17 44 18.0000000  0  6
E13        -5.057     -506666.505        4936.084           0.344  
E15        -5.039        -947.509          -0.391          -0.044  
E21        -4.092       33197.512          -0.419           0.597  
E27        -4.789         -90.510          -0.089           0.115  
E30        -4.896      -43082.486           1.682           0.436  
E34        -4.592        -111.511          -0.784           0.290
> 2025 01 08 17 44 19.0000000  0  6
E13        -5.575     -511600.726        4931.977           0.158  
E15        -5.414        -947.526           0.221           0.000  
E21        -4.950       33197.537          -1.210           0.409  
E27        -6.665         -90.526          -0.177           0.293  
E30        -5.522      -43082.481           1.332           0.257  
E34        -6.200        -111.519          -0.686           0.478
> 2025 01 08 17 44 20.0000000  0  6
E13        -4.789     -516533.637        4932.488           0.165  
E15        -6.576        -947.533          -1.382          -0.066  
E21        -5.772       33197.534          -0.157           0.352  
E27        -5.932         -90.531          -0.042           0.355  
E30        -7.165      -43082.464          -0.190           0.259  
E34        -7.184        -111.542          -0.823           0.136
> 2025 01 08 17 44 21.0000000  0  6
E13        -6.147     -521468.527        4935.714           0.411  
E15        -3.646        -947.517          -0.797          -0.033  
E21        -6.933       33197.514           0.186           0.522  
E27        -5.700         -90.524          -0.376           0.394  
E30        -3.217      -43082.487          -0.054           0.187  
E34        -3.020        -111.513           0.033           0.425
> 2025 01 08 17 44 22.0000000  0  6
E13        -5.754     -526404.196        4935.977           0.470  
E15        -4.896        -947.513          -0.006           0.056  
E21        -4.360       33197.508          -0.671           0.387  
E27        -4.914         -90.513           0.178           0.469  
E30        -2.162      -43082.493           0.222           0.470  
E34        -4.235        -111.521          -0.669           0.486
> 2025 01 08 17 44 24.0000000  0  6
E13        -5.486     -536271.147        4932.622           0.472  
E15        -5.504        -947.525          -0.672           0.237  
E21        -6.647       33197.529           0.067           0.285  
E27        -4.360         -90.524          -0.047           0.155  
E30        -5.485      -43082.479           0.270           0.195  
E34        -5.575        -111.526          -0.536           0.207
> 2025 01 08 17 44 25.0000000  0  6
E13        -8.345     -541202.981        4932.551           0.436  
E15        -5.378        -947.534           1.243           0.295  
E21        -6.594       33197.532          -0.857           0.626  
E27        -4.663         -90.524          -0.506           0.202  
E30        -5.950      -43082.472           0.781           0.097  
E34        -6.165        -111.535          -0.120           0.416
> 2025 01 08 17 44 26.0000000  0  6
E13        -4.002     -546133.660        4930.893           0.064  
E15        -4.253        -947.516           0.604           0.149  
E21        -5.593       33197.530          -0.651           0.397  
E27        -5.951         -90.529          -0.011           0.171  
E30        -6.379      -43082.481           0.105           0.067  
E34        -5.611        -111.525          -0.222           0.612
> 2025 01 08 17 44 27.0000000  0  6
E13        -2.538     -551063.527        4928.584           0.005  
E15        -4.521        -947.515           0.277           0.046  
E21        -4.771       33197.506           0.801           0.249  
E27        -4.467         -90.512          -0.413           0.218  
E30        -6.111      -43082.490           1.474           0.254  
E34        -2.002        -111.507           0.390           0.541
> 2025 01 08 17 44 28.0000000  0  6
E13        -2.162     -555993.668        4928.999           0.194  
E15        -4.985        -947.521           0.639           0.090  
E21        -4.092       33197.510          -0.494           0.325  
E27        -4.896         -90.518          -0.114           0.364  
E30        -6.164      -43082.479           0.526           0.168  
E34        -6.987        -111.520          -0.327           0.566
> 2025 01 08 17 44 29.0000000  0  6
E13        -4.574     -560924.285        4928.844           0.007  
E15        -5.182        -947.509          -0.376          -0.002  
E21        -8.131       33197.505           0.123           0.190  
E27        -4.538         -90.519          -0.625           0.396  
E30        -4.092      -43082.478          -0.246          -0.118  
E34        -4.646        -111.514          -0.645           0.052
> 2025 01 08 17 44 30.0000000  0  6
E13        -5.844     -565855.326        4931.306           0.079  
E15        -4.878        -947.519          -0.748          -0.043  
E21        -5.432       33197.537          -1.047           0.603  
E27        -6.004         -90.531           0.537           0.247  
E30        -4.146      -43082.478          -0.548           0.226  
E34        -5.308        -111.534           0.305           0.261
> 2025 01 08 17 44 31.0000000  0  6
E13        -4.288     -570784.971        4929.519           0.114  
E15        -4.342        -947.514          -0.142          -0.153  
E21        -2.448       33197.525          -0.691           0.423  
E27        -5.022         -90.525          -0.843           0.280  
E30        -7.684      -43082.467          -0.573           0.607  
E34        -6.647        -111.526           0.352           0.279
> 2025 01 08 17 44 32.0000000  0  6
E13        -7.094     -575713.576        4926.858           0.397  
E15        -4.324        -947.526          -0.557          -0.159  
E21        -5.164       33197.521           1.118           0.517  
E27        -7.058         -90.532           0.229           0.528  
E30        -6.307      -43082.469           0.318           0.889  
E34        -4.574        -111.521           0.173           0.014
> 2025 01 08 17 44 33.0000000  0  6
E13        -5.718     -580641.295        4928.788           0.069  
E15        -3.574        -947.512          -0.039          -0.011  
E21        -5.379       33197.516          -0.357           0.395  
E27        -4.807         -90.516          -0.335           0.427  
E30        -0.572      -43082.485           1.255           0.803  
E34        -5.932        -111.514           0.072           0.075
> 2025 01 08 17 44 34.0000000  0  6
E13        -7.648     -585569.008        4925.529           0.303  
E15        -5.272        -947.511          -0.323           0.070  
E21        -4.110       33197.509           0.352           0.514  
E27        -5.057         -90.520           0.548           0.320  
E30        -3.824      -43082.480           0.285           0.897  
E34        -3.019        -111.510           0.118           0.257
> 2025 01 08 17 44 35.0000000  0  6
E13        -5.396     -590494.159        4928.763           0.324  
E15        -3.020        -947.517          -0.518           0.021  
E21        -1.984       33197.525           0.314           0.493  
E27        -3.645         -90.517           0.155           0.255  
E30        -2.055      -43082.485           0.867           0.999  
E34        -3.610        -111.513          -1.828          -0.046
> 2025 01 08 17 44 36.0000000  0  6
E13        -3.985     -595419.331        4926.762           0.419  
E15        -6.361        -947.537           0.608           0.046  
E21        -4.146       33197.518           1.082           0.643  
E27        -4.128         -90.522           0.519           0.046  
E30        -3.038      -43082.467           0.137           0.576  
E34        -7.916        -111.529          -0.164           0.218
> 2025 01 08 17 44 37.0000000  0  6
E13        -6.272     -600345.465        4923.738           0.079  
E15        -5.968        -947.532          -1.443           0.059  
E21        -4.324       33197.529          -0.119           0.427  
E27        -5.646         -90.532           0.019          -0.068  
E30        -4.557      -43082.471          -1.078           0.279  
E34        -5.021        -111.536           1.849           0.112
> 2025 01 08 17 44 38.0000000  0  6
E13        -4.074     -605271.143        4927.538           0.109  
E15        -7.237        -947.524          -0.319           0.180  
E21        -4.467       33197.515          -0.123           0.328  
E27        -5.003         -90.517          -0.771           0.090  
E30        -3.502      -43082.484          -1.280           0.149  
E34        -4.092        -111.514           0.061           0.258
> 2025 01 08 17 44 39.0000000  0  6
E13        -6.112     -610196.233        4927.115           0.134  
E15        -4.682        -947.536           0.155           0.103  
E21        -6.415       33197.537           0.690           0.305  
E27        -4.074         -90.532           0.434           0.087  
E30        -6.272      -43082.460           1.348           0.501  
E34        -5.861        -111.536           0.604           0.364
> 2025 01 08 17 44 40.0000000  0  6
E13        -4.307     -615121.392        4928.994           0.281  
E15        -3.056        -947.520           0.021           0.066  
E21        -5.111       33197.524           0.412           0.419  
E27        -5.182         -90.526          -0.087           0.104  
E30        -2.770      -43082.472           0.557           0.612  
E34        -6.379        -111.520          -0.862           0.280
> 2025 01 08 17 44 41.0000000  0  6
E13        -6.487     -620046.941        4922.442           0.169  
E15        -2.662        -947.508           0.045           0.017  
E21        -5.164       33197.513           0.591           0.497  
E27        -4.557         -90.511           0.079           0.096  
E30        -5.575      -43082.495           1.458           0.222  
E34        -4.503        -111.525          -0.452           0.176
> 2025 01 08 17 44 42.0000000  0  6
E13        -7.898     -624971.477        4924.243           0.264  
E15        -5.897        -947.519          -0.367           0.029  
E21        -6.594       33197.522          -0.126           0.686  
E27        -5.199         -90.520           0.172           0.043  
E30        -2.645      -43082.479           0.302           0.640  
E34        -6.468        -111.525           0.061           0.244
> 2025 01 08 17 44 43.0000000  0  6
E13        -5.611     -629895.276        4924.742           0.127  
E15        -6.737        -947.517          -0.017           0.112  
E21        -4.699       33197.515          -0.773           0.450  
E27        -4.789         -90.512          -0.171           0.103  
E30        -4.771      -43082.493          -0.284           0.641  
E34        -4.753        -111.505           0.193           0.445
> 2025 01 08 17 44 44.0000000  0  6
E13        -2.609     -634818.960        4922.398           0.042  
E15        -5.718        -947.520           0.731          -0.031  
E21        -5.307       33197.524           0.443           0.467  
E27        -5.503         -90.524           0.067           0.180  
E30        -2.662      -43082.481           1.146           0.495  
E34        -5.593        -111.518          -1.583           0.411
> 2025 01 08 17 44 45.0000000  0  6
E13        -1.519     -639741.588        4921.588          -0.122  
E15        -5.236        -947.513           0.585          -0.017  
E21        -5.039       33197.517           0.695           0.275  
E27        -5.646         -90.523           0.020           0.293  
E30        -3.538      -43082.493           0.150           0.373  
E34        -3.449        -111.509           0.188           0.487
> 2025 01 08 17 44 46.0000000  0  6
E13        -4.860     -644663.503        4921.728           0.118  
E15        -3.895        -947.518          -0.410           0.056  
E21        -2.984       33197.508          -0.152           0.532  
E27        -5.647         -90.522           0.385           0.397  
E30        -7.094      -43082.474           0.149           0.365  
E34        -5.718        -111.515          -0.721           0.501
> 2025 01 08 17 44 47.0000000  0  6
E13        -4.485     -649584.626        4920.942          -0.046  
E15        -3.699        -947.514          -0.450           0.045  
E21        -2.699       33197.518          -0.009           0.613  
E27        -3.287         -90.518          -0.432           0.305  
E30        -6.022      -43082.480           0.446           0.327  
E34        -4.289        -111.517          -0.718           0.096
> 2025 01 08 17 44 48.0000000  0  6
E13        -2.645     -654505.953        4920.672           0.049  
E15        -4.503        -947.517          -0.297           0.103  
E21        -4.378       33197.505          -0.834           0.308  
E27        -6.164         -90.517          -0.254           0.546  
E30        -6.951      -43082.479          -0.408           0.528  
E34        -1.358        -111.510          -0.138           0.148
> 2025 01 08 17 44 49.0000000  0  6
E13        -1.001     -659426.531        4919.899           0.384  
E15        -4.110        -947.514          -0.313           0.125  
E21        -8.470       33197.523          -1.328           0.340  
E27        -5.057         -90.522           0.936           0.545  
E30        -4.592      -43082.487           0.314           0.540  
E34        -5.647        -111.516           0.486           0.262
> 2025 01 08 17 44 50.0000000  0  6
E13        -4.503     -664346.227        4917.867           0.669  
E15        -5.700        -947.526           0.072           0.005  
E21        -6.308       33197.515           0.823           0.323  
E27        -5.772         -90.519           0.707           0.436  
E30        -5.218      -43082.467           0.493           0.383  
E34        -6.325        -111.524           0.166           0.292
> 2025 01 08 17 44 51.0000000  0  6
E13        -6.057     -669265.381        4917.984           0.313  
E15        -5.647        -947.523          -0.648           0.113  
E21        -2.788       33197.524          -0.613           0.538  
E27        -7.344         -90.525           1.158           0.562  
E30        -4.307      -43082.484          -0.984           0.308  
E34        -4.074        -111.521           0.019           0.300
> 2025 01 08 17 44 52.0000000  0  6
E13        -3.091     -674184.301        4918.301           0.396  
E15        -5.575        -947.528          -1.004           0.221  
E21        -5.110       33197.534          -0.118           0.278  
E27        -5.039         -90.523          -0.229           0.549  
E30        -4.378      -43082.467           1.355           0.405  
E34        -2.734        -111.529           0.292           0.260
> 2025 01 08 17 44 53.0000000  0  6
E13        -3.360     -679102.386        4921.060           0.373  
E15        -5.629        -947.528           1.304           0.246  
E21        -3.878       33197.533          -0.292           0.231  
E27        -3.895         -90.524          -0.459           0.449  
E30        -5.503      -43082.466           1.106           0.537  
E34        -8.291        -111.534           0.126           0.324
> 2025 01 08 17 44 54.0000000  0  6
E13        -2.805     -684020.281        4918.988           0.402  
E15        -5.772        -947.527          -0.349           0.130  
E21        -5.110       33197.530           0.527           0.184  
E27        -4.396         -90.533           0.074           0.312  
E30        -6.611      -43082.461           0.358           0.517  
E34        -1.822        -111.525          -1.113           0.387
> 2025 01 08 17 44 55.0000000  0  6
E13        -6.487     -688937.833        4918.134           0.600  
E15        -4.825        -947.532           0.085           0.138  
E21        -5.146       33197.529          -0.216           0.204  
E27        -5.968         -90.529           0.006           0.432  
E30        -9.006      -43082.454          -0.125           0.516  
E34        -2.341        -111.521          -0.750           0.123
> 2025 01 08 17 44 56.0000000  0  6
E13        -3.127     -693854.505        4915.238           0.641  
E15        -4.575        -947.521          -0.264           0.062  
E21        -4.146       33197.536           0.293           0.286  
E27        -4.986         -90.523          -0.163           0.459  
E30        -7.809      -43082.473           0.003           0.367  
E34        -5.504        -111.531          -0.455           0.007
> 2025 01 08 17 44 57.0000000  0  6
E13        -3.198     -698770.145        4919.699           0.380  
E15        -6.075        -947.523          -0.763           0.003  
E21        -1.858       33197.514           0.944           0.471  
E27        -4.538         -90.527           0.069           0.524  
E30        -4.163      -43082.471          -0.733           0.303  
E34        -5.915        -111.525          -0.407           0.184
> 2025 01 08 17 44 58.0000000  0  6
E13        -5.754     -703685.741        4917.987           0.177  
E15        -3.967        -947.521          -0.062           0.063  
E21        -6.862       33197.518          -1.354           0.621  
E27        -5.932         -90.516           0.084           0.503  
E30        -2.949      -43082.480           0.176           0.262  
E34        -2.305        -111.518           0.514           0.160
> 2025 01 08 17 44 59.0000000  0  6
E13        -6.951     -708601.646        4911.482           0.374  
E15        -3.377        -947.506           0.257           0.082  
E21        -1.466       33197.505          -0.168           0.477  
E27        -6.772         -90.516          -0.724           0.290  
E30        -1.698      -43082.487           0.144           0.216  
E34        -2.537        -111.506          -0.334           0.146
> 2025 01 08 17 45  0.0000000  0  6
E13        -3.895     -713517.144        4914.634           0.289  
E15        -5.682        -947.521           1.180           0.007  
E21        -5.700       33197.504          -0.056           0.766  
E27        -4.288         -90.517           0.046           0.285  
E30        -1.894      -43082.490           0.030           0.173  
E34        -4.520        -111.514          -0.454           0.023
> 2025 01 08 17 45  1.0000000  0  6
E13        -3.270     -718431.887        4914.076           0.400  
E15        -3.252        -947.510          -0.059          -0.004  
E21        -2.573       33197.518           0.287           0.649  
E27        -4.825         -90.518           0.327           0.262  
E30        -3.395      -43082.477          -1.473           0.233  
E34        -4.199        -111.513          -1.151          -0.117
> 2025 01 08 17 45  2.0000000  0  6
E13        -5.986     -723346.535        4915.489           0.028  
E15        -6.040        -947.532           0.222           0.000  
E21        -3.521       33197.529          -0.623           0.370  
E27        -4.467         -90.523           0.135           0.048  
E30        -6.111      -43082.464           0.103           0.162  
E34        -4.521        -111.524          -0.113          -0.015
> 2025 01 08 17 45  3.0000000  0  6
E13        -6.218     -728260.247        4913.187           0.262  
E15        -9.006        -947.540          -1.770          -0.003  
E21        -6.487       33197.529          -0.513           0.354  
E27        -5.807         -90.529          -0.362          -0.005  
E30        -6.022      -43082.473          -0.860           0.145  
E34        -4.467        -111.523          -0.169           0.308
> 2025 01 08 17 45  4.0000000  0  6
E13        -4.449     -733173.127        4908.662           0.334  
E15        -6.379        -947.523          -0.369          -0.084  
E21        -6.272       33197.532           0.076           0.425  
E27        -4.949         -90.525           0.714           0.125  
E30        -8.255      -43082.472           0.336           0.323  
E34        -4.950        -111.530           1.276           0.418
> 2025 01 08 17 45  5.0000000  0  6
E13        -4.110     -738084.533        4908.176           0.116  
E15        -4.414        -947.503           0.001          -0.009  
E21        -4.146       33197.504           1.091           0.479  
E27        -4.593         -90.511          -0.154           0.180  
E30        -7.022      -43082.487           0.722           0.564  
E34        -6.504        -111.521           0.437           0.374
> 2025 01 08 17 45  6.0000000  0  5
E13        -0.661     -742995.363        4912.362           0.295  
E21        -5.325       33197.547           0.520           0.625  
E27        -4.628         -90.526          -0.294           0.186  
E30        -5.485      -43082.473           0.850           0.344  
E34        -6.486        -111.535           0.144           0.304
> 2025 01 08 17 45  7.0000000  0  5
E13        -5.700     -747907.067        4913.742           0.144  
E21        -3.967       33197.532          -1.871           0.560  
E27        -5.826         -90.531          -0.661           0.075  
E30        -4.432      -43082.462           0.057           0.375  
E34        -5.075        -111.532          -0.400           0.448
> 2025 01 08 17 45  8.0000000  0  5
E13        -4.360     -752818.358        4909.450           0.102  
E21        -5.182       33197.518           0.572           0.633  
E27        -5.718         -90.527          -0.278           0.077  
E30        -5.718      -43082.472          -0.581           0.401  
E34        -5.503        -111.517          -1.596           0.419
> 2025 01 08 17 45  9.0000000  0  5
E13        -5.629     -757729.085        4911.076           0.195  
E21        -3.288       33197.501           1.085           0.257  
E27        -4.485         -90.511          -0.012           0.257  
E30        -4.199      -43082.493          -0.427           0.115  
E34        -2.001        -111.508          -0.919           0.526
> 2025 01 08 17 45 10.0000000  0  5
E13        -6.755     -762639.147        4906.672           0.326  
E21        -3.306       33197.526          -0.902           0.255  
E27        -7.309         -90.533          -0.935           0.320  
E30        -4.092      -43082.473          -1.596           0.183  
E34        -3.217        -111.532           0.311           0.743
> 2025 01 08 17 45 11.0000000  0  5
E13        -4.146     -767548.565        4915.764           0.304  
E21        -3.645       33197.528          -0.168           0.283  
E27        -4.718         -90.525           0.084           0.309  
E30        -6.415      -43082.468           0.112           0.457  
E34        -6.129        -111.533           0.052           0.683
> 2025 01 08 17 45 12.0000000  0  5
E13        -2.966     -772457.488        4910.074           0.422  
E21        -6.362       33197.517          -0.415           0.336  
E27        -5.557         -90.524           0.721           0.126  
E30        -1.448      -43082.473          -0.441           0.611  
E34        -4.717        -111.524          -0.041           0.819
> 2025 01 08 17 45 13.0000000  0  5
E13        -4.378     -777366.110        4907.224           0.321  
E21        -5.575       33197.522           0.056           0.475  
E27        -5.111         -90.529          -0.608           0.047  
E30        -9.149      -43082.482           1.385           0.481  
E34        -5.218        -111.523          -0.226           0.733
> 2025 01 08 17 45 14.0000000  0  5
E13        -4.753     -782274.587        4909.263           0.335  
E21        -8.952       33197.534           0.094           0.776  
E27        -4.789         -90.534          -0.120           0.069  
E30        -4.592      -43082.469          -0.261           0.208  
E34        -4.217        -111.539           0.174           0.558
> 2025 01 08 17 45 15.0000000  0  5
E13        -6.987     -787183.041        4906.167           0.424  
E21        -6.254       33197.536          -0.292           0.872  
E27        -4.253         -90.530          -0.267           0.109  
E30        -5.593      -43082.475           0.407           0.348  
E34        -4.610        -111.526          -0.866           0.416
> 2025 01 08 17 45 16.0000000  0  5
E13        -4.074     -792091.217        4909.794           0.382  
E21        -3.842       33197.544           0.732           0.413  
E27        -5.539         -90.530          -1.259           0.050  
E30        -7.327      -43082.466          -0.035           0.526  
E34        -5.093        -111.533           0.188           0.401
> 2025 01 08 17 45 17.0000000  0  5
E13        -9.864     -796998.714        4907.481           0.447  
E21        -4.968       33197.528           0.129           0.337  
E27        -5.629         -90.530           0.394           0.133  
E30        -3.484      -43082.469           0.431           0.554  
E34        -3.573        -111.526          -1.421           0.507
> 2025 01 08 17 45 18.0000000  0  5
E13        -5.039     -801906.029        4905.965           0.080  
E21        -3.663       33197.529          -0.633           0.372  
E27        -4.538         -90.524           0.479           0.197  
E30        -7.326      -43082.475          -0.079           0.357  
E34        -4.056        -111.526          -0.972           0.649
> 2025 01 08 17 45 19.0000000  0  5
E13        -8.219     -806813.222        4907.634           0.352  
E21        -8.256       33197.526           0.135           0.439  
E27        -4.914         -90.534           0.072           0.201  
E30        -3.896      -43082.464           0.145           0.052  
E34        -4.646        -111.533           2.546           0.547
> 2025 01 08 17 45 20.0000000  0  5
E13        -3.878     -811719.622        4905.924           0.277  
E21        -6.486       33197.525          -0.108           0.433  
E27        -4.878         -90.529           0.560           0.012  
E30        -4.592      -43082.469          -0.184           0.274  
E34        -5.539        -111.518          -0.871           0.508
> 2025 01 08 17 45 21.0000000  0  5
E13        -4.467     -816625.508        4905.345           0.279  
E21        -4.003       33197.524           0.777           0.372  
E27        -6.219         -90.528          -0.257           0.163  
E30        -4.629      -43082.474          -0.431           0.405  
E34        -7.469        -111.535          -1.292           0.427
> 2025 01 08 17 45 22.0000000  0  5
E13        -6.040     -821531.085        4909.076           0.424  
E21        -6.666       33197.528          -1.547           0.267  
E27        -4.128         -90.519           0.098           0.188  
E30        -5.504      -43082.482          -0.865           0.495  
E34        -4.736        -111.524          -1.076           0.602
> 2025 01 08 17 45 23.0000000  0  5
E13        -4.556     -826436.193        4906.155           0.192  
E21        -1.680       33197.519           0.260           0.320  
E27        -6.576         -90.530           0.207           0.392  
E30        -6.076      -43082.472           0.377           0.389  
E34        -5.200        -111.523           0.466           0.740
> 2025 01 08 17 45 24.0000000  0  5
E13        -5.379     -831340.462        4900.071           0.306  
E21        -5.664       33197.541          -1.069           0.481  
E27        -4.628         -90.531          -0.188           0.261  
E30        -1.107      -43082.477           0.695           0.469  
E34        -6.575        -111.528           1.112           0.468
> 2025 01 08 17 45 25.0000000  0  5
E13        -5.503     -836244.224        4906.133           0.038  
E21        -3.467       33197.527           0.606           0.324  
E27        -6.540         -90.529           0.043           0.400  
E30        -4.700      -43082.468          -0.027           0.847  
E34        -6.058        -111.530          -0.203           0.453
> 2025 01 08 17 45 26.0000000  0  5
E13        -4.681     -841147.850        4904.205           0.388  
E21        -5.146       33197.522           0.932           0.387  
E27        -6.450         -90.530           0.375           0.227  
E30        -7.595      -43082.461           0.500           0.832  
E34        -3.144        -111.517           0.000           0.158
> 2025 01 08 17 45 27.0000000  0  5
E13        -5.771     -846050.899        4902.599           0.606  
E21        -7.290       33197.527           0.224           0.358  
E27        -4.736         -90.523           0.386           0.432  
E30        -1.537      -43082.483          -1.689           0.704  
E34        -8.953        -111.519           0.275           0.143
> 2025 01 08 17 45 28.0000000  0  5
E13        -6.290     -850952.331        4898.518           0.431  
E21        -5.969       33197.527           0.701           0.278  
E27        -4.789         -90.528           0.227           0.193  
E30        -7.005      -43082.476           0.366           0.580  
E34        -7.112        -111.531          -0.829           0.432
> 2025 01 08 17 45 29.0000000  0  5
E13        -3.699     -855852.570        4899.510           0.096  
E21        -2.555       33197.498          -0.369           0.495  
E27        -5.576         -90.508          -0.099           0.265  
E30        -5.450      -43082.491           0.360           0.648  
E34        -6.505        -111.510          -1.311           0.341
> 2025 01 08 17 45 30.0000000  0  5
E13        -5.986     -860754.769        4903.287           0.177  
E21        -3.216       33197.519          -0.600           0.160  
E27        -3.824         -90.514           0.428           0.139  
E30        -3.842      -43082.482           0.186           0.725  
E34        -2.288        -111.520           1.624           0.184
> 2025 01 08 17 45 31.0000000  0  5
E13        -3.109     -865656.285        4901.541           0.127  
E21        -5.433       33197.512           0.070           0.179  
E27        -3.591         -90.514          -0.074           0.413  
E30        -3.538      -43082.494           0.557           0.457  
E34        -1.465        -111.517          -1.118           0.312
> 2025 01 08 17 45 32.0000000  0  5
E13        -4.021     -870557.111        4898.289           0.181  
E21        -2.466       33197.507           0.910           0.424  
E27        -5.522         -90.508           0.129           0.558  
E30        -6.969      -43082.492           0.538           0.533  
E34        -6.379        -111.512          -0.903           0.610
> 2025 01 08 17 45 33.0000000  0  5
E13        -5.861     -875456.318        4894.401           0.014  
E21        -3.180       33197.523          -0.837           0.361  
E27        -5.218         -90.529           0.495           0.452  
E30        -7.684      -43082.480           0.004           0.686  
E34        -5.361        -111.519           1.115           0.485
> 2025 01 08 17 45 34.0000000  0  5
E13        -6.075     -880354.552        4896.093           0.113  
E21        -5.629       33197.520          -0.877           0.227  
E27        -4.682         -90.516           0.050           0.278  
E30        -1.609      -43082.491          -0.032           0.157  
E34        -6.344        -111.519           0.922           0.546
> 2025 01 08 17 45 35.0000000  0  5
E13        -4.521     -885253.104        4900.099           0.483  
E21        -6.504       33197.539          -1.586           0.274  
E27        -6.040         -90.525          -0.234           0.224  
E30        -2.555      -43082.485           0.001           0.221  
E34        -5.504        -111.530          -0.740           0.589
> 2025 01 08 17 45 36.0000000  0  5
E13        -6.504     -890151.258        4894.635           0.407  
E21        -3.717       33197.529          -1.407           0.402  
E27        -5.164         -90.526           0.092           0.225  
E30        -5.790      -43082.472           0.832           0.186  
E34        -7.540        -111.523          -1.080           0.628
> 2025 01 08 17 45 37.0000000  0  5
E13        -5.057     -895048.871        4897.080           0.319  
E21        -3.234       33197.524           0.290           0.301  
E27        -3.914         -90.524           0.411           0.074  
E30        -5.807      -43082.469          -0.243           0.518  
E34        -5.789        -111.531           0.104           0.501
> 2025 01 08 17 45 38.0000000  0  5
E13        -4.467     -899946.168        4899.887           0.078  
E21        -4.610       33197.537           0.368           0.459  
E27        -3.270         -90.522           0.619          -0.064  
E30        -4.985      -43082.469          -0.003           0.515  
E34        -4.217        -111.531           2.040           0.435
> 2025 01 08 17 45 39.0000000  0  5
E13        -3.288     -904843.172        4895.510           0.362  
E21        -7.379       33197.523          -0.462           0.451  
E27        -4.163         -90.518           0.099           0.060  
E30        -2.377      -43082.484          -0.746           0.259  
E34        -5.468        -111.520           1.805           0.464
> 2025 01 08 17 45 40.0000000  0  5
E13        -2.948     -909739.693        4896.389           0.472  
E21        -3.127       33197.506           0.872           0.074  
E27        -2.841         -90.512          -0.083          -0.102  
E30        -4.378      -43082.496           0.916           0.250  
E34        -5.039        -111.511          -0.713           0.254
> 2025 01 08 17 45 41.0000000  0  5
E13        -6.325     -914635.213        4897.936           0.368  
E21        -5.486       33197.527           0.014          -0.152  
E27        -4.753         -90.524          -0.120           0.378  
E30        -3.252      -43082.461          -2.295           0.076  
E34        -5.217        -111.524           0.379           0.185
> 2025 01 08 17 45 42.0000000  0  5
E13        -7.041     -919530.991        4897.416           0.209  
E21        -5.682       33197.527          -0.082          -0.083  
E27        -5.486         -90.531           0.664           0.197  
E30        -6.326      -43082.476          -0.690           0.265  
E34        -6.397        -111.532          -0.421           0.147
> 2025 01 08 17 45 43.0000000  0  5
E13        -5.700     -924428.029        4895.909           0.151  
E21        -5.290       33197.516          -0.049          -0.119  
E27        -4.593         -90.518          -0.072          -0.048  
E30        -5.290      -43082.482          -0.465           0.343  
E34        -4.432        -111.513           0.918           0.180
> 2025 01 08 17 45 44.0000000  0  5
E13        -2.752     -929323.835        4895.354           0.184  
E21        -6.576       33197.525           0.745           0.020  
E27        -5.986         -90.533          -0.175           0.443  
E30        -6.665      -43082.481          -0.995           0.558  
E34        -1.894        -111.523          -0.260           0.376
> 2025 01 08 17 45 45.0000000  0  5
E13        -3.698     -934218.657        4894.927           0.048  
E21        -4.325       33197.531          -0.664           0.227  
E27        -4.092         -90.525           0.221           0.426  
E30        -5.146      -43082.477           0.828           0.558  
E34        -5.683        -111.525           0.255           0.348
> 2025 01 08 17 45 46.0000000  0  5
E13        -3.449     -939113.120        4898.327           0.137  
E21        -4.163       33197.528           0.213           0.480  
E27        -5.092         -90.518          -0.922           0.305  
E30        -5.540      -43082.477           0.954           0.705  
E34        -6.844        -111.529           0.756           0.532
> 2025 01 08 17 45 47.0000000  0  5
E13        -7.076     -944007.119        4894.893           0.156  
E21        -3.555       33197.521          -1.493           0.350  
E27        -5.290         -90.529          -0.042           0.226  
E30        -4.789      -43082.469          -0.503           0.548  
E34        -6.468        -111.531           0.941           0.589
> 2025 01 08 17 45 48.0000000  0  5
E13        -5.915     -948900.630        4891.300           0.147  
E21        -5.772       33197.524           1.041           0.467  
E27        -4.432         -90.516          -0.714           0.239  
E30        -4.878      -43082.481          -1.589           0.454  
E34        -1.841        -111.508          -0.304           0.717
> 2025 01 08 17 45 49.0000000  0  5
E13        -5.575     -953793.942        4892.920           0.108  
E21        -3.860       33197.512           0.449           0.393  
E27        -5.915         -90.515           0.344           0.310  
E30        -1.894      -43082.491           0.161           0.602  
E34        -5.397        -111.517           0.814           0.575
> 2025 01 08 17 45 50.0000000  0  5
E13        -4.199     -958686.458        4890.467           0.246  
E21        -3.752       33197.510          -0.638           0.243  
E27        -3.699         -90.514           0.068           0.284  
E30        -5.361      -43082.487          -0.828           0.420  
E34        -3.752        -111.512          -0.543           0.022
> 2025 01 08 17 45 51.0000000  0  5
E13        -7.219     -963579.085        4894.110           0.123  
E21        -5.182       33197.530          -0.850           0.245  
E27        -5.486         -90.525          -0.313          -0.120  
E30        -2.895      -43082.478          -1.034           0.241  
E34        -6.469        -111.520           0.331          -0.003
> 2025 01 08 17 45 52.0000000  0  5
E13        -2.287     -968471.490        4891.891           0.279  
E21        -3.234       33197.516          -0.076           0.425  
E27        -2.912         -90.511           0.137           0.107  
E30        -4.789      -43082.485           0.435           0.231  
E34        -5.968        -111.514          -0.421           0.247
> 2025 01 08 17 45 53.0000000  0  5
E13        -5.879     -973361.123        4893.867          -0.056  
E21        -2.770       33197.512          -0.126           0.287  
E27        -4.593         -90.516          -0.732           0.281  
E30        -2.985      -43082.493           0.636           0.286  
E34        -5.200        -111.504          -1.077           0.245
> 2025 01 08 17 45 54.0000000  0  5
E13        -4.717     -978249.979        4890.333           0.298  
E21        -4.378       33197.530           0.551           0.228  
E27        -4.932         -90.523           0.731           0.284  
E30        -4.949      -43082.482          -0.035           0.420  
E34        -5.664        -111.532           0.263           0.360
> 2025 01 08 17 45 55.0000000  0  5
E13        -3.859     -983138.731        4887.930           0.221  
E21        -7.702       33197.542           0.229           0.184  
E27        -5.271         -90.530          -0.050           0.227  
E30        -4.806      -43082.474           0.158           0.359  
E34        -5.361        -111.519          -0.860           0.292
> 2025 01 08 17 45 56.0000000  0  5
E13        -5.986     -988028.403        4893.458           0.495  
E21        -4.038       33197.519          -1.043           0.270  
E27        -4.842         -90.516           0.664           0.044  
E30        -3.198      -43082.484          -1.036           0.529  
E34        -4.289        -111.524          -0.245           0.226
> 2025 01 08 17 45 57.0000000  0  5
E13        -7.665     -992919.375        4887.979           0.331  
E21        -7.398       33197.525           0.440           0.224  
E27        -4.164         -90.524           0.273          -0.008  
E30        -5.611      -43082.472           0.023           0.388  
E34        -7.755        -111.535           0.484           0.051
> 2025 01 08 17 45 58.0000000  0  5
E13        -4.735     -997808.201        4887.580           0.278  
E21        -6.201       33197.529          -0.143           0.351  
E27        -5.110         -90.527          -0.614           0.046  
E30        -7.308      -43082.467          -0.472           0.600  
E34        -3.788        -111.520           0.230          -0.039
> 2025 01 08 17 45 59.0000000  0  5
E13        -6.468    -1002695.945        4889.362           0.355  
E21        -5.039       33197.516           0.699           0.331  
E27        -6.379         -90.524          -0.847           0.099  
E30        -5.825      -43082.468          -0.120           0.576  
E34        -4.717        -111.526           0.807           0.282
> 2025 01 08 17 46  0.0000000  0  5
E13        -3.324    -1007583.450        4885.095           0.454  
E21        -2.734       33197.507          -1.563           0.374  
E27        -3.949         -90.512           0.015           0.073  
E30        -2.770      -43082.497          -1.042           0.462  
E34        -3.395        -111.512          -0.151           0.147
> 2025 01 08 17 46  1.0000000  0  5
E13        -7.040    -1012470.464        4883.458           0.461  
E21        -2.358       33197.512          -0.800           0.409  
E27        -4.753         -90.509          -0.408           0.277  
E30        -3.234      -43082.501           0.672           0.630  
E34        -4.110        -111.518           0.211           0.487
> 2025 01 08 17 46  2.0000000  0  5
E13        -6.719    -1017357.141        4883.726           0.393  
E21        -3.145       33197.526           0.838           0.281  
E27        -4.843         -90.535           0.657           0.260  
E30        -5.611      -43082.477          -0.354           0.521  
E34        -3.092        -111.524          -1.040           0.471
> 2025 01 08 17 46  3.0000000  0  5
E13        -4.700    -1022243.473        4887.437           0.269  
E21        -2.556       33197.532           0.356           0.506  
E27        -4.217         -90.528           0.473           0.220  
E30        -1.501      -43082.476          -0.907           0.196  
E34        -3.771        -111.523           0.574           0.484
> 2025 01 08 17 46  4.0000000  0  5
E13        -4.664    -1027129.397        4887.715           0.311  
E21        -4.449       33197.521          -0.132           0.340  
E27        -5.200         -90.516           0.274          -0.047  
E30        -1.769      -43082.487          -0.273           0.063  
E34        -3.663        -111.511          -0.592           0.754
> 2025 01 08 17 46  5.0000000  0  5
E13        -7.272    -1032014.791        4884.159          -0.011  
E21        -3.931       33197.534          -1.213           0.298  
E27        -5.629         -90.533          -0.439           0.021  
E30        -4.539      -43082.482          -0.618           0.179  
E34        -8.881        -111.524          -0.263           0.633
> 2025 01 08 17 46  6.0000000  0  5
E13        -5.861    -1036899.641        4884.557           0.090  
E21        -5.593       33197.534           0.215           0.515  
E27        -5.164         -90.530          -0.253           0.169  
E30        -5.325      -43082.469           0.113           0.293  
E34        -7.148        -111.529          -1.231           0.674
> 2025 01 08 17 46  7.0000000  0  5
E13        -4.271    -1041784.023        4888.973           0.084  
E21        -5.736       33197.512           0.105           0.226  
E27        -5.236         -90.513           0.231           0.226  
E30        -5.951      -43082.488           0.805           0.271  
E34        -6.254        -111.513           0.150           0.390
> 2025 01 08 17 46  8.0000000  0  5
E13        -7.309    -1046668.252        4884.713           0.393  
E21        -5.539       33197.534           0.242           0.669  
E27        -5.647         -90.532           0.043          -0.020  
E30        -8.630      -43082.460          -0.376           0.221  
E34        -6.093        -111.529          -0.522           0.536
