     3.02           OBSERVATION DATA    GAL                 RINEX VERSION / TYPE
G = GPS  R = GLONASS  E = GALILEO  S = GEO  M = MIXED       COMMENT
GALILEO OBSERVATION DATA FILE GENERATED BY GNSS-SDR         COMMENT
GNSS-SDR VERSION 0.0.19                                     COMMENT
See https://gnss-sdr.org                                    COMMENT
GNSS-SDR            jmfriedt            20250106 190622 UTC PGM / RUN BY / DATE
jmfriedt            CTTC                                    OBSERVER /AGENCY
DEFAULT MARKER NAME                                         MARKER NAME
        0.0000        0.0000        0.0000                  APPROX POSITION XYZ
Antenna number      Antenna type                            ANT # / TYPE
        0.0000        0.0000        0.0000                  ANTENNA: DELTA H/E/N
GNSS-SDR            Software Receiver   0.0.19              REC # / TYPE / VERS
    18    18   137     7                                    LEAP SECONDS
  2025    01    06    18    45   25.14000000     GAL        TIME OF FIRST OBS
E    4 C1B L1B D1B S1B                                      SYS / # / OBS TYPES
                                                            END OF HEADER
> 2025 01 06 18 45  7.0000000  0  4
E11    198306.736     1041801.915                                  
E12    198309.359     1042330.389                                  
E24    198306.267     1041756.121                                  
E25    198306.402     1042489.468
> 2025 01 06 18 45  8.0000000  0  4
E11    198417.065     1042376.187                                  
E12    198413.931     1042904.661                                  
E24    198410.649     1042330.381                                  
E25    198415.558     1043063.733
> 2025 01 06 18 45  9.0000000  0  4
E11    198523.728     1042950.769                                  
E12    198520.445     1043479.245                                  
E24    198521.377     1042904.994                                  
E25    198523.610     1043638.333
> 2025 01 06 18 45 10.0000000  0  4
E11    198633.269     1043525.524                                  
E12    198627.696     1044053.999                                  
E24    198628.703     1043479.739                                  
E25    198631.312     1044213.078
> 2025 01 06 18 45 11.0000000  0  4
E11    198740.372     1044099.892                                  
E12    198739.377     1044628.372                                  
E24    198736.711     1044054.097                                  
E25    198738.652     1044787.451
> 2025 01 06 18 45 12.0000000  0  4
E11    198849.749     1044674.161                                  
E12    198847.900     1045202.627                                  
E24    198847.259     1044628.363                                  
E25    198847.952     1045361.705
> 2025 01 06 18 45 13.0000000  0  4
E11    198957.824     1045248.448                                  
E12    198954.593     1045776.935                                  
E24    198954.845     1045202.666                                  
E25    198957.022     1045936.008
> 2025 01 06 18 45 14.0000000  0  4
E11    199064.827     1045822.608                                  
E12    199060.978     1046351.099                                  
E24    199061.843     1045776.825                                  
E25    199065.229     1046510.165
> 2025 01 06 18 45 15.0000000  0  4
E11    199174.707     1046396.818                                  
E12    199172.589     1046925.288                                  
E24    199169.485     1046351.008                                  
E25    199171.660     1047084.359
> 2025 01 06 18 45 16.0000000  0  4
E11    199281.443     1046971.086                                  
E12    199281.865     1047499.553                                  
E24    199281.870     1046925.287                                  
E25    199280.594     1047658.636
> 2025 01 06 18 45 17.0000000  0  4
E11    199387.755     1047545.503                                  
E12    199388.007     1048073.989                                  
E24    199388.063     1047499.722                                  
E25    199389.377     1048233.061
> 2025 01 06 18 45 18.0000000  0  4
E11    199497.833     1048119.174                                  
E12    199497.304     1048647.659                                  
E24    199495.577     1048073.379                                  
E25    199496.378     1048806.732
> 2025 01 06 18 45 19.0000000  0  4
E11    199606.328     1048692.281                                  
E12    199604.966     1049220.747                                  
E24    199604.494     1048646.497                                  
E25    199605.054     1049379.832
> 2025 01 06 18 45 20.0000000  0  4
E11    199712.430     1049265.948                                  
E12    199712.205     1049794.400                                  
E24    199713.248     1049220.150                                  
E25    199713.189     1049953.482
> 2025 01 06 18 45 21.0000000  0  4
E11    199820.481     1049839.673                                  
E12    199820.905     1050368.131                                  
E24    199820.621     1049793.879                                  
E25    199821.486     1050527.215
> 2025 01 06 18 45 22.0000000  0  4
E11    199926.743     1050413.225                                  
E12    199927.600     1050941.697                                  
E24    199930.738     1050367.426                                  
E25    199929.141     1051100.778
> 2025 01 06 18 45 23.0000000  0  4
E11    200035.827     1050987.074                                  
E12    200038.850     1051515.553                                  
E24    200032.571     1050941.285                                  
E25    200038.596     1051674.632
> 2025 01 06 18 45 24.0000000  0  4
E11    200145.108     1051561.303                                  
E12    200144.805     1052089.768                                  
E24    200147.378     1051515.496                                  
E25    200146.251     1052248.848
> 2025 01 06 18 45 25.0000000  0  4
E11    200252.617     1052135.853                                  
E12    200251.432     1052664.319                                  
E24    200253.331     1052090.063                                  
E25    200253.929     1052823.402
> 2025 01 06 18 45 26.0000000  0  4
E11    200362.668     1052710.104                                  
E12    200363.854     1053238.555                                  
E24    200361.464     1052664.307                                  
E25    200361.957     1053397.653
> 2025 01 06 18 45 27.0000000  0  4
E11    200469.346     1053284.285                                  
E12    200470.328     1053812.747                                  
E24    200470.736     1053238.497                                  
E25    200469.111     1053971.844
> 2025 01 06 18 45 28.0000000  0  4
E11    200577.810     1053858.661                                  
E12    200575.640     1054387.112                                  
E24    200578.400     1053812.858                                  
E25    200579.455     1054546.203
> 2025 01 06 18 45 29.0000000  0  4
E11    200683.205     1054432.490                                  
E12    200689.951     1054960.935                                  
E24    200688.041     1054386.686                                  
E25    200686.198     1055120.032
> 2025 01 06 18 45 30.0000000  0  4
E11    200793.305     1055006.054                                  
E12    200795.677     1055534.523                                  
E24    200793.795     1054960.260                                  
E25    200793.507     1055693.608
> 2025 01 06 18 45 31.0000000  0  4
E11    200902.131     1055580.246                                  
E12    200901.099     1056108.712                                  
E24    200901.850     1055534.466                                  
E25    200902.285     1056267.808
> 2025 01 06 18 45 32.0000000  0  4
E11    201010.326     1056154.077                                  
E12    201009.575     1056682.547                                  
E24    201012.460     1056108.281                                  
E25    201009.739     1056841.621
> 2025 01 06 18 45 33.0000000  0  4
E11    201117.805     1056727.754                                  
E12    201116.978     1057256.214                                  
E24    201120.518     1056681.957                                  
E25    201118.750     1057415.293
> 2025 01 06 18 45 34.0000000  0  4
E11    201226.418     1057301.434                                  
E12    201224.845     1057829.903                                  
E24    201229.098     1057255.635                                  
E25    201225.941     1057988.979
> 2025 01 06 18 45 35.0000000  0  4
E11    201334.345     1057875.137                                  
E12    201334.278     1058403.606                                  
E24    201331.765     1057829.353                                  
E25    201335.442     1058562.694
> 2025 01 06 18 45 36.0000000  0  5
E11    201441.932     1058448.745                                  
E12    201442.206     1058977.213                                  
E24    201440.227     1058402.952                                  
E25    201443.599     1059136.303                                  
E36    201444.199     1058598.363
> 2025 01 06 18 45 37.0000000  0  5
E11    201552.133     1059022.402                                  
E12    201548.728     1059550.865                                  
E24    201550.934     1058976.580                                  
E25    201552.136     1059709.946                                  
E36    201552.636     1059172.013
> 2025 01 06 18 45 38.0000000  0  5
E11    201660.470     1059596.322                                  
E12    201655.404     1060124.762                                  
E24    201658.310     1059550.522                                  
E25    201659.211     1060283.866                                  
E36    201661.496     1059745.937
> 2025 01 06 18 45 39.0000000  0  5
E11    201767.825     1060169.849                                  
E12    201768.013     1060698.329                                  
E24    201770.511     1060124.064                                  
E25    201767.432     1060857.413                                  
E36    201770.113     1060319.482
> 2025 01 06 18 45 40.0000000  0  5
E11    201875.151     1060743.186                                  
E12    201874.907     1061271.632                                  
E24    201872.122     1060697.382                                  
E25    201874.314     1061430.734                                  
E36    201878.017     1060892.812
> 2025 01 06 18 45 41.0000000  0  5
E11    201983.277     1061316.182                                  
E12    201987.530     1061844.651                                  
E24    201983.967     1061270.369                                  
E25    201983.650     1062003.723                                  
E36    201986.306     1061465.800
> 2025 01 06 18 45 42.0000000  0  5
E11    202089.866     1061889.583                                  
E12    202091.958     1062418.034                                  
E24    202091.564     1061843.777                                  
E25    202090.503     1062577.125                                  
E36    202095.566     1062039.201
> 2025 01 06 18 45 43.0000000  0  5
E11    202198.817     1062463.093                                  
E12    202201.203     1062991.558                                  
E24    202196.911     1062417.308                                  
E25    202198.882     1063150.649                                  
E36    202203.700     1062612.721
> 2025 01 06 18 45 44.0000000  0  5
E11    202306.932     1063036.469                                  
E12    202309.110     1063564.928                                  
E24    202308.380     1062990.686                                  
E25    202306.098     1063724.032                                  
E36    202309.545     1063186.108
> 2025 01 06 18 45 45.0000000  0  5
E11    202417.356     1063609.815                                  
E12    202415.061     1064138.267                                  
E24    202414.696     1063563.999                                  
E25    202415.372     1064297.351                                  
E36    202417.410     1063759.436
> 2025 01 06 18 45 46.0000000  0  5
E11    202522.543     1064183.521                                  
E12    202522.471     1064711.965                                  
E24    202523.076     1064137.716                                  
E25    202522.729     1064871.064                                  
E36    202528.377     1064333.144
> 2025 01 06 18 45 47.0000000  0  5
E11    202630.232     1064757.271                                  
E12    202633.918     1065285.723                                  
E24    202631.734     1064711.466                                  
E25    202631.434     1065444.822                                  
E36    202634.410     1064906.907
> 2025 01 06 18 45 48.0000000  0  5
E11    202739.524     1065331.027                                  
E12    202742.169     1065859.490                                  
E24    202738.909     1065285.242                                  
E25    202739.063     1066018.575                                  
E36    202742.222     1065480.665
> 2025 01 06 18 45 49.0000000  0  5
E11    202849.106     1065904.291                                  
E12    202851.837     1066432.742                                  
E24    202849.879     1065858.481                                  
E25    202847.328     1066591.824                                  
E36    202849.069     1066053.918
> 2025 01 06 18 45 50.0000000  0  5
E11    202955.985     1066477.816                                  
E12    202955.969     1067006.258                                  
E24    202957.539     1066431.988                                  
E25    202953.415     1067165.350                                  
E36    202957.210     1066627.434
> 2025 01 06 18 45 51.0000000  0  5
E11    203062.115     1067051.423                                  
E12    203062.886     1067579.867                                  
E24    203061.202     1067005.611                                  
E25    203062.578     1067738.966                                  
E36    203064.689     1067201.054
> 2025 01 06 18 45 52.0000000  0  5
E11    203170.533     1067624.927                                  
E12    203168.569     1068153.399                                  
E24    203171.894     1067579.109                                  
E25    203171.713     1068312.473                                  
E36    203175.086     1067774.564
> 2025 01 06 18 45 53.0000000  0  5
E11    203279.198     1068198.376                                  
E12    203280.725     1068726.836                                  
E24    203279.310     1068152.568                                  
E25    203279.481     1068885.924                                  
E36    203277.498     1068348.016
> 2025 01 06 18 45 54.0000000  0  5
E11    203386.272     1068771.232                                  
E12    203385.284     1069299.671                                  
E24    203387.626     1068725.414                                  
E25    203386.588     1069458.766                                  
E36    203386.874     1068920.856
> 2025 01 06 18 45 55.0000000  0  5
E11    203496.410     1069343.795                                  
E12    203495.077     1069872.239                                  
E24    203494.678     1069297.963                                  
E25    203495.335     1070031.330                                  
E36    203495.475     1069493.415
> 2025 01 06 18 45 56.0000000  0  5
E11    203602.146     1069916.928                                  
E12    203600.696     1070445.383                                  
E24    203602.601     1069871.115                                  
E25    203604.785     1070604.473                                  
E36    203603.900     1070066.572
> 2025 01 06 18 45 57.0000000  0  5
E11    203710.329     1070490.354                                  
E12    203711.158     1071018.808                                  
E24    203710.846     1070444.550                                  
E25    203711.495     1071177.906                                  
E36    203710.731     1070640.003
> 2025 01 06 18 45 58.0000000  0  7
E02    203819.606     1071159.172                                  
E10    203818.219     1071386.768                                  
E11    203817.628     1071063.747                                  
E12    203821.848     1071592.186                                  
E24    203818.792     1071017.926                                  
E25    203819.847     1071751.283                                  
E36    203818.474     1071213.383
> 2025 01 06 18 45 59.0000000  0  7
E02    203927.774     1071732.514                                  
E10    203926.516     1071960.114                                  
E11    203926.435     1071637.096                                  
E12    203925.171     1072165.537                                  
E24    203927.124     1071591.279                                  
E25    203928.583     1072324.633                                  
E36    203923.942     1071786.723
> 2025 01 06 18 46  0.0000000  0  7
E02    204032.911     1072306.138                                  
E10    204035.072     1072533.746                                  
E11    204034.623     1072210.711                                  
E12    204032.772     1072739.162                                  
E24    204033.939     1072164.887                                  
E25    204036.229     1072898.253                                  
E36    204031.783     1072360.349
> 2025 01 06 18 46  1.0000000  0  7
E02    204143.800     1072879.936                                  
E10    204141.817     1073107.531                                  
E11    204144.299     1072784.504                                  
E12    204144.907     1073312.960                                  
E24    204141.942     1072738.689                                  
E25    204143.998     1073472.051                                  
E36    204140.754     1072934.146
> 2025 01 06 18 46  2.0000000  0  7
E02    204251.354     1073453.558                                  
E10    204249.627     1073681.158                                  
E11    204252.193     1073358.135                                  
E12    204248.766     1073886.582                                  
E24    204252.634     1073312.309                                  
E25    204252.129     1074045.677                                  
E36    204250.063     1073507.783
> 2025 01 06 18 46  3.0000000  0  7
E02    204362.598     1074027.019                                  
E10    204356.745     1074254.617                                  
E11    204359.081     1073931.603                                  
E12    204360.959     1074460.031                                  
E24    204357.173     1073885.774                                  
E25    204359.416     1074619.133                                  
E36    204357.160     1074081.231
> 2025 01 06 18 46  4.0000000  0  7
E02    204468.325     1074600.452                                  
E10    204465.561     1074828.057                                  
E11    204466.931     1074505.025                                  
E12    204468.232     1075033.471                                  
E24    204461.750     1074459.193                                  
E25    204468.475     1075192.570                                  
E36    204467.051     1074654.670
> 2025 01 06 18 46  5.0000000  0  7
E02    204575.991     1075173.540                                  
E10    204572.416     1075401.129                                  
E11    204572.980     1075078.104                                  
E12    204572.600     1075606.540                                  
E24    204574.846     1075032.285                                  
E25    204577.824     1075765.643                                  
E36    204574.517     1075227.749
> 2025 01 06 18 46  6.0000000  0  7
E02    204685.338     1075746.125                                  
E10    204682.381     1075973.724                                  
E11    204682.713     1075650.695                                  
E12    204682.692     1076179.152                                  
E24    204680.886     1075604.879                                  
E25    204683.459     1076338.238                                  
E36    204680.774     1075800.338
> 2025 01 06 18 46  7.0000000  0  7
E02    204792.394     1076318.994                                  
E10    204788.665     1076546.583                                  
E11    204789.505     1076223.560                                  
E12    204791.158     1076751.997                                  
E24    204787.941     1076177.751                                  
E25    204792.458     1076911.099                                  
E36    204788.617     1076373.205
> 2025 01 06 18 46  8.0000000  0  7
E02    204899.246     1076892.192                                  
E10    204897.730     1077119.782                                  
E11    204898.455     1076796.766                                  
E12    204899.805     1077325.184                                  
E24    204901.105     1076750.936                                  
E25    204899.409     1077484.295                                  
E36    204897.209     1076946.402
> 2025 01 06 18 46  9.0000000  0  7
E02    205007.657     1077466.230                                  
E10    205006.228     1077693.820                                  
E11    205007.139     1077370.788                                  
E12    205005.216     1077899.238                                  
E24    205008.880     1077324.969                                  
E25    205007.645     1078058.338                                  
E36    205005.773     1077520.441
> 2025 01 06 18 46 10.0000000  0  7
E02    205115.521     1078039.618                                  
E10    205111.804     1078267.210                                  
E11    205115.514     1077944.180                                  
E12    205116.887     1078472.620                                  
E24    205115.004     1077898.361                                  
E25    205117.499     1078631.721                                  
E36    205113.365     1078093.838
> 2025 01 06 18 46 11.0000000  0  7
E02    205223.179     1078612.553                                  
E10    205221.986     1078840.135                                  
E11    205223.020     1078517.119                                  
E12    205225.015     1079045.558                                  
E24    205223.594     1078471.285                                  
E25    205223.778     1079204.652                                  
E36    205219.770     1078666.768
> 2025 01 06 18 46 12.0000000  0  7
E02    205332.587     1079185.600                                  
E10    205329.088     1079413.191                                  
E11    205330.505     1079090.171                                  
E12    205328.467     1079618.605                                  
E24    205331.300     1079044.340                                  
E25    205332.721     1079777.704                                  
E36    205329.427     1079239.818
> 2025 01 06 18 46 13.0000000  0  7
E02    205439.854     1079758.482                                  
E10    205437.361     1079986.067                                  
E11    205436.747     1079663.044                                  
E12    205437.911     1080191.485                                  
E24    205435.204     1079617.216                                  
E25    205441.681     1080350.587                                  
E36    205436.923     1079812.698
> 2025 01 06 18 46 14.0000000  0  7
E02    205544.757     1080331.237                                  
E10    205544.563     1080558.819                                  
E11    205544.811     1080235.786                                  
E12    205543.111     1080764.235                                  
E24    205545.184     1080189.969                                  
E25    205548.166     1080923.338                                  
E36    205542.725     1080385.455
> 2025 01 06 18 46 15.0000000  0  7
E02    205654.201     1080904.417                                  
E10    205653.684     1081131.998                                  
E11    205654.000     1080808.990                                  
E12    205649.870     1081337.401                                  
E24    205654.241     1080763.159                                  
E25    205656.819     1081496.518                                  
E36    205653.471     1080958.631
> 2025 01 06 18 46 16.0000000  0  7
E02    205762.246     1081477.661                                  
E10    205760.533     1081705.248                                  
E11    205760.965     1081382.224                                  
E12    205758.922     1081910.665                                  
E24    205764.012     1081336.393                                  
E25    205763.838     1082069.759                                  
E36    205760.683     1081531.881
> 2025 01 06 18 46 17.0000000  0  7
E02    205871.219     1082050.795                                  
E10    205868.802     1082278.365                                  
E11    205869.687     1081955.343                                  
E12    205870.000     1082483.782                                  
E24    205868.789     1081909.512                                  
E25    205872.066     1082642.886                                  
E36    205868.757     1082105.001
> 2025 01 06 18 46 18.0000000  0  7
E02    205979.656     1082624.211                                  
E10    205975.958     1082851.791                                  
E11    205979.065     1082528.757                                  
E12    205975.929     1083057.205                                  
E24    205974.058     1082482.924                                  
E25    205979.931     1083216.304                                  
E36    205976.634     1082678.426
> 2025 01 06 18 46 19.0000000  0  7
E02    206086.985     1083197.675                                  
E10    206085.700     1083425.251                                  
E11    206085.445     1083102.240                                  
E12    206085.952     1083630.666                                  
E24    206084.303     1083056.400                                  
E25    206088.394     1083789.771                                  
E36    206085.813     1083251.888
> 2025 01 06 18 46 20.0000000  0  7
E02    206194.903     1083770.537                                  
E10    206192.925     1083998.116                                  
E11    206193.734     1083675.100                                  
E12    206193.397     1084203.538                                  
E24    206191.345     1083629.249                                  
E25    206195.427     1084362.621                                  
E36    206193.184     1083824.749
> 2025 01 06 18 46 21.0000000  0  7
E02    206302.838     1084343.214                                  
E10    206300.880     1084570.785                                  
E11    206301.902     1084247.764                                  
E12    206301.973     1084776.193                                  
E24    206301.779     1084201.922                                  
E25    206302.726     1084935.297                                  
E36    206300.220     1084397.422
> 2025 01 06 18 46 22.0000000  0  7
E02    206409.987     1084916.099                                  
E10    206409.655     1085143.683                                  
E11    206409.916     1084820.653                                  
E12    206405.234     1085349.101                                  
E24    206412.882     1084774.828                                  
E25    206412.027     1085508.202                                  
E36    206410.185     1084970.326
> 2025 01 06 18 46 23.0000000  0  7
E02    206518.293     1085489.003                                  
E10    206516.758     1085716.567                                  
E11    206516.691     1085393.549                                  
E12    206516.354     1085921.970                                  
E24    206520.259     1085347.712                                  
E25    206519.142     1086081.084                                  
E36    206517.217     1085543.217
> 2025 01 06 18 46 24.0000000  0  7
E02    206625.861     1086061.844                                  
E10    206625.359     1086289.419                                  
E11    206625.776     1085966.404                                  
E12    206622.814     1086494.832                                  
E24    206625.358     1085920.557                                  
E25    206626.502     1086653.933                                  
E36    206623.545     1086116.061
> 2025 01 06 18 46 25.0000000  0  7
E02    206735.619     1086635.110                                  
E10    206733.570     1086862.688                                  
E11    206734.369     1086539.673                                  
E12    206730.899     1087068.085                                  
E24    206734.935     1086493.829                                  
E25    206735.286     1087227.206                                  
E36    206734.172     1086689.331
> 2025 01 06 18 46 26.0000000  0  7
E02    206841.519     1087207.965                                  
E10    206840.737     1087435.527                                  
E11    206841.986     1087112.507                                  
E12    206841.891     1087640.943                                  
E24    206842.697     1087066.679                                  
E25    206841.995     1087800.050                                  
E36    206838.185     1087262.185
> 2025 01 06 18 46 27.0000000  0  7
E02    206949.424     1087781.069                                  
E10    206947.483     1088008.634                                  
E11    206950.758     1087685.612                                  
E12    206947.676     1088214.049                                  
E24    206952.912     1087639.775                                  
E25    206950.371     1088373.156                                  
E36    206950.588     1087835.295
> 2025 01 06 18 46 28.0000000  0  7
E02    207057.690     1088353.794                                  
E10    207056.648     1088581.359                                  
E11    207057.729     1088258.343                                  
E12    207056.244     1088786.766                                  
E24    207059.690     1088212.486                                  
E25    207058.104     1088945.873                                  
E36    207056.672     1088408.006
> 2025 01 06 18 46 29.0000000  0  7
E02    207167.243     1088926.606                                  
E10    207164.243     1089154.179                                  
E11    207164.979     1088831.164                                  
E12    207164.537     1089359.593                                  
E24    207166.684     1088785.317                                  
E25    207166.393     1089518.692                                  
E36    207165.560     1088980.830
> 2025 01 06 18 46 30.0000000  0  7
E02    207273.901     1089499.940                                  
E10    207272.961     1089727.499                                  
E11    207274.226     1089404.483                                  
E12    207271.640     1089932.899                                  
E24    207276.599     1089358.651                                  
E25    207273.464     1090092.024                                  
E36    207273.071     1089554.153
> 2025 01 06 18 46 31.0000000  0  7
E02    207382.262     1090072.286                                  
E10    207380.925     1090299.853                                  
E11    207380.776     1089976.829                                  
E12    207376.866     1090505.273                                  
E24    207381.455     1089930.998                                  
E25    207381.488     1090664.375                                  
E36    207380.666     1090126.507
> 2025 01 06 18 46 32.0000000  0  7
E02    207488.282     1090644.365                                  
E10    207489.391     1090871.927                                  
E11    207487.955     1090548.913                                  
E12    207484.491     1091077.344                                  
E24    207490.334     1090503.071                                  
E25    207489.295     1091236.442                                  
E36    207489.255     1090698.577
> 2025 01 06 18 46 33.0000000  0  7
E02    207597.562     1091216.994                                  
E10    207596.705     1091444.556                                  
E11    207595.882     1091121.558                                  
E12    207590.556     1091649.965                                  
E24    207599.892     1091075.706                                  
E25    207597.756     1091809.079                                  
E36    207597.417     1091271.213
> 2025 01 06 18 46 34.0000000  0  7
E02    207705.400     1091789.752                                  
E10    207705.581     1092017.311                                  
E11    207704.594     1091694.294                                  
E12    207701.555     1092222.735                                  
E24    207707.280     1091648.452                                  
E25    207704.079     1092381.831                                  
E36    207704.601     1091843.968
> 2025 01 06 18 46 35.0000000  0  7
E02    207812.647     1092362.689                                  
E10    207812.193     1092590.243                                  
E11    207810.693     1092267.226                                  
E12    207807.744     1092795.672                                  
E24    207814.348     1092221.391                                  
E25    207812.618     1092954.766                                  
E36    207813.910     1092416.901
> 2025 01 06 18 46 36.0000000  0  7
E02    207920.872     1092935.536                                  
E10    207920.481     1093163.112                                  
E11    207918.986     1092840.087                                  
E12    207918.132     1093368.508                                  
E24    207922.823     1092794.232                                  
E25    207919.611     1093527.624                                  
E36    207923.407     1092989.765
> 2025 01 06 18 46 37.0000000  0  7
E02    208029.996     1093508.044                                  
E10    208028.115     1093735.595                                  
E11    208028.965     1093412.590                                  
E12    208025.476     1093940.992                                  
E24    208029.060     1093366.736                                  
E25    208028.154     1094100.117                                  
E36    208032.086     1093562.260
> 2025 01 06 18 46 38.0000000  0  7
E02    208138.234     1094080.482                                  
E10    208137.224     1094308.042                                  
E11    208136.970     1093985.031                                  
E12    208135.843     1094513.450                                  
E24    208139.529     1093939.170                                  
E25    208135.797     1094672.553                                  
E36    208137.426     1094134.704
> 2025 01 06 18 46 39.0000000  0  7
E02    208245.508     1094653.313                                  
E10    208243.035     1094880.867                                  
E11    208243.115     1094557.840                                  
E12    208242.907     1095086.271                                  
E24    208243.883     1094511.995                                  
E25    208243.690     1095245.384                                  
E36    208246.887     1094707.532
> 2025 01 06 18 46 40.0000000  0  7
E02    208354.134     1095226.380                                  
E10    208352.641     1095453.939                                  
E11    208351.009     1095130.913                                  
E12    208350.425     1095659.336                                  
E24    208352.918     1095085.086                                  
E25    208353.067     1095818.458                                  
E36    208352.360     1095280.605
> 2025 01 06 18 46 41.0000000  0  7
E02    208462.879     1095799.995                                  
E10    208459.275     1096027.552                                  
E11    208461.026     1095704.546                                  
E12    208456.240     1096232.954                                  
E24    208462.809     1095658.692                                  
E25    208460.513     1096392.069                                  
E36    208460.101     1095854.219
> 2025 01 06 18 46 42.0000000  0  7
E02    208568.842     1096373.199                                  
E10    208567.060     1096600.751                                  
E11    208567.354     1096277.746                                  
E12    208565.783     1096806.161                                  
E24    208568.193     1096231.889                                  
E25    208568.245     1096965.276                                  
E36    208568.442     1096427.418
> 2025 01 06 18 46 43.0000000  0  7
E02    208676.514     1096946.295                                  
E10    208676.110     1097173.853                                  
E11    208675.591     1096850.838                                  
E12    208675.427     1097379.253                                  
E24    208678.099     1096805.000                                  
E25    208676.203     1097538.374                                  
E36    208678.000     1097000.520
> 2025 01 06 18 46 44.0000000  0  7
E02    208786.577     1097519.620                                  
E10    208783.191     1097747.162                                  
E11    208781.280     1097424.144                                  
E12    208781.581     1097952.561                                  
E24    208786.450     1097378.297                                  
E25    208785.119     1098111.681                                  
E36    208786.536     1097573.829
> 2025 01 06 18 46 45.0000000  0  7
E02    208892.031     1098093.781                                  
E10    208893.575     1098321.333                                  
E11    208890.978     1097998.327                                  
E12    208885.994     1098526.730                                  
E24    208891.610     1097952.474                                  
E25    208893.120     1098685.856                                  
E36    208894.276     1098148.010
> 2025 01 06 18 46 46.0000000  0  7
E02    209001.773     1098668.345                                  
E10    209000.676     1098895.889                                  
E11    208998.811     1098572.883                                  
E12    208994.996     1099101.298                                  
E24    209001.152     1098527.039                                  
E25    209001.178     1099260.413                                  
E36    209001.278     1098722.565
> 2025 01 06 18 46 47.0000000  0  7
E02    209107.920     1099241.983                                  
E10    209109.613     1099469.521                                  
E11    209107.014     1099146.507                                  
E12    209104.718     1099674.915                                  
E24    209111.166     1099100.660                                  
E25    209109.550     1099834.050                                  
E36    209108.743     1099296.198
> 2025 01 06 18 46 48.0000000  0  7
E02    209218.767     1099813.985                                  
E10    209216.734     1100041.532                                  
E11    209214.219     1099718.515                                  
E12    209214.183     1100246.940                                  
E24    209222.295     1099672.678                                  
E25    209216.291     1100406.047                                  
E36    209216.103     1099868.201
> 2025 01 06 18 46 49.0000000  0  7
E02    209326.417     1100385.473                                  
E10    209325.377     1100613.019                                  
E11    209324.073     1100290.012                                  
E12    209326.069     1100818.430                                  
E24    209325.748     1100244.151                                  
E25    209324.530     1100977.544                                  
E36    209325.045     1100439.703
> 2025 01 06 18 46 50.0000000  0  7
E02    209432.880     1100957.770                                  
E10    209432.338     1101185.312                                  
E11    209431.671     1100862.309                                  
E12    209428.950     1101390.712                                  
E24    209430.716     1100816.431                                  
E25    209431.882     1101549.825                                  
E36    209434.690     1101011.987
> 2025 01 06 18 46 51.0000000  0  7
E02    209541.498     1101530.128                                  
E10    209539.634     1101757.652                                  
E11    209538.612     1101434.657                                  
E12    209534.546     1101963.063                                  
E24    209537.167     1101388.793                                  
E25    209540.092     1102122.187                                  
E36    209540.967     1101584.348
> 2025 01 06 18 46 52.0000000  0  7
E02    209648.775     1102102.686                                  
E10    209649.947     1102330.221                                  
E11    209647.052     1102007.211                                  
E12    209646.642     1102535.621                                  
E24    209648.537     1101961.386                                  
E25    209646.954     1102694.751                                  
E36    209647.421     1102156.910
> 2025 01 06 18 46 53.0000000  0  7
E02    209758.105     1102674.896                                  
E10    209756.128     1102902.431                                  
E11    209755.376     1102579.421                                  
E12    209751.246     1103107.828                                  
E24    209753.793     1102533.569                                  
E25    209755.721     1103266.960                                  
E36    209758.859     1102729.121
> 2025 01 06 18 46 54.0000000  0  7
E02    209864.175     1103246.950                                  
E10    209863.035     1103474.483                                  
E11    209862.766     1103151.472                                  
E12    209861.179     1103679.882                                  
E24    209864.192     1103105.625                                  
E25    209862.943     1103838.999                                  
E36    209864.274     1103301.164
> 2025 01 06 18 46 55.0000000  0  7
E02    209972.405     1103818.918                                  
E10    209971.290     1104046.455                                  
E11    209968.264     1103723.454                                  
E12    209972.594     1104251.856                                  
E24    209969.601     1103677.597                                  
E25    209970.802     1104410.972                                  
E36    209971.234     1103873.130
> 2025 01 06 18 46 56.0000000  0  7
E02    210079.701     1104390.627                                  
E10    210079.653     1104618.154                                  
E11    210078.012     1104295.149                                  
E12    210074.114     1104823.557                                  
E24    210073.453     1104249.304                                  
E25    210078.600     1104982.681                                  
E36    210080.761     1104444.850
> 2025 01 06 18 46 57.0000000  0  7
E02    210187.201     1104962.406                                  
E10    210186.263     1105189.945                                  
E11    210186.303     1104866.933                                  
E12    210186.633     1105395.355                                  
E24    210186.288     1104821.065                                  
E25    210187.570     1105554.464                                  
E36    210187.357     1105016.625
> 2025 01 06 18 46 58.0000000  0  7
E02    210294.532     1105534.387                                  
E10    210295.186     1105761.909                                  
E11    210293.580     1105438.906                                  
E12    210293.252     1105967.295                                  
E24    210291.303     1105393.058                                  
E25    210292.587     1106126.430                                  
E36    210294.981     1105588.604
> 2025 01 06 18 46 59.0000000  0  7
E02    210403.586     1106106.333                                  
E10    210403.044     1106333.865                                  
E11    210401.116     1106010.873                                  
E12    210400.556     1106539.264                                  
E24    210402.642     1105965.010                                  
E25    210400.744     1106698.386                                  
E36    210403.642     1106160.551
> 2025 01 06 18 47  0.0000000  0  7
E02    210510.241     1106678.286                                  
E10    210509.184     1106905.815                                  
E11    210510.568     1106582.815                                  
E12    210505.359     1107111.215                                  
E24    210511.038     1106536.954                                  
E25    210509.963     1107270.337                                  
E36    210510.422     1106732.504
> 2025 01 06 18 47  1.0000000  0  7
E02    210618.316     1107250.043                                  
E10    210618.896     1107477.570                                  
E11    210616.447     1107154.560                                  
E12    210616.268     1107682.969                                  
E24    210617.519     1107108.704                                  
E25    210616.926     1107842.091                                  
E36    210617.644     1107304.263
> 2025 01 06 18 47  2.0000000  0  7
E02    210726.393     1107822.202                                  
E10    210725.464     1108049.726                                  
E11    210724.731     1107726.724                                  
E12    210727.696     1108255.120                                  
E24    210720.684     1107680.851                                  
E25    210724.377     1108414.248                                  
E36    210725.969     1107876.422
> 2025 01 06 18 47  3.0000000  0  7
E02    210834.304     1108394.731                                  
E10    210833.208     1108622.257                                  
E11    210833.567     1108299.265                                  
E12    210828.474     1108827.658                                  
E24    210830.613     1108253.389                                  
E25    210832.535     1108986.782                                  
E36    210833.354     1108448.953
> 2025 01 06 18 47  4.0000000  0  7
E02    210943.394     1108967.206                                  
E10    210942.514     1109194.733                                  
E11    210939.740     1108871.731                                  
E12    210937.347     1109400.140                                  
E24    210940.261     1108825.879                                  
E25    210940.604     1109559.257                                  
E36    210941.025     1109021.425
> 2025 01 06 18 47  5.0000000  0  7
E02    211049.762     1109539.551                                  
E10    211048.938     1109767.069                                  
E11    211047.675     1109444.061                                  
E12    211045.534     1109972.474                                  
E24    211049.628     1109398.202                                  
E25    211048.620     1110131.591                                  
E36    211049.587     1109593.769
> 2025 01 06 18 47  6.0000000  0  7
E02    211154.442     1110111.742                                  
E10    211157.083     1110339.259                                  
E11    211155.835     1110016.256                                  
E12    211156.340     1110544.666                                  
E24    211155.228     1109970.394                                  
E25    211157.767     1110703.792                                  
E36    211155.985     1110165.960
> 2025 01 06 18 47  7.0000000  0  7
E02    211265.475     1110684.068                                  
E10    211263.584     1110911.579                                  
E11    211263.723     1110588.594                                  
E12    211263.461     1111116.995                                  
E24    211266.507     1110542.721                                  
E25    211264.674     1111276.109                                  
E36    211263.718     1110738.282
> 2025 01 06 18 47  8.0000000  0  7
E02    211372.756     1111256.357                                  
E10    211372.402     1111483.872                                  
E11    211370.446     1111160.880                                  
E12    211368.006     1111689.265                                  
E24    211373.427     1111115.003                                  
E25    211372.069     1111848.406                                  
E36    211374.621     1111310.576
> 2025 01 06 18 47  9.0000000  0  7
E02    211482.529     1111828.538                                  
E10    211480.228     1112056.048                                  
E11    211477.342     1111733.042                                  
E12    211476.061     1112261.444                                  
E24    211484.258     1111687.172                                  
E25    211479.458     1112420.573                                  
E36    211480.853     1111882.758
> 2025 01 06 18 47 10.0000000  0  7
E02    211588.099     1112400.984                                  
E10    211587.599     1112628.495                                  
E11    211586.543     1112305.493                                  
E12    211584.428     1112833.889                                  
E24    211592.200     1112259.618                                  
E25    211588.153     1112993.018                                  
E36    211587.997     1112455.207
> 2025 01 06 18 47 11.0000000  0  7
E02    211696.740     1112973.610                                  
E10    211695.464     1113201.127                                  
E11    211694.263     1112878.137                                  
E12    211690.451     1113406.524                                  
E24    211697.949     1112832.262                                  
E25    211694.402     1113565.655                                  
E36    211695.066     1113027.836
> 2025 01 06 18 47 12.0000000  0  7
E02    211802.762     1113546.091                                  
E10    211801.469     1113773.597                                  
E11    211802.445     1113450.607                                  
E12    211806.224     1113978.988                                  
E24    211805.658     1113404.716                                  
E25    211802.235     1114138.115                                  
E36    211803.802     1113600.300
> 2025 01 06 18 47 13.0000000  0  7
E02    211909.703     1114118.541                                  
E10    211909.125     1114346.050                                  
E11    211909.397     1114023.049                                  
E12    211912.412     1114551.441                                  
E24    211914.906     1113977.175                                  
E25    211909.790     1114710.581                                  
E36    211912.223     1114172.760
> 2025 01 06 18 47 14.0000000  0  7
E02    212018.445     1114690.969                                  
E10    212017.155     1114918.480                                  
E11    212017.806     1114595.473                                  
E12    212016.741     1115123.862                                  
E24    212018.872     1114549.611                                  
E25    212019.614     1115283.006                                  
E36    212018.377     1114745.191
> 2025 01 06 18 47 15.0000000  0  7
E02    212125.985     1115264.059                                  
E10    212126.856     1115491.572                                  
E11    212128.534     1115168.567                                  
E12    212123.065     1115696.965                                  
E24    212128.444     1115122.672                                  
E25    212128.166     1115856.087                                  
E36    212125.670     1115318.272
> 2025 01 06 18 47 16.0000000  0  7
E02    212234.361     1115837.215                                  
E10    212233.075     1116064.726                                  
E11    212233.283     1115741.735                                  
E12    212234.635     1116270.097                                  
E24    212236.340     1115695.838                                  
E25    212235.571     1116429.252                                  
E36    212233.503     1115891.435
> 2025 01 06 18 47 17.0000000  0  7
E02    212340.791     1116410.061                                  
E10    212342.142     1116637.573                                  
E11    212341.693     1116314.573                                  
E12    212347.553     1116842.965                                  
E24    212345.073     1116268.692                                  
E25    212343.505     1117002.094                                  
E36    212342.431     1116464.276
> 2025 01 06 18 47 18.0000000  0  7
E02    212450.260     1116983.344                                  
E10    212450.049     1117210.857                                  
E11    212450.728     1116887.858                                  
E12    212450.671     1117416.247                                  
E24    212451.969     1116841.976                                  
E25    212449.327     1117575.385                                  
E36    212450.176     1117037.572
> 2025 01 06 18 47 19.0000000  0  7
E02    212559.933     1117556.671                                  
E10    212557.614     1117784.182                                  
E11    212558.537     1117461.183                                  
E12    212553.384     1117989.571                                  
E24    212558.944     1117415.301                                  
E25    212558.184     1118148.702                                  
E36    212559.593     1117610.890
> 2025 01 06 18 47 20.0000000  0  7
E02    212668.871     1118130.214                                  
E10    212665.118     1118357.718                                  
E11    212667.468     1118034.739                                  
E12    212659.883     1118563.103                                  
E24    212669.820     1117988.845                                  
E25    212665.738     1118722.245                                  
E36    212665.169     1118184.445
> 2025 01 06 18 47 21.0000000  0  7
E02    212775.058     1118703.499                                  
E10    212772.864     1118931.008                                  
E11    212773.530     1118608.010                                  
E12    212772.017     1119136.389                                  
E24    212773.040     1118562.119                                  
E25    212774.389     1119295.524                                  
E36    212774.699     1118757.724
> 2025 01 06 18 47 22.0000000  0  7
E02    212883.294     1119276.498                                  
E10    212881.316     1119503.996                                  
E11    212881.560     1119180.990                                  
E12    212880.751     1119709.384                                  
E24    212879.564     1119135.117                                  
E25    212881.132     1119868.521                                  
E36    212882.022     1119330.716
> 2025 01 06 18 47 23.0000000  0  7
E02    212991.643     1119849.276                                  
E10    212988.376     1120076.780                                  
E11    212989.736     1119753.784                                  
E12    212987.190     1120282.183                                  
E24    212989.854     1119707.917                                  
E25    212988.708     1120441.307                                  
E36    212991.437     1119903.512
> 2025 01 06 18 47 24.0000000  0  7
E02    213098.595     1120421.443                                  
E10    213095.260     1120648.941                                  
E11    213097.660     1120325.952                                  
E12    213093.349     1120854.326                                  
E24    213099.966     1120280.073                                  
E25    213097.221     1121013.467                                  
E36    213098.214     1120475.662
> 2025 01 06 18 47 25.0000000  0  7
E02    213205.245     1120993.492                                  
E10    213203.040     1121220.988                                  
E11    213206.197     1120898.000                                  
E12    213204.331     1121426.389                                  
E24    213205.822     1120852.114                                  
E25    213205.202     1121585.520                                  
E36    213206.345     1121047.723
> 2025 01 06 18 47 26.0000000  0  7
E02    213312.525     1121565.863                                  
E10    213310.087     1121793.359                                  
E11    213313.887     1121470.358                                  
E12    213313.522     1121998.756                                  
E24    213312.288     1121424.478                                  
E25    213311.667     1122157.885                                  
E36    213313.459     1121620.087
> 2025 01 06 18 47 27.0000000  0  7
E02    213420.486     1122138.519                                  
E10    213419.059     1122366.024                                  
E11    213419.297     1122043.025                                  
E12    213418.176     1122571.399                                  
E24    213420.482     1121997.146                                  
E25    213419.953     1122730.548                                  
E36    213421.833     1122192.755
> 2025 01 06 18 47 28.0000000  0  7
E02    213528.626     1122711.078                                  
E10    213527.887     1122938.575                                  
E11    213527.144     1122615.589                                  
E12    213524.531     1123143.962                                  
E24    213529.619     1122569.705                                  
E25    213526.853     1123303.102                                  
E36    213529.230     1122765.301
> 2025 01 06 18 47 29.0000000  0  7
E02    213635.835     1123283.729                                  
E10    213636.308     1123511.227                                  
E11    213636.325     1123188.232                                  
E12    213635.470     1123716.611                                  
E24    213641.229     1123142.340                                  
E25    213635.044     1123875.751                                  
E36    213638.684     1123337.955
> 2025 01 06 18 47 30.0000000  0  7
E02    213744.273     1123856.928                                  
E10    213743.967     1124084.416                                  
E11    213742.193     1123761.431                                  
E12    213739.259     1124289.811                                  
E24    213745.784     1123715.540                                  
E25    213743.789     1124448.945                                  
E36    213744.437     1123911.148
> 2025 01 06 18 47 31.0000000  0  7
E02    213854.542     1124428.858                                  
E10    213850.828     1124656.356                                  
E11    213853.283     1124333.363                                  
E12    213852.395     1124861.740                                  
E24    213851.152     1124287.478                                  
E25    213850.825     1125020.883                                  
E36    213851.578     1124483.079
> 2025 01 06 18 47 32.0000000  0  7
E02    213962.235     1125000.855                                  
E10    213958.422     1125228.344                                  
E11    213959.683     1124905.355                                  
E12    213962.888     1125433.716                                  
E24    213956.326     1124859.469                                  
E25    213958.080     1125592.873                                  
E36    213959.257     1125055.074
> 2025 01 06 18 47 33.0000000  0  7
E02    214067.481     1125572.515                                  
E10    214066.742     1125800.004                                  
E11    214069.490     1125477.031                                  
E12    214066.572     1126005.395                                  
E24    214066.850     1125431.110                                  
E25    214066.173     1126164.529                                  
E36    214067.600     1125626.742
> 2025 01 06 18 47 34.0000000  0  7
E02    214175.376     1126144.659                                  
E10    214174.507     1126372.149                                  
E11    214176.078     1126049.163                                  
E12    214174.491     1126577.524                                  
E24    214170.489     1126003.265                                  
E25    214173.903     1126736.677                                  
E36    214175.053     1126198.878
> 2025 01 06 18 47 35.0000000  0  7
E02    214284.527     1126717.387                                  
E10    214281.278     1126944.877                                  
E11    214283.612     1126621.878                                  
E12    214285.105     1127150.254                                  
E24    214280.596     1126575.995                                  
E25    214282.480     1127309.394                                  
E36    214282.919     1126771.615
> 2025 01 06 18 47 36.0000000  0  7
E02    214393.039     1127290.827                                  
E10    214390.340     1127518.312                                  
E11    214391.538     1127195.317                                  
E12    214394.758     1127723.698                                  
E24    214389.734     1127149.425                                  
E25    214389.784     1127882.833                                  
E36    214390.980     1127345.050
> 2025 01 06 18 47 37.0000000  0  7
E02    214500.357     1127864.047                                  
E10    214497.460     1128091.532                                  
E11    214500.856     1127768.552                                  
E12    214496.961     1128296.906                                  
E24    214496.374     1127722.648                                  
E25    214497.426     1128456.057                                  
E36    214498.904     1127918.274
> 2025 01 06 18 47 38.0000000  0  7
E02    214607.936     1128437.194                                  
E10    214605.764     1128664.673                                  
E11    214607.529     1128341.690                                  
E12    214603.875     1128870.061                                  
E24    214604.028     1128295.785                                  
E25    214604.668     1129029.191                                  
E36    214608.278     1128491.410
> 2025 01 06 18 47 39.0000000  0  7
E02    214714.746     1129010.534                                  
E10    214714.590     1129238.021                                  
E11    214715.111     1128915.017                                  
E12    214716.560     1129443.396                                  
E24    214714.439     1128869.132                                  
E25    214715.008     1129602.541                                  
E36    214715.761     1129064.762
> 2025 01 06 18 47 40.0000000  0  7
E02    214825.067     1129583.844                                  
E10    214822.513     1129811.329                                  
E11    214821.710     1129488.337                                  
E12    214819.634     1130016.717                                  
E24    214822.390     1129442.444                                  
E25    214821.020     1130175.853                                  
E36    214824.438     1129638.072
> 2025 01 06 18 47 41.0000000  0  7
E02    214931.891     1130156.674                                  
E10    214930.112     1130384.161                                  
E11    214932.348     1130061.178                                  
E12    214931.354     1130589.554                                  
E24    214927.204     1130015.274                                  
E25    214929.805     1130748.683                                  
E36    214931.655     1130210.906
> 2025 01 06 18 47 42.0000000  0  7
E02    215036.786     1130728.714                                  
E10    215037.049     1130956.200                                  
E11    215039.410     1130633.214                                  
E12    215036.279     1131161.569                                  
E24    215036.253     1130587.315                                  
E25    215039.406     1131320.718                                  
E36    215039.364     1130782.947
> 2025 01 06 18 47 43.0000000  0  7
E02    215144.810     1131300.830                                  
E10    215144.000     1131528.318                                  
E11    215148.395     1131205.330                                  
E12    215146.929     1131733.707                                  
E24    215141.857     1131159.436                                  
E25    215145.435     1131892.843                                  
E36    215149.699     1131355.066
> 2025 01 06 18 47 44.0000000  0  7
E02    215254.785     1131873.346                                  
E10    215253.239     1132100.820                                  
E11    215256.555     1131777.830                                  
E12    215252.339     1132306.216                                  
E24    215248.186     1131731.942                                  
E25    215252.983     1132465.349                                  
E36    215252.335     1131927.570
> 2025 01 06 18 47 45.0000000  0  7
E02    215365.802     1132446.233                                  
E10    215359.581     1132673.705                                  
E11    215362.269     1132350.720                                  
E12    215360.679     1132879.089                                  
E24    215359.155     1132304.810                                  
E25    215361.254     1133038.233                                  
E36    215361.398     1132500.461
> 2025 01 06 18 47 46.0000000  0  7
E02    215470.144     1133018.478                                  
E10    215469.835     1133245.949                                  
E11    215469.913     1132922.967                                  
E12    215467.114     1133451.326                                  
E24    215468.222     1132877.072                                  
E25    215469.007     1133610.480                                  
E36    215470.921     1133072.693
> 2025 01 06 18 47 47.0000000  0  7
E02    215579.046     1133590.120                                  
E10    215577.545     1133817.593                                  
E11    215579.609     1133494.606                                  
E12    215576.425     1134022.981                                  
E24    215574.454     1133448.711                                  
E25    215577.584     1134182.121                                  
E36    215579.449     1133644.347
> 2025 01 06 18 47 48.0000000  0  7
E02    215687.412     1134162.255                                  
E10    215683.781     1134389.729                                  
E11    215685.557     1134066.738                                  
E12    215682.974     1134595.114                                  
E24    215685.682     1134020.841                                  
E25    215685.234     1134754.257                                  
E36    215686.381     1134216.492
> 2025 01 06 18 47 49.0000000  0  7
E02    215793.592     1134735.307                                  
E10    215793.186     1134962.785                                  
E11    215794.808     1134639.795                                  
E12    215793.310     1135168.163                                  
E24    215796.424     1134593.902                                  
E25    215794.696     1135327.306                                  
E36    215792.334     1134789.541
> 2025 01 06 18 47 50.0000000  0  7
E02    215904.575     1135307.969                                  
E10    215901.051     1135535.431                                  
E11    215901.612     1135212.458                                  
E12    215899.290     1135740.822                                  
E24    215899.286     1135166.544                                  
E25    215900.357     1135899.965                                  
E36    215900.567     1135362.191
> 2025 01 06 18 47 51.0000000  0  7
E02    216011.486     1135880.386                                  
E10    216009.183     1136107.856                                  
E11    216009.879     1135784.869                                  
E12    216004.456     1136313.236                                  
E24    216008.517     1135738.964                                  
E25    216009.537     1136472.381                                  
E36    216008.261     1135934.609
> 2025 01 06 18 47 52.0000000  0  7
E02    216117.625     1136452.868                                  
E10    216116.737     1136680.339                                  
E11    216118.707     1136357.343                                  
E12    216115.955     1136885.720                                  
E24    216115.508     1136311.449                                  
E25    216116.830     1137044.866                                  
E36    216116.663     1136507.092
> 2025 01 06 18 47 53.0000000  0  7
E02    216225.979     1137024.869                                  
E10    216221.858     1137252.334                                  
E11    216225.159     1136929.345                                  
E12    216223.873     1137457.709                                  
E24    216226.679     1136883.452                                  
E25    216225.414     1137616.867                                  
E36    216224.678     1137079.092
> 2025 01 06 18 47 54.0000000  0  7
E02    216330.987     1137596.585                                  
E10    216332.362     1137824.051                                  
E11    216333.107     1137501.074                                  
E12    216331.823     1138029.433                                  
E24    216330.357     1137455.165                                  
E25    216334.302     1138188.579                                  
E36    216331.961     1137650.811
> 2025 01 06 18 47 55.0000000  0  7
E02    216439.884     1138169.117                                  
E10    216439.568     1138396.579                                  
E11    216441.130     1138073.594                                  
E12    216441.194     1138601.951                                  
E24    216436.767     1138027.689                                  
E25    216441.902     1138761.104                                  
E36    216437.508     1138223.331
> 2025 01 06 18 47 56.0000000  0  7
E02    216548.532     1138742.027                                  
E10    216546.806     1138969.479                                  
E11    216547.473     1138646.497                                  
E12    216547.002     1139174.868                                  
E24    216548.012     1138600.603                                  
E25    216549.747     1139334.014                                  
E36    216546.614     1138796.258
> 2025 01 06 18 47 57.0000000  0  7
E02    216655.379     1139315.539                                  
E10    216655.560     1139542.992                                  
E11    216655.931     1139220.007                                  
E12    216659.494     1139748.382                                  
E24    216653.630     1139174.108                                  
E25    216656.511     1139907.532                                  
E36    216654.318     1139369.762
> 2025 01 06 18 47 58.0000000  0  7
E02    216763.124     1139889.104                                  
E10    216763.406     1140116.553                                  
E11    216764.222     1139793.574                                  
E12    216763.855     1140321.944                                  
E24    216762.700     1139747.664                                  
E25    216765.488     1140481.084                                  
E36    216764.389     1139943.319
> 2025 01 06 18 47 59.0000000  0  7
E02    216871.359     1140462.035                                  
E10    216872.170     1140689.489                                  
E11    216875.442     1140366.520                                  
E12    216871.571     1140894.872                                  
E24    216870.412     1140320.605                                  
E25    216872.603     1141054.028                                  
E36    216873.283     1140516.266
> 2025 01 06 18 48  0.0000000  0  7
E02    216978.321     1141034.728                                  
E10    216978.121     1141262.184                                  
E11    216983.022     1140939.196                                  
E12    216981.976     1141467.572                                  
E24    216978.530     1140893.298                                  
E25    216979.018     1141626.713                                  
E36    216980.559     1141088.958
> 2025 01 06 18 48  1.0000000  0  7
E02    217087.956     1141606.893                                  
E10    217087.305     1141834.348                                  
E11    217088.953     1141511.371                                  
E12    217087.857     1142039.727                                  
E24    217085.542     1141465.461                                  
E25    217087.124     1142198.881                                  
E36    217089.198     1141661.120
> 2025 01 06 18 48  2.0000000  0  7
E02    217198.270     1142179.219                                  
E10    217195.480     1142406.665                                  
E11    217195.836     1142083.687                                  
E12    217194.361     1142612.041                                  
E24    217195.862     1142037.774                                  
E25    217196.681     1142771.200                                  
E36    217197.006     1142233.449
> 2025 01 06 18 48  3.0000000  0  7
E02    217303.299     1142751.671                                  
E10    217301.008     1142979.117                                  
E11    217302.820     1142656.150                                  
E12    217301.502     1143184.504                                  
E24    217302.462     1142610.229                                  
E25    217303.093     1143343.654                                  
E36    217304.616     1142805.896
> 2025 01 06 18 48  4.0000000  0  7
E02    217410.236     1143323.817                                  
E10    217410.477     1143551.269                                  
E11    217410.527     1143228.294                                  
E12    217412.774     1143756.664                                  
E24    217412.254     1143182.387                                  
E25    217412.860     1143915.801                                  
E36    217410.993     1143378.044
> 2025 01 06 18 48  5.0000000  0  7
E02    217519.204     1143895.713                                  
E10    217517.373     1144123.153                                  
E11    217517.969     1143800.167                                  
E12    217518.837     1144328.533                                  
E24    217518.808     1143754.271                                  
E25    217520.096     1144487.691                                  
E36    217520.945     1143949.939
> 2025 01 06 18 48  6.0000000  0  7
E02    217627.149     1144467.663                                  
E10    217624.640     1144695.096                                  
E11    217628.408     1144372.121                                  
E12    217627.984     1144900.495                                  
E24    217624.019     1144326.211                                  
E25    217626.350     1145059.638                                  
E36    217628.560     1144521.882
> 2025 01 06 18 48  7.0000000  0  7
E02    217732.778     1145039.716                                  
E10    217733.442     1145267.156                                  
E11    217732.722     1144944.184                                  
E12    217732.431     1145472.530                                  
E24    217733.494     1144898.278                                  
E25    217734.921     1145631.686                                  
E36    217734.948     1145093.943
> 2025 01 06 18 48  8.0000000  0  7
E02    217839.744     1145611.221                                  
E10    217841.206     1145838.664                                  
E11    217842.755     1145515.693                                  
E12    217838.355     1146044.046                                  
E24    217839.158     1145469.774                                  
E25    217842.881     1146203.192                                  
E36    217844.256     1145665.447
> 2025 01 06 18 48  9.0000000  0  7
E02    217948.125     1146183.572                                  
E10    217948.396     1146411.030                                  
E11    217949.790     1146088.029                                  
E12    217944.501     1146616.413                                  
E24    217950.482     1146042.134                                  
E25    217950.096     1146775.548                                  
E36    217952.822     1146237.802
> 2025 01 06 18 48 10.0000000  0  7
E02    218054.658     1146754.906                                  
E10    218056.068     1146982.351                                  
E11    218056.075     1146659.369                                  
E12    218056.740     1147187.729                                  
E24    218057.142     1146613.447                                  
E25    218058.806     1147346.890                                  
E36    218058.453     1146809.138
> 2025 01 06 18 48 11.0000000  0  7
E02    218164.315     1147326.007                                  
E10    218163.868     1147553.450                                  
E11    218163.928     1147230.481                                  
E12    218163.164     1147758.834                                  
E24    218164.424     1147184.563                                  
E25    218164.497     1147917.981                                  
E36    218164.442     1147380.243
> 2025 01 06 18 48 12.0000000  0  7
E02    218271.664     1147897.765                                  
E10    218271.107     1148125.218                                  
E11    218271.919     1147802.247                                  
E12    218266.544     1148330.580                                  
E24    218275.318     1147756.312                                  
E25    218274.617     1148489.742                                  
E36    218269.406     1147952.004
> 2025 01 06 18 48 13.0000000  0  7
E02    218379.564     1148469.757                                  
E10    218378.711     1148697.200                                  
E11    218380.704     1148374.225                                  
E12    218379.981     1148902.580                                  
E24    218381.622     1148328.297                                  
E25    218383.078     1149061.734                                  
E36    218380.102     1148523.994
> 2025 01 06 18 48 14.0000000  0  7
E02    218489.553     1149041.713                                  
E10    218486.958     1149269.157                                  
E11    218485.584     1148946.179                                  
E12    218485.892     1149474.524                                  
E24    218488.107     1148900.256                                  
E25    218489.788     1149633.684                                  
E36    218488.220     1149095.951
> 2025 01 06 18 48 15.0000000  0  7
E02    218593.854     1149613.761                                  
E10    218594.436     1149841.197                                  
E11    218597.542     1149518.223                                  
E12    218595.520     1150046.569                                  
E24    218599.225     1149472.309                                  
E25    218598.404     1150205.729                                  
E36    218594.007     1149667.987
> 2025 01 06 18 48 16.0000000  0  7
E02    218703.897     1150186.157                                  
E10    218700.921     1150413.595                                  
E11    218705.440     1150090.625                                  
E12    218703.160     1150618.975                                  
E24    218700.604     1150044.710                                  
E25    218705.045     1150778.127                                  
E36    218702.433     1150240.394
> 2025 01 06 18 48 17.0000000  0  7
E02    218811.010     1150758.439                                  
E10    218810.032     1150985.875                                  
E11    218811.289     1150662.906                                  
E12    218810.718     1151191.245                                  
E24    218809.798     1150616.984                                  
E25    218814.000     1151350.408                                  
E36    218808.789     1150812.669
> 2025 01 06 18 48 18.0000000  0  7
E02    218919.262     1151330.301                                  
E10    218918.541     1151557.733                                  
E11    218920.073     1151234.759                                  
E12    218923.893     1151763.131                                  
E24    218919.219     1151188.840                                  
E25    218921.159     1151922.266                                  
E36    218918.369     1151384.530
> 2025 01 06 18 48 19.0000000  0  7
E02    219026.648     1151902.065                                  
E10    219025.646     1152129.492                                  
E11    219026.673     1151806.518                                  
E12    219027.738     1152334.874                                  
E24    219029.332     1151760.608                                  
E25    219029.495     1152494.028                                  
E36    219025.894     1151956.288
> 2025 01 06 18 48 20.0000000  0  7
E02    219133.812     1152473.997                                  
E10    219132.638     1152701.437                                  
E11    219134.881     1152378.468                                  
E12    219134.225     1152906.802                                  
E24    219132.441     1152332.543                                  
E25    219136.715     1153065.970                                  
E36    219135.629     1152528.232
> 2025 01 06 18 48 21.0000000  0  7
E02    219241.079     1153045.926                                  
E10    219240.614     1153273.360                                  
E11    219242.867     1152950.393                                  
E12    219238.411     1153478.734                                  
E24    219242.417     1152904.470                                  
E25    219244.456     1153637.894                                  
E36    219242.434     1153100.159
> 2025 01 06 18 48 22.0000000  0  7
E02    219350.216     1153617.876                                  
E10    219349.246     1153845.308                                  
E11    219348.787     1153522.336                                  
E12    219346.580     1154050.677                                  
E24    219347.468     1153476.402                                  
E25    219351.507     1154209.839                                  
E36    219349.860     1153672.106
> 2025 01 06 18 48 23.0000000  0  7
E02    219454.898     1154189.743                                  
E10    219455.802     1154417.171                                  
E11    219459.273     1154094.199                                  
E12    219456.471     1154622.535                                  
E24    219456.451     1154048.282                                  
E25    219459.715     1154781.702                                  
E36    219457.249     1154243.974
> 2025 01 06 18 48 24.0000000  0  7
E02    219566.118     1154761.324                                  
E10    219564.319     1154988.748                                  
E11    219566.837     1154665.793                                  
E12    219565.041     1155194.137                                  
E24    219564.077     1154619.858                                  
E25    219567.017     1155353.275                                  
E36    219564.430     1154815.547
> 2025 01 06 18 48 25.0000000  0  7
E02    219673.074     1155332.988                                  
E10    219672.284     1155560.416                                  
E11    219672.412     1155237.451                                  
E12    219675.731     1155765.790                                  
E24    219669.350     1155191.520                                  
E25    219673.498     1155924.950                                  
E36    219672.691     1155387.223
> 2025 01 06 18 48 26.0000000  0  7
E02    219779.975     1155904.765                                  
E10    219779.987     1156132.194                                  
E11    219779.890     1155809.218                                  
E12    219776.579     1156337.554                                  
E24    219777.416     1155763.295                                  
E25    219780.990     1156496.727                                  
E36    219780.939     1155959.002
> 2025 01 06 18 48 27.0000000  0  7
E02    219889.526     1156476.606                                  
E10    219886.210     1156704.034                                  
E11    219888.983     1156381.059                                  
E12    219887.259     1156909.423                                  
E24    219887.878     1156335.152                                  
E25    219887.762     1157068.573                                  
E36    219887.333     1156530.849
> 2025 01 06 18 48 28.0000000  0  7
E02    219996.302     1157048.222                                  
E10    219995.554     1157275.646                                  
E11    219996.043     1156952.688                                  
E12    219993.209     1157481.019                                  
E24    219996.028     1156906.754                                  
E25    219996.460     1157640.176                                  
E36    219996.117     1157102.449
> 2025 01 06 18 48 29.0000000  0  7
E02    220104.106     1157619.937                                  
E10    220102.323     1157847.354                                  
E11    220105.485     1157524.385                                  
E12    220103.839     1158052.720                                  
E24    220101.165     1157478.457                                  
E25    220104.961     1158211.887                                  
E36    220104.117     1157674.162
> 2025 01 06 18 48 30.0000000  0  7
E02    220209.049     1158191.505                                  
E10    220209.891     1158418.930                                  
E11    220212.232     1158095.970                                  
E12    220209.050     1158624.328                                  
E24    220209.157     1158050.035                                  
E25    220212.309     1158783.460                                  
E36    220210.704     1158245.737
> 2025 01 06 18 48 31.0000000  0  7
E02    220319.097     1158763.009                                  
E10    220318.526     1158990.446                                  
E11    220319.418     1158667.467                                  
E12    220321.904     1159195.798                                  
E24    220317.124     1158621.539                                  
E25    220319.669     1159354.970                                  
E36    220318.998     1158817.246
> 2025 01 06 18 48 32.0000000  0  7
E02    220426.417     1159334.453                                  
E10    220425.693     1159561.878                                  
E11    220426.076     1159238.902                                  
E12    220420.270     1159767.238                                  
E24    220424.584     1159192.979                                  
E25    220427.009     1159926.398                                  
E36    220425.732     1159388.687
> 2025 01 06 18 48 33.0000000  0  7
E02    220533.828     1159905.868                                  
E10    220533.773     1160133.290                                  
E11    220534.773     1159810.327                                  
E12    220528.525     1160338.660                                  
E24    220534.973     1159764.392                                  
E25    220536.227     1160497.820                                  
E36    220535.163     1159960.110
> 2025 01 06 18 48 34.0000000  0  7
E02    220641.625     1160477.141                                  
E10    220640.864     1160704.558                                  
E11    220642.761     1160381.592                                  
E12    220638.889     1160909.913                                  
E24    220639.159     1160335.648                                  
E25    220643.250     1161069.095                                  
E36    220638.796     1160531.376
> 2025 01 06 18 48 35.0000000  0  7
E02    220748.903     1161048.200                                  
E10    220748.671     1161275.606                                  
E11    220751.641     1160952.636                                  
E12    220748.630     1161480.985                                  
E24    220747.669     1160906.708                                  
E25    220750.524     1161640.141                                  
E36    220750.295     1161102.429
> 2025 01 06 18 48 36.0000000  0  7
E02    220855.477     1161619.190                                  
E10    220855.194     1161846.607                                  
E11    220856.648     1161523.629                                  
E12    220851.816     1162051.958                                  
E24    220857.008     1161477.704                                  
E25    220856.901     1162211.132                                  
E36    220856.538     1161673.422
> 2025 01 06 18 48 37.0000000  0  7
E02    220963.024     1162189.727                                  
E10    220962.171     1162417.150                                  
E11    220963.910     1162094.185                                  
E12    220959.384     1162622.502                                  
E24    220964.647     1162048.238                                  
E25    220964.430     1162781.677                                  
E36    220964.888     1162243.968
> 2025 01 06 18 48 38.0000000  0  7
E02    221072.061     1162759.991                                  
E10    221071.433     1162987.403                                  
E11    221072.719     1162664.454                                  
E12    221067.377     1163192.777                                  
E24    221071.299     1162618.512                                  
E25    221073.018     1163351.937                                  
E36    221072.913     1162814.233
> 2025 01 06 18 48 39.0000000  0  7
E02    221179.374     1163330.771                                  
E10    221177.312     1163558.184                                  
E11    221179.790     1163235.215                                  
E12    221170.330     1163763.569                                  
E24    221178.388     1163189.279                                  
E25    221180.382     1163922.717                                  
E36    221179.181     1163385.006
> 2025 01 06 18 48 40.0000000  0  7
E02    221285.352     1163901.680                                  
E10    221285.811     1164129.092                                  
E11    221287.677     1163806.124                                  
E12    221282.061     1164334.464                                  
E24    221289.154     1163760.204                                  
E25    221287.668     1164493.629                                  
E36    221288.416     1163955.914
> 2025 01 06 18 48 41.0000000  0  7
E02    221394.152     1164472.689                                  
E10    221393.609     1164700.102                                  
E11    221394.797     1164377.135                                  
E12    221390.276     1164905.450                                  
E24    221392.250     1164331.194                                  
E25    221395.037     1165064.633                                  
E36    221395.990     1164526.923
> 2025 01 06 18 48 42.0000000  0  7
E02    221499.961     1165043.942                                  
E10    221499.826     1165271.357                                  
E11    221502.124     1164948.396                                  
E12    221499.891     1165476.716                                  
E24    221499.541     1164902.460                                  
E25    221502.903     1165635.885                                  
E36    221502.284     1165098.175
> 2025 01 06 18 48 43.0000000  0  7
E02    221611.220     1165615.021                                  
E10    221609.933     1165842.437                                  
E11    221610.616     1165519.467                                  
E12    221608.552     1166047.805                                  
E24    221608.752     1165473.526                                  
E25    221610.279     1166206.969                                  
E36    221610.207     1165669.269
> 2025 01 06 18 48 44.0000000  0  7
E02    221716.496     1166185.632                                  
E10    221715.743     1166413.036                                  
E11    221717.592     1166090.067                                  
E12    221714.973     1166618.404                                  
E24    221718.374     1166044.140                                  
E25    221717.397     1166777.575                                  
E36    221720.014     1166239.861
> 2025 01 06 18 48 45.0000000  0  7
E02    221825.087     1166756.220                                  
E10    221824.084     1166983.622                                  
E11    221824.686     1166660.654                                  
E12    221823.399     1167188.993                                  
E24    221824.902     1166614.712                                  
E25    221824.907     1167348.159                                  
E36    221824.303     1166810.450
> 2025 01 06 18 48 46.0000000  0  7
E02    221930.574     1167326.755                                  
E10    221931.139     1167554.160                                  
E11    221931.990     1167231.206                                  
E12    221926.481     1167759.522                                  
E24    221933.012     1167185.256                                  
E25    221934.039     1167918.692                                  
E36    221930.288     1167380.979
> 2025 01 06 18 48 47.0000000  0  7
E02    222037.638     1167897.436                                  
E10    222041.208     1168124.840                                  
E11    222041.017     1167801.875                                  
E12    222037.109     1168330.206                                  
E24    222037.681     1167755.932                                  
E25    222038.967     1168489.371                                  
E36    222041.277     1167951.674
> 2025 01 06 18 48 48.0000000  0  7
E02    222148.936     1168468.126                                  
E10    222148.435     1168695.533                                  
E11    222148.388     1168372.552                                  
E12    222144.278     1168900.899                                  
E24    222146.344     1168326.620                                  
E25    222147.759     1169060.062                                  
E36    222147.303     1168522.361
> 2025 01 06 18 48 49.0000000  0  7
E02    222253.812     1169038.741                                  
E10    222255.201     1169266.147                                  
E11    222254.280     1168943.182                                  
E12    222253.104     1169471.497                                  
E24    222251.613     1168897.234                                  
E25    222256.756     1169630.683                                  
E36    222255.084     1169092.986
> 2025 01 06 18 48 50.0000000  0  7
E02    222363.508     1169609.291                                  
E10    222361.704     1169836.694                                  
E11    222362.865     1169513.734                                  
E12    222357.142     1170042.057                                  
E24    222359.566     1169467.789                                  
E25    222362.486     1170201.224                                  
E36    222362.564     1169663.528
> 2025 01 06 18 48 51.0000000  0  7
E02    222470.404     1170179.964                                  
E10    222469.697     1170407.361                                  
E11    222469.664     1170084.400                                  
E12    222464.992     1170612.721                                  
E24    222463.609     1170038.456                                  
E25    222470.170     1170771.888                                  
E36    222468.998     1170234.192
> 2025 01 06 18 48 52.0000000  0  7
E02    222576.011     1170750.528                                  
E10    222575.823     1170977.926                                  
E11    222577.732     1170654.964                                  
E12    222576.683     1171183.271                                  
E24    222575.493     1170609.034                                  
E25    222578.322     1171342.465                                  
E36    222579.356     1170804.773
> 2025 01 06 18 48 53.0000000  0  7
E02    222685.134     1171321.078                                  
E10    222684.601     1171548.474                                  
E11    222686.567     1171225.511                                  
E12    222682.726     1171753.831                                  
E24    222678.867     1171179.568                                  
E25    222686.806     1171913.017                                  
E36    222684.396     1171375.314
> 2025 01 06 18 48 54.0000000  0  7
E02    222789.985     1171891.915                                  
E10    222790.435     1172119.311                                  
E11    222791.209     1171796.350                                  
E12    222788.713     1172324.693                                  
E24    222789.270     1171750.384                                  
E25    222793.578     1172483.841                                  
E36    222793.247     1171946.160
> 2025 01 06 18 48 55.0000000  0  7
E02    222899.928     1172462.427                                  
E10    222898.328     1172689.816                                  
E11    222900.036     1172366.861                                  
E12    222895.890     1172895.181                                  
E24    222898.972     1172320.921                                  
E25    222899.652     1173054.353                                  
E36    222899.831     1172516.662
> 2025 01 06 18 48 56.0000000  0  7
E02    223008.525     1173032.292                                  
E10    223005.715     1173259.683                                  
E11    223008.437     1172936.716                                  
E12    223002.329     1173465.052                                  
E24    223008.283     1172890.770                                  
E25    223008.544     1173624.224                                  
E36    223006.970     1173086.525
> 2025 01 06 18 48 57.0000000  0  7
E02    223113.621     1173602.528                                  
E10    223111.720     1173829.905                                  
E11    223114.190     1173506.941                                  
E12    223113.758     1174035.262                                  
E24    223111.280     1173461.010                                  
E25    223116.044     1174194.445                                  
E36    223113.529     1173656.759
> 2025 01 06 18 48 58.0000000  0  7
E02    223221.705     1174172.863                                  
E10    223219.943     1174400.242                                  
E11    223221.426     1174077.287                                  
E12    223213.573     1174605.602                                  
E24    223219.130     1174031.343                                  
E25    223223.351     1174764.779                                  
E36    223221.073     1174227.092
> 2025 01 06 18 48 59.0000000  0  7
E02    223327.883     1174742.748                                  
E10    223327.818     1174970.140                                  
E11    223328.125     1174647.190                                  
E12    223322.374     1175175.516                                  
E24    223329.976     1174601.237                                  
E25    223329.954     1175334.678                                  
E36    223330.496     1174796.995
> 2025 01 06 18 49  0.0000000  0  7
E02    223435.262     1175312.731                                  
E10    223432.891     1175540.118                                  
E11    223437.420     1175217.153                                  
E12    223432.557     1175745.481                                  
E24    223435.538     1175171.216                                  
E25    223437.312     1175904.649                                  
E36    223437.008     1175366.967
> 2025 01 06 18 49  1.0000000  0  7
E02    223544.012     1175882.287                                  
E10    223541.312     1176109.674                                  
E11    223543.836     1175786.711                                  
E12    223537.847     1176315.028                                  
E24    223542.768     1175740.776                                  
E25    223545.430     1176474.212                                  
E36    223542.778     1175936.535
> 2025 01 06 18 49  2.0000000  0  7
E02    223651.539     1176452.022                                  
E10    223650.266     1176679.406                                  
E11    223651.559     1176356.455                                  
E12    223646.163     1176884.777                                  
E24    223649.895     1176310.500                                  
E25    223651.271     1177043.947                                  
E36    223651.938     1176506.267
> 2025 01 06 18 49  3.0000000  0  7
E02    223757.305     1177022.267                                  
E10    223757.741     1177249.649                                  
E11    223759.032     1176926.705                                  
E12    223751.760     1177455.002                                  
E24    223756.347     1176880.752                                  
E25    223759.216     1177614.186                                  
E36    223757.749     1177076.514
> 2025 01 06 18 49  4.0000000  0  7
E02    223865.131     1177592.664                                  
E10    223865.579     1177820.035                                  
E11    223867.076     1177497.077                                  
E12    223864.539     1178025.407                                  
E24    223871.216     1177451.136                                  
E25    223866.035     1178184.579                                  
E36    223867.651     1177646.892
> 2025 01 06 18 49  5.0000000  0  7
E02    223975.457     1178163.109                                  
E10    223971.212     1178390.503                                  
E11    223971.653     1178067.533                                  
E12    223974.299     1178595.843                                  
E24    223970.804     1178021.585                                  
E25    223975.159     1178755.034                                  
E36    223973.798     1178217.349
> 2025 01 06 18 49  6.0000000  0  7
E02    224080.274     1178733.942                                  
E10    224077.081     1178961.325                                  
E11    224080.903     1178638.359                                  
E12    224082.731     1179166.671                                  
E24    224080.945     1178592.397                                  
E25    224082.877     1179325.859                                  
E36    224081.094     1178788.173
> 2025 01 06 18 49  7.0000000  0  7
E02    224186.919     1179304.566                                  
E10    224188.059     1179531.947                                  
E11    224188.667     1179208.992                                  
E12    224183.927     1179737.291                                  
E24    224187.097     1179163.040                                  
E25    224188.248     1179896.480                                  
E36    224190.572     1179358.805
> 2025 01 06 18 49  8.0000000  0  7
E02    224295.917     1179874.927                                  
E10    224295.298     1180102.305                                  
E11    224296.388     1179779.351                                  
E12    224293.601     1180307.664                                  
E24    224297.501     1179733.403                                  
E25    224297.978     1180466.839                                  
E36    224296.664     1179929.169
> 2025 01 06 18 49  9.0000000  0  7
E02    224404.386     1180445.365                                  
E10    224401.356     1180672.748                                  
E11    224401.617     1180349.771                                  
E12    224402.488     1180878.125                                  
E24    224405.016     1180303.827                                  
E25    224404.807     1181037.277                                  
E36    224406.412     1180499.602
> 2025 01 06 18 49 10.0000000  0  7
E02    224509.507     1181016.149                                  
E10    224510.770     1181243.531                                  
E11    224509.883     1180920.567                                  
E12    224508.763     1181448.900                                  
E24    224511.654     1180874.612                                  
E25    224511.550     1181608.067                                  
E36    224511.170     1181070.387
> 2025 01 06 18 49 11.0000000  0  7
E02    224617.802     1181587.144                                  
E10    224616.906     1181814.509                                  
E11    224618.225     1181491.561                                  
E12    224615.424     1182019.871                                  
E24    224616.442     1181445.604                                  
E25    224619.579     1182179.050                                  
E36    224618.956     1181641.374
> 2025 01 06 18 49 12.0000000  0  7
E02    224725.470     1182158.669                                  
E10    224724.990     1182386.034                                  
E11    224725.742     1182063.091                                  
E12    224727.641     1182591.397                                  
E24    224725.761     1182017.137                                  
E25    224727.332     1182750.576                                  
E36    224728.272     1182212.909
> 2025 01 06 18 49 13.0000000  0  7
E02    224832.936     1182729.834                                  
E10    224832.366     1182957.207                                  
E11    224834.047     1182634.247                                  
E12    224831.741     1183162.563                                  
E24    224830.604     1182588.304                                  
E25    224834.500     1183321.738                                  
E36    224835.508     1182784.067
> 2025 01 06 18 49 14.0000000  0  7
E02    224940.393     1183300.637                                  
E10    224940.664     1183528.008                                  
E11    224941.726     1183205.038                                  
E12    224939.855     1183733.356                                  
E24    224936.857     1183159.087                                  
E25    224941.900     1183892.537                                  
E36    224940.003     1183354.878
> 2025 01 06 18 49 15.0000000  0  7
E02    225046.365     1183871.085                                  
E10    225047.389     1184098.448                                  
E11    225047.416     1183775.501                                  
E12    225046.843     1184303.815                                  
E24    225048.988     1183729.543                                  
E25    225050.800     1184462.989                                  
E36    225051.405     1183925.325
> 2025 01 06 18 49 16.0000000  0  7
E02    225153.151     1184441.725                                  
E10    225155.999     1184669.090                                  
E11    225154.147     1184346.139                                  
E12    225157.212     1184874.435                                  
E24    225157.124     1184300.198                                  
E25    225157.216     1185033.635                                  
E36    225157.489     1184495.976
> 2025 01 06 18 49 17.0000000  0  7
E02    225260.761     1185012.689                                  
E10    225262.733     1185240.052                                  
E11    225261.900     1184917.106                                  
E12    225262.121     1185445.424                                  
E24    225261.928     1184871.154                                  
E25    225265.886     1185604.593                                  
E36    225264.414     1185066.928
> 2025 01 06 18 49 18.0000000  0  7
E02    225368.702     1185584.159                                  
E10    225370.438     1185811.519                                  
E11    225368.779     1185488.565                                  
E12    225373.163     1186016.876                                  
E24    225372.267     1185442.617                                  
E25    225372.804     1186176.060                                  
E36    225368.970     1185638.394
> 2025 01 06 18 49 19.0000000  0  7
E02    225476.307     1186155.560                                  
E10    225477.105     1186382.935                                  
E11    225477.929     1186059.981                                  
E12    225480.442     1186588.279                                  
E24    225478.102     1186014.015                                  
E25    225479.761     1186747.479                                  
E36    225480.386     1186209.822
> 2025 01 06 18 49 20.0000000  0  7
E02    225586.819     1186726.476                                  
E10    225584.648     1186953.837                                  
E11    225585.151     1186630.896                                  
E12    225581.848     1187159.175                                  
E24    225581.749     1186584.908                                  
E25    225586.361     1187318.376                                  
E36    225583.711     1186780.713
> 2025 01 06 18 49 21.0000000  0  7
E02    225694.848     1187297.082                                  
E10    225693.428     1187524.444                                  
E11    225694.795     1187201.502                                  
E12    225693.944     1187729.783                                  
E24    225691.308     1187155.528                                  
E25    225695.109     1187888.983                                  
E36    225692.577     1187351.319
> 2025 01 06 18 49 22.0000000  0  7
E02    225801.613     1187867.621                                  
E10    225799.545     1188094.978                                  
E11    225796.830     1187772.023                                  
E12    225801.056     1188300.339                                  
E24    225799.405     1187726.070                                  
E25    225801.638     1188459.523                                  
E36    225800.504     1187921.863
> 2025 01 06 18 49 23.0000000  0  7
E02    225907.750     1188437.630                                  
E10    225906.316     1188664.986                                  
E11    225908.017     1188342.032                                  
E12    225904.869     1188870.330                                  
E24    225912.354     1188296.084                                  
E25    225908.917     1189029.534                                  
E36    225907.155     1188491.871
> 2025 01 06 18 49 24.0000000  0  7
E02    226012.901     1189007.979                                  
E10    226015.037     1189235.338                                  
E11    226013.752     1188912.396                                  
E12    226014.579     1189440.706                                  
E24    226013.615     1188866.421                                  
E25    226016.561     1189599.881                                  
E36    226013.600     1189062.221
> 2025 01 06 18 49 25.0000000  0  7
E02    226122.433     1189578.295                                  
E10    226121.786     1189805.662                                  
E11    226119.858     1189482.712                                  
E12    226123.046     1190011.019                                  
E24    226123.558     1189436.738                                  
E25    226123.615     1190170.203                                  
E36    226121.731     1189632.541
> 2025 01 06 18 49 26.0000000  0  7
E02    226229.420     1190148.625                                  
E10    226228.608     1190375.981                                  
E11    226229.200     1190053.022                                  
E12    226232.847     1190581.337                                  
E24    226228.270     1190007.071                                  
E25    226231.979     1190740.518                                  
E36    226228.909     1190202.858
> 2025 01 06 18 49 27.0000000  0  7
E02    226337.626     1190719.312                                  
E10    226336.165     1190946.669                                  
E11    226337.364     1190623.709                                  
E12    226339.036     1191152.022                                  
E24    226337.694     1190577.743                                  
E25    226339.426     1191311.210                                  
E36    226337.055     1190773.549
> 2025 01 06 18 49 28.0000000  0  7
E02    226445.352     1191289.663                                  
E10    226444.458     1191517.000                                  
E11    226443.849     1191194.065                                  
E12    226446.589     1191722.367                                  
E24    226439.910     1191148.094                                  
E25    226446.586     1191881.556                                  
E36    226446.451     1191343.895
> 2025 01 06 18 49 29.0000000  0  7
E02    226551.742     1191860.579                                  
E10    226552.027     1192087.936                                  
E11    226552.970     1191764.984                                  
E12    226556.165     1192293.291                                  
E24    226550.070     1191719.021                                  
E25    226553.473     1192452.474                                  
E36    226552.857     1191914.818
> 2025 01 06 18 49 30.0000000  0  7
E02    226660.791     1192431.667                                  
E10    226659.174     1192659.018                                  
E11    226659.813     1192336.072                                  
E12    226660.320     1192864.383                                  
E24    226659.988     1192290.097                                  
E25    226660.341     1193023.558                                  
E36    226659.205     1192485.900
> 2025 01 06 18 49 31.0000000  0  7
E02    226768.251     1193001.422                                  
E10    226769.028     1193228.764                                  
E11    226768.829     1192905.815                                  
E12    226767.491     1193434.120                                  
E24    226765.973     1192859.860                                  
E25    226768.988     1193593.307                                  
E36    226766.812     1193055.653
> 2025 01 06 18 49 32.0000000  0  7
E02    226874.906     1193571.911                                  
E10    226873.711     1193799.260                                  
E11    226873.818     1193476.301                                  
E12    226874.872     1194004.600                                  
E24    226873.789     1193430.338                                  
E25    226875.818     1194163.807                                  
E36    226874.150     1193626.154
> 2025 01 06 18 49 33.0000000  0  7
E02    226980.393     1194142.048                                  
E10    226982.875     1194369.396                                  
E11    226980.225     1194046.457                                  
E12    226985.866     1194574.751                                  
E24    226983.031     1194000.490                                  
E25    226983.062     1194733.938                                  
E36    226982.156     1194196.283
> 2025 01 06 18 49 34.0000000  0  7
E02    227088.145     1194712.545                                  
E10    227089.139     1194939.898                                  
E11    227091.540     1194616.946                                  
E12    227088.210     1195145.248                                  
E24    227091.993     1194570.980                                  
E25    227091.355     1195304.442                                  
E36    227087.709     1194766.799
