     3.02           OBSERVATION DATA    E                   RINEX VERSION / TYPE
G = GPS  R = GLONASS  E = GALILEO  S = GEO  M = MIXED       COMMENT             
GNSS-SDR            jmfriedt            20250108 183134 UTC PGM / RUN BY / DATE 
GALILEO OBSERVATION DATA FILE GENERATED BY GNSS-SDR         COMMENT             
GNSS-SDR VERSION 0.0.19.git-main-87fcfd237                  COMMENT             
See https://gnss-sdr.org                                    COMMENT             
DEFAULT MARKER NAME                                         MARKER NAME         
jmfriedt            CTTC                                    OBSERVER / AGENCY   
GNSS-SDR            Software Receiver   0.0.19.gi           REC # / TYPE / VERS 
Antenna number      Antenna type                            ANT # / TYPE        
        0.0000        0.0000        0.0000                  APPROX POSITION XYZ 
        0.0000        0.0000        0.0000                  ANTENNA: DELTA H/E/N
E    4 C1B L1B D1B S1B                                      SYS / # / OBS TYPES 
DBHZ                                                        SIGNAL STRENGTH UNIT
  2025    01    08    17    41   58.1600000     GAL         TIME OF FIRST OBS   
    18    18   137     7                                    LEAP SECONDS        
                                                            END OF HEADER       
> 2025 01 08 17 41 59.0000000  0  5                                             
E15  25592675.631 6 134490404.221 6       151.284 6        37.212               
E21  28007043.236 6 147181487.438 6     -2084.727 6        38.560               
E27  25625879.974 7 134664908.262 7      -353.149 7        42.682               
E30  27986704.786 6 147066612.748 6      2685.678 6        39.406               
E34  27600842.194 6 145043406.438 6     -2477.556 6        38.903               
> 2025 01 08 17 42 00.0000000  0  5                                             
E15  25592646.665 6 134490253.127 6       150.586 6        37.372               
E21  28006648.331 6 147183570.895 6     -2081.637 6        38.481               
E27  25625946.000 7 134665261.400 7      -352.504 7        42.583               
E30  27987214.035 6 147063926.044 6      2686.016 6        39.405               
E34  27601320.851 6 145045883.218 6     -2474.884 6        38.921               
> 2025 01 08 17 42 01.0000000  0  5                                             
E15  25592622.899 6 134490102.438 6       149.718 6        37.455               
E21  28006255.659 6 147185654.202 6     -2082.678 6        38.985               
E27  25626015.618 7 134665614.922 7      -354.369 7        42.797               
E30  27987729.306 6 147061239.136 6      2687.966 6        39.435               
E34  27601790.860 6 145048360.225 6     -2476.610 6        38.849               
> 2025 01 08 17 42 02.0000000  0  5                                             
E15  25592592.021 6 134489952.129 6       151.923 6        37.712               
E21  28005860.093 6 147187737.395 6     -2081.114 6        39.248               
E27  25626084.431 7 134665968.762 7      -354.138 7        42.408               
E30  27988245.864 6 147058552.051 6      2687.188 6        39.614               
E34  27602265.337 6 145050837.453 6     -2475.553 6        38.844               
> 2025 01 08 17 42 03.0000000  0  5                                             
E15  25592568.684 6 134489802.365 6       150.694 6        37.686               
E21  28005468.904 6 147189820.311 6     -2080.993 6        39.155               
E27  25626154.943 7 134666323.077 7      -354.279 7        42.490               
E30  27988755.238 6 147055864.636 6      2689.124 6        39.668               
E34  27602738.884 6 145053315.010 6     -2476.740 6        39.028               
> 2025 01 08 17 42 04.0000000  0  5                                             
E15  25592541.488 6 134489652.834 6       150.998 6        38.074               
E21  28005073.051 6 147191903.241 6     -2083.241 6        39.193               
E27  25626225.275 7 134666677.575 7      -354.761 7        42.427               
E30  27989267.972 6 147053177.207 6      2686.918 6        39.823               
E34  27603210.018 6 145055792.621 6     -2479.100 6        39.047               
> 2025 01 08 17 42 05.0000000  0  5                                             
E15  25592516.328 6 134489503.941 6       149.397 6        38.070               
E21  28004678.218 6 147193985.821 6     -2082.178 6        39.061               
E27  25626292.052 7 134667032.652 7      -354.713 7        42.281               
E30  27989783.529 6 147050489.298 6      2688.927 6        39.448               
E34  27603679.991 6 145058270.667 6     -2476.804 6        39.239               
> 2025 01 08 17 42 06.0000000  0  6                                             
E13  28029325.425 6 147295138.160 6      2495.892 6        37.718               
E15  25592489.417 6 134489355.892 6       146.332 6        38.099               
E21  28004283.527 6 147196067.814 6     -2081.305 6        38.935               
E27  25626363.295 7 134667388.520 7      -355.205 7        42.685               
E30  27990297.281 6 147047800.754 6      2688.228 6        39.419               
E34  27604158.184 6 145060749.378 6     -2478.677 6        39.281               
> 2025 01 08 17 42 07.0000000  0  6                                             
E13  28028853.272 6 147292641.842 6      2498.130 6        37.287               
E15  25592465.848 6 134489208.388 6       147.124 6        38.101               
E21  28003889.675 6 147198149.507 6     -2081.643 6        39.206               
E27  25626434.003 7 134667744.872 7      -356.119 7        42.398               
E30  27990806.370 6 147045111.903 6      2688.845 6        39.445               
E34  27604631.159 6 145063228.442 6     -2479.570 6        39.155               
> 2025 01 08 17 42 08.0000000  0  6                                             
E13  28028380.744 6 147290145.164 6      2496.769 6        37.045               
E15  25592438.419 6 134489060.780 6       148.799 6        38.039               
E21  28003495.413 6 147200231.582 6     -2083.428 6        39.075               
E27  25626502.495 7 134668101.063 7      -356.030 7        42.341               
E30  27991322.284 6 147042423.330 6      2687.452 6        39.952               
E34  27605104.224 6 145065707.213 6     -2479.626 6        39.398               
> 2025 01 08 17 42 09.0000000  0  6                                             
E13  28027909.681 6 147287648.257 6      2495.174 6        37.058               
E15  25592410.740 6 134488913.134 6       146.286 6        38.033               
E21  28003100.508 6 147202313.941 6     -2081.821 6        38.950               
E27  25626570.987 7 134668457.182 7      -357.481 7        42.365               
E30  27991835.715 6 147039734.997 6      2689.697 6        40.006               
E34  27605577.985 6 145068185.759 6     -2479.309 6        39.033               
> 2025 01 08 17 42 10.0000000  0  6                                             
E13  28027433.346 6 147285152.191 6      2495.686 6        37.585               
E15  25592385.706 6 134488766.516 6       146.470 6        38.158               
E21  28002706.567 6 147204395.535 6     -2082.134 6        38.844               
E27  25626640.730 7 134668814.253 7      -356.414 7        42.603               
E30  27992350.379 6 147037045.844 6      2689.415 6        40.139               
E34  27606052.658 6 145070665.160 6     -2481.028 6        39.047               
> 2025 01 08 17 42 11.0000000  0  6                                             
E13  28026965.267 6 147282656.323 6      2496.733 6        37.734               
E15  25592358.080 6 134488620.313 6       146.081 6        38.084               
E21  28002311.287 6 147206477.001 6     -2080.518 6        38.858               
E27  25626711.849 7 134669171.690 7      -356.829 7        42.647               
E30  27992865.114 6 147034356.467 6      2689.395 6        39.756               
E34  27606526.348 6 145073144.760 6     -2479.772 6        39.195               
> 2025 01 08 17 42 12.0000000  0  6                                             
E13  28026488.611 6 147280160.280 6      2494.546 6        37.787               
E15  25592331.062 6 134488474.142 6       146.361 6        38.657               
E21  28001916.131 6 147208558.664 6     -2082.871 6        38.727               
E27  25626780.698 7 134669529.107 7      -357.332 7        42.965               
E30  27993378.544 6 147031667.272 6      2690.010 6        39.680               
E34  27606998.555 6 145075624.221 6     -2478.726 6        39.342               
> 2025 01 08 17 42 13.0000000  0  6                                             
E13  28026014.832 6 147277664.659 6      2494.901 6        37.599               
E15  25592304.723 6 134488328.637 6       145.199 6        38.508               
E21  28001520.815 6 147210639.946 6     -2080.318 6        38.343               
E27  25626852.799 7 134669887.130 7      -358.800 7        42.921               
E30  27993891.868 6 147028977.616 6      2686.355 6        39.052               
E34  27607474.460 6 145078104.124 6     -2478.358 6        39.315               
> 2025 01 08 17 42 14.0000000  0  6                                             
E13  28025544.072 6 147275168.828 6      2496.614 6        37.836               
E15  25592282.994 6 134488183.106 6       145.632 6        38.451               
E21  28001127.518 6 147212721.497 6     -2079.544 6        38.342               
E27  25626922.167 7 134670245.072 7      -356.730 7        42.876               
E30  27994401.439 6 147026288.206 6      2690.552 6        39.218               
E34  27607948.561 6 145080583.858 6     -2479.826 6        39.618               
> 2025 01 08 17 42 15.0000000  0  6                                             
E13  28025070.847 6 147272672.375 6      2496.374 6        37.422               
E15  25592254.904 6 134488037.105 6       146.764 6        38.562               
E21  28000735.561 6 147214803.788 6     -2082.547 6        38.202               
E27  25626991.642 7 134670602.508 7      -357.444 7        42.991               
E30  27994917.210 6 147023599.438 6      2688.656 6        39.376               
E34  27608419.285 6 145083062.938 6     -2479.607 6        39.777               
> 2025 01 08 17 42 16.0000000  0  6                                             
E13  28024596.853 6 147270176.315 6      2495.643 6        37.231               
E15  25592229.959 6 134487891.789 6       144.798 6        38.657               
E21  28000337.439 6 147216885.668 6     -2082.246 6        38.360               
E27  25627064.101 7 134670960.545 7      -358.749 7        43.086               
E30  27995430.283 6 147020910.197 6      2688.720 6        39.187               
E34  27608896.495 6 145085542.480 6     -2480.368 6        39.648               
> 2025 01 08 17 42 17.0000000  0  6                                             
E13  28024125.093 6 147267680.625 6      2495.801 6        37.277               
E15  25592205.675 6 134487747.019 6       143.650 6        38.828               
E21  27999942.515 6 147218967.265 6     -2082.354 6        38.610               
E27  25627131.967 7 134671319.077 7      -358.605 7        42.914               
E30  27995943.678 6 147018220.630 6      2690.198 6        39.182               
E34  27609369.685 6 145088022.357 6     -2479.609 6        39.730               
> 2025 01 08 17 42 18.0000000  0  6                                             
E13  28023652.350 6 147265185.338 6      2494.273 6        37.125               
E15  25592177.013 6 134487602.835 6       142.316 6        38.757               
E21  27999546.306 6 147221048.511 6     -2081.505 6        38.947               
E27  25627201.013 7 134671678.171 7      -360.202 7        42.774               
E30  27996457.395 6 147015530.635 6      2692.286 6        39.466               
E34  27609839.837 6 145090502.688 6     -2478.420 6        39.482               
> 2025 01 08 17 42 19.0000000  0  6                                             
E13  28023178.750 6 147262690.528 6      2495.955 6        37.172               
E15  25592150.871 6 134487459.359 6       143.012 6        38.752               
E21  27999155.599 6 147223129.330 6     -2080.601 6        39.039               
E27  25627273.418 7 134672037.886 7      -360.691 7        43.174               
E30  27996977.151 6 147012840.140 6      2688.549 6        39.604               
E34  27610318.226 6 145092983.536 6     -2480.955 6        39.521               
> 2025 01 08 17 42 20.0000000  0  6                                             
E13  28022702.665 6 147260196.048 6      2493.086 6        37.057               
E15  25592125.890 6 134487316.409 6       142.547 6        38.904               
E21  27998762.392 6 147225209.865 6     -2078.760 6        39.094               
E27  25627341.589 7 134672398.077 7      -360.416 7        43.496               
E30  27997485.221 6 147010149.365 6      2690.958 6        39.659               
E34  27610789.361 6 145095464.695 6     -2482.388 6        39.572               
> 2025 01 08 17 42 21.0000000  0  6                                             
E13  28022230.798 6 147257702.265 6      2496.079 6        37.130               
E15  25592100.713 6 134487174.391 6       143.000 6        39.058               
E21  27998367.272 6 147227289.757 6     -2081.773 6        38.886               
E27  25627412.386 7 134672759.149 7      -360.981 7        43.542               
E30  27997996.829 6 147007457.820 6      2691.663 6        39.610               
E34  27611266.428 6 145097946.595 6     -2482.543 6        39.479               
> 2025 01 08 17 42 22.0000000  0  6                                             
E13  28021762.040 6 147255208.706 6      2493.604 6        37.081               
E15  25592073.766 6 134487032.790 6       140.765 6        39.459               
E21  27997974.403 6 147229369.500 6     -2079.037 6        38.741               
E27  25627485.113 7 134673120.580 7      -361.964 7        43.617               
E30  27998515.156 6 147004766.079 6      2692.416 6        39.555               
E34  27611736.955 6 145100428.720 6     -2483.585 6        39.635               
> 2025 01 08 17 42 23.0000000  0  6                                             
E13  28021288.243 6 147252715.389 6      2494.510 6        36.952               
E15  25592049.839 6 134486891.649 6       142.827 6        39.345               
E21  27997577.193 6 147231449.022 6     -2080.325 6        38.490               
E27  25627553.265 7 134673482.397 7      -360.813 7        43.385               
E30  27999027.300 6 147002074.076 6      2691.661 6        39.310               
E34  27612212.825 6 145102911.100 6     -2483.037 6        39.679               
> 2025 01 08 17 42 24.0000000  0  6                                             
E13  28020812.248 6 147250220.732 6      2495.450 6        37.094               
E15  25592024.072 6 134486749.356 6       140.834 6        39.418               
E21  27997183.967 6 147233529.961 6     -2078.869 6        38.705               
E27  25627621.829 7 134673843.031 7      -360.956 7        43.306               
E30  27999540.838 6 146999383.422 6      2690.688 6        39.177               
E34  27612688.427 6 145105392.172 6     -2481.518 6        39.724               
> 2025 01 08 17 42 25.0000000  0  6                                             
E13  28020340.202 6 147247726.815 6      2492.060 6        37.031               
E15  25591999.824 6 134486608.017 6       139.760 6        39.229               
E21  27996789.223 6 147235610.201 6     -2080.387 6        38.646               
E27  25627694.877 7 134674204.567 7      -362.391 7        43.249               
E30  28000056.198 6 146996692.043 6      2692.353 6        39.275               
E34  27613159.580 6 145107873.979 6     -2480.181 6        39.954               
> 2025 01 08 17 42 26.0000000  0  6                                             
E13  28019870.711 6 147245233.527 6      2492.730 6        37.195               
E15  25591975.933 6 134486467.504 6       140.642 6        39.445               
E21  27996402.180 6 147237689.882 6     -2079.250 6        38.602               
E27  25627764.048 7 134674566.869 7      -362.671 7        43.466               
E30  28000570.915 6 146994000.009 6      2692.657 6        39.130               
E34  27613634.216 6 145110356.457 6     -2483.126 6        39.709               
> 2025 01 08 17 42 27.0000000  0  6                                             
E13  28019393.697 6 147242740.794 6      2489.837 6        36.908               
E15  25591950.291 6 134486327.780 6       138.555 6        39.448               
E21  27996004.665 6 147239769.022 6     -2078.413 6        38.484               
E27  25627837.097 7 134674929.924 7      -363.744 7        43.492               
E30  28001084.543 6 146991307.382 6      2692.052 6        39.192               
E34  27614104.458 6 145112839.518 6     -2484.391 6        39.354               
> 2025 01 08 17 42 28.0000000  0  6                                             
E13  28018926.530 6 147240247.624 6      2493.834 6        36.807               
E15  25591924.989 6 134486187.790 6       140.485 6        39.653               
E21  27995609.617 6 147241848.711 6     -2080.123 6        38.549               
E27  25627906.661 7 134675292.638 7      -362.314 7        43.204               
E30  28001597.348 6 146988615.256 6      2691.413 6        39.180               
E34  27614583.294 6 145115322.118 6     -2479.983 6        39.535               
> 2025 01 08 17 42 29.0000000  0  6                                             
E13  28018449.856 6 147237754.562 6      2492.415 6        37.150               
E15  25591901.366 6 134486048.124 6       141.643 6        39.515               
E21  27995218.178 6 147243928.327 6     -2078.162 6        38.497               
E27  25627979.048 7 134675655.626 7      -363.579 7        42.910               
E30  28002113.530 6 146985922.990 6      2693.466 6        38.990               
E34  27615054.643 6 145117804.861 6     -2484.083 6        39.392               
> 2025 01 08 17 42 30.0000000  0  6                                             
E13  28017977.166 6 147235262.415 6      2491.967 6        37.112               
E15  25591876.742 6 134485909.605 6       137.257 6        39.926               
E21  27994824.345 6 147246007.050 6     -2076.955 6        38.769               
E27  25628046.057 7 134676019.693 7      -364.468 7        43.201               
E30  28002628.855 6 146983229.789 6      2693.416 6        38.748               
E34  27615529.852 6 145120288.545 6     -2482.893 6        39.385               
> 2025 01 08 17 42 31.0000000  0  6                                             
E13  28017503.959 6 147232770.465 6      2491.044 6        36.953               
E15  25591850.653 6 134485771.456 6       138.014 6        39.945               
E21  27994428.725 6 147248085.692 6     -2078.026 6        38.355               
E27  25628119.606 7 134676384.086 7      -364.497 7        43.220               
E30  28003141.321 6 146980536.411 6      2692.209 6        39.077               
E34  27616004.525 6 145122772.428 6     -2484.030 6        39.099               
> 2025 01 08 17 42 32.0000000  0  6                                             
E13  28017031.484 6 147230278.867 6      2492.055 6        36.805               
E15  25591828.782 6 134485633.904 6       137.173 6        40.308               
E21  27994034.391 6 147250163.945 6     -2079.374 6        38.469               
E27  25628189.045 7 134676749.028 7      -365.752 7        43.449               
E30  28003658.361 6 146977842.631 6      2692.554 6        39.154               
E34  27616475.177 6 145125256.721 6     -2483.829 6        39.366               
> 2025 01 08 17 42 33.0000000  0  6                                             
E13  28016562.101 6 147227787.650 6      2489.643 6        36.884               
E15  25591804.766 6 134485496.925 6       136.084 6        40.203               
E21  27993641.380 6 147252241.942 6     -2077.548 6        38.307               
E27  25628261.754 7 134677114.465 7      -366.055 7        43.385               
E30  28004168.379 6 146975148.501 6      2694.282 6        39.342               
E34  27616951.815 6 145127741.390 6     -2485.635 6        39.286               
> 2025 01 08 17 42 34.0000000  0  6                                             
E13  28016090.126 6 147225296.409 6      2492.730 6        36.958               
E15  25591778.212 6 134485360.103 6       136.366 6        40.253               
E21  27993247.296 6 147254320.033 6     -2079.204 6        38.688               
E27  25628331.282 7 134677480.022 7      -367.387 7        43.474               
E30  28004684.400 6 146972454.412 6      2695.298 6        38.978               
E34  27617426.398 6 145130226.000 6     -2483.821 6        38.698               
> 2025 01 08 17 42 35.0000000  0  6                                             
E13  28015611.826 6 147222805.139 6      2491.264 6        36.964               
E15  25591754.107 6 134485223.513 6       135.176 6        40.504               
E21  27992854.464 6 147256398.147 6     -2078.174 6        38.560               
E27  25628403.330 7 134677845.739 7      -366.847 7        43.484               
E30  28005197.813 6 146969760.283 6      2694.836 6        38.903               
E34  27617903.626 6 145132710.697 6     -2485.196 6        38.736               
> 2025 01 08 17 42 36.0000000  0  6                                             
E13  28015142.121 6 147220314.180 6      2494.062 6        36.864               
E15  25591730.877 6 134485087.385 6       136.406 6        40.751               
E21  27992456.932 6 147258476.037 6     -2076.596 6        38.647               
E27  25628474.860 7 134678211.883 7      -366.708 7        43.543               
E30  28005713.173 6 146967065.899 6      2696.270 6        38.751               
E34  27618373.957 6 145135195.629 6     -2485.317 6        39.033               
> 2025 01 08 17 42 37.0000000  0  6                                             
E13  28014675.793 6 147217823.622 6      2490.243 6        36.813               
E15  25591705.771 6 134484951.885 6       135.739 6        40.595               
E21  27992064.814 6 147260553.570 6     -2078.186 6        38.425               
E27  25628548.802 7 134678578.597 7      -366.766 7        43.640               
E30  28006229.481 6 146964371.091 6      2695.945 6        38.915               
E34  27618846.753 6 145137681.004 6     -2484.385 6        38.894               
> 2025 01 08 17 42 38.0000000  0  6                                             
E13  28014198.940 6 147215333.233 6      2490.675 6        36.747               
E15  25591682.399 6 134484816.751 6       136.848 6        40.550               
E21  27991671.677 6 147262631.010 6     -2076.031 6        38.250               
E27  25628619.313 7 134678945.614 7      -367.029 7        43.471               
E30  28006743.305 6 146961676.105 6      2694.648 6        38.751               
E34  27619329.932 6 145140166.588 6     -2485.593 6        39.285               
> 2025 01 08 17 42 39.0000000  0  6                                             
E13  28013728.431 6 147212843.032 6      2490.997 6        37.102               
E15  25591660.134 6 134484682.061 6       133.927 6        40.817               
E21  27991275.575 6 147264708.272 6     -2076.037 6        38.235               
E27  25628690.718 7 134679313.027 7      -367.875 7        43.423               
E30  28007255.806 6 146958980.909 6      2696.826 6        39.013               
E34  27619802.156 6 145142652.389 6     -2485.322 6        39.195               
> 2025 01 08 17 42 40.0000000  0  6                                             
E13  28013258.297 6 147210353.224 6      2490.940 6        36.971               
E15  25591632.276 6 134484547.903 6       134.860 6        40.901               
E21  27990885.690 6 147266785.224 6     -2076.377 6        38.235               
E27  25628763.534 7 134679680.933 7      -368.127 7        43.634               
E30  28007771.613 6 146956285.365 6      2695.060 6        39.168               
E34  27620276.114 6 145145138.535 6     -2485.290 6        39.637               
> 2025 01 08 17 42 41.0000000  0  6                                             
E13  28012780.015 6 147207863.594 6      2493.164 6        36.943               
E15  25591612.013 6 134484414.202 6       133.535 6        41.178               
E21  27990487.587 6 147268862.032 6     -2077.184 6        38.349               
E27  25628834.867 7 134680049.215 7      -368.794 7        43.522               
E30  28008288.368 6 146953589.568 6      2694.961 6        39.367               
E34  27620752.378 6 145147624.957 6     -2488.289 6        39.494               
> 2025 01 08 17 42 42.0000000  0  6                                             
E13  28012311.114 6 147205374.190 6      2490.803 6        36.828               
E15  25591585.549 6 134484280.855 6       132.445 6        41.124               
E21  27990094.575 6 147270938.715 6     -2077.256 6        38.340               
E27  25628909.202 7 134680417.822 7      -368.615 7        43.485               
E30  28008806.230 6 146950893.611 6      2694.999 6        39.150               
E34  27621224.834 6 145150111.551 6     -2489.192 6        39.546               
> 2025 01 08 17 42 43.0000000  0  6                                             
E13  28011842.802 6 147202885.032 6      2489.085 6        37.015               
E15  25591565.607 6 134484147.999 6       132.087 6        40.883               
E21  27989704.566 6 147273015.185 6     -2077.688 6        38.069               
E27  25628977.498 7 134680786.837 7      -368.627 7        43.399               
E30  28009316.212 6 146948197.378 6      2695.248 6        38.813               
E34  27621702.831 6 145152598.444 6     -2486.277 6        39.597               
> 2025 01 08 17 42 44.0000000  0  6                                             
E13  28011368.969 6 147200396.272 6      2490.576 6        36.977               
E15  25591539.036 6 134484015.752 6       132.006 6        41.218               
E21  27989306.944 6 147275091.294 6     -2076.127 6        38.528               
E27  25629047.973 7 134681156.433 7      -370.244 7        43.394               
E30  28009835.253 6 146945500.725 6      2695.535 6        38.814               
E34  27622174.377 6 145155085.732 6     -2488.237 6        39.394               
> 2025 01 08 17 42 45.0000000  0  6                                             
E13  28010898.335 6 147197908.185 6      2487.623 6        36.880               
E15  25591514.573 6 134483884.372 6       131.283 6        41.390               
E21  27988919.723 6 147277166.775 6     -2076.445 6        38.447               
E27  25629122.201 7 134681526.834 7      -371.411 7        43.494               
E30  28010347.254 6 146942803.393 6      2696.658 6        38.605               
E34  27622653.356 6 145157573.744 6     -2486.855 6        39.550               
> 2025 01 08 17 42 46.0000000  0  6                                             
E13  28010423.341 6 147195420.259 6      2486.495 6        36.759               
E15  25591495.256 6 134483753.375 6       130.410 6        41.368               
E21  27988524.156 6 147279242.151 6     -2073.129 6        38.409               
E27  25629197.072 7 134681897.551 7      -370.368 7        43.598               
E30  28010864.938 6 146940105.918 6      2697.648 6        38.697               
E34  27623128.636 6 145160061.886 6     -2488.699 6        39.251               
> 2025 01 08 17 42 47.0000000  0  6                                             
E13  28009954.815 6 147192932.348 6      2490.917 6        36.455               
E15  25591470.311 6 134483622.588 6       130.515 6        41.863               
E21  27988130.555 6 147281317.582 6     -2077.623 6        38.212               
E27  25629268.352 7 134682268.429 7      -370.916 7        43.879               
E30  28011376.617 6 146937408.424 6      2696.914 6        38.868               
E34  27623600.271 6 145162550.062 6     -2488.971 6        39.274               
> 2025 01 08 17 42 48.0000000  0  6                                             
E13  28009486.182 6 147190444.761 6      2488.932 6        36.745               
E15  25591446.260 6 134483492.318 6       130.620 6        41.936               
E21  27987738.938 6 147283392.733 6     -2074.500 6        38.400               
E27  25629340.864 7 134682639.772 7      -370.924 7        43.568               
E30  28011896.213 6 146934710.604 6      2699.242 6        38.393               
E34  27624077.356 6 145165038.592 6     -2488.257 6        39.313               
> 2025 01 08 17 42 49.0000000  0  6                                             
E13  28009010.366 6 147187957.209 6      2488.855 6        36.864               
E15  25591424.638 6 134483362.320 6       129.933 6        41.814               
E21  27987345.962 6 147285467.900 6     -2074.258 6        38.287               
E27  25629412.126 7 134683011.329 7      -370.832 7        43.516               
E30  28012409.250 6 146932012.740 6      2699.244 6        38.350               
E34  27624552.618 6 145167527.185 6     -2489.102 6        39.183               
> 2025 01 08 17 42 50.0000000  0  6                                             
E13  28008537.069 6 147185469.459 6      2487.504 6        36.993               
E15  25591402.516 7 134483232.295 7       130.628 7        42.093               
E21  27986951.593 6 147287543.352 6     -2074.852 6        38.177               
E27  25629484.603 7 134683382.799 7      -371.121 7        43.438               
E30  28012923.646 6 146929315.079 6      2696.768 6        38.281               
E34  27625026.005 6 145170015.578 6     -2489.063 6        39.247               
> 2025 01 08 17 42 51.0000000  0  6                                             
E13  28008065.434 6 147182981.570 6      2486.806 6        37.027               
E15  25591379.465 7 134483102.343 7       130.091 7        42.059               
E21  27986560.958 6 147289618.979 6     -2074.415 6        38.178               
E27  25629556.061 7 134683754.320 7      -371.815 7        43.509               
E30  28013438.363 6 146926617.569 6      2698.659 6        38.273               
E34  27625504.233 6 145172503.851 6     -2486.716 6        39.394               
> 2025 01 08 17 42 52.0000000  0  6                                             
E13  28007596.426 6 147180493.877 6      2488.483 6        36.854               
E15  25591356.414 7 134482972.845 7       128.859 7        42.086               
E21  27986162.997 6 147291694.445 6     -2073.528 6        38.167               
E27  25629630.932 7 134684126.204 7      -371.832 7        43.669               
E30  28013950.757 6 146923919.788 6      2698.933 6        38.437               
E34  27625974.081 6 145174992.343 6     -2488.561 6        39.489               
> 2025 01 08 17 42 53.0000000  0  6                                             
E13  28007123.021 6 147178006.868 6      2489.568 6        36.639               
E15  25591334.131 7 134482844.171 7       127.511 7        42.054               
E21  27985768.235 6 147293769.302 6     -2073.365 6        38.209               
E27  25629701.568 7 134684498.872 7      -373.216 7        43.589               
E30  28014465.921 6 146921221.397 6      2700.574 6        38.608               
E34  27626452.721 6 145177481.518 6     -2488.349 6        39.534               
> 2025 01 08 17 42 54.0000000  0  6                                             
E13  28006650.279 6 147175520.570 6      2482.763 6        36.666               
E15  25591312.170 6 134482716.433 6       127.414 6        41.944               
E21  27985380.441 6 147295843.471 6     -2076.386 6        38.543               
E27  25629774.152 7 134684872.424 7      -373.761 7        43.327               
E30  28014982.872 6 146918522.253 6      2700.147 6        38.735               
E34  27626930.020 6 145179971.416 6     -2490.350 6        39.882               
> 2025 01 08 17 42 55.0000000  0  6                                             
E13  28006181.663 6 147173034.524 6      2486.130 6        36.753               
E15  25591289.959 7 134482589.141 7       127.471 7        42.170               
E21  27984983.320 6 147297917.489 6     -2075.411 6        38.399               
E27  25629848.094 7 134685246.378 7      -373.812 7        43.304               
E30  28015499.215 6 146915822.876 6      2698.875 6        38.893               
E34  27627406.123 6 145182461.574 6     -2491.488 6        39.607               
> 2025 01 08 17 42 56.0000000  0  6                                             
E13  28005710.100 6 147170548.454 6      2487.162 6        36.674               
E15  25591267.962 7 134482462.066 7       126.360 7        42.416               
E21  27984592.953 6 147299991.545 6     -2074.292 6        38.337               
E27  25629919.964 7 134685620.487 7      -373.787 7        43.420               
E30  28016015.237 6 146913123.505 6      2698.990 6        38.825               
E34  27627882.136 6 145184951.757 6     -2487.560 6        39.551               
> 2025 01 08 17 42 57.0000000  0  6                                             
E13  28005236.428 6 147168062.593 6      2485.813 6        36.835               
E15  25591246.341 7 134482335.398 7       125.374 7        42.252               
E21  27984201.282 6 147302065.440 6     -2071.888 6        38.333               
E27  25629996.836 7 134685994.948 7      -374.093 7        43.787               
E30  28016532.331 6 146910423.907 6      2699.390 6        38.493               
E34  27628355.968 6 145187442.150 6     -2490.271 6        39.689               
> 2025 01 08 17 42 58.0000000  0  6                                             
E13  28004765.079 6 147165577.212 6      2486.108 6        36.948               
E15  25591222.379 7 134482209.412 7       124.704 7        42.411               
E21  27983809.968 6 147304138.925 6     -2072.911 6        38.335               
E27  25630066.257 7 134686370.022 7      -374.787 7        43.531               
E30  28017047.906 6 146907723.824 6      2700.547 6        38.470               
E34  27628834.680 6 145189933.071 6     -2490.976 6        39.315               
> 2025 01 08 17 42 59.0000000  0  6                                             
E13  28004295.785 6 147163091.890 6      2484.952 6        36.569               
E15  25591200.721 7 134482083.673 7       125.772 7        42.260               
E21  27983414.277 6 147306212.426 6     -2074.866 6        38.259               
E27  25630137.876 7 134686745.302 7      -375.452 7        43.477               
E30  28017565.410 6 146905023.717 6      2700.991 6        38.644               
E34  27629308.048 6 145192424.019 6     -2489.565 6        39.240               
> 2025 01 08 17 43 00.0000000  0  6                                             
E13  28003819.968 6 147160606.739 6      2485.883 6        36.362               
E15  25591175.955 7 134481958.343 7       126.540 7        42.463               
E21  27983022.427 6 147308285.753 6     -2071.575 6        38.382               
E27  25630214.606 7 134687120.947 7      -375.519 7        43.500               
E30  28018077.751 6 146902323.396 6      2702.256 6        38.430               
E34  27629784.186 6 145194915.175 6     -2492.401 6        39.336               
> 2025 01 08 17 43 01.0000000  0  6                                             
E13  28003350.906 6 147158122.036 6      2483.870 6        36.323               
E15  25591157.067 7 134481833.635 7       123.320 7        42.295               
E21  27982626.717 6 147310358.748 6     -2073.128 6        38.423               
E27  25630287.136 7 134687497.133 7      -376.720 7        43.562               
E30  28018589.163 6 146899622.665 6      2700.704 6        38.230               
E34  27630258.894 6 145197406.767 6     -2490.556 6        39.183               
> 2025 01 08 17 43 02.0000000  0  6                                             
E13  28002883.596 6 147155637.479 6      2486.612 6        36.510               
E15  25591132.372 7 134481709.294 7       123.971 7        42.366               
E21  27982237.298 6 147312431.629 6     -2075.936 6        38.471               
E27  25630361.471 7 134687873.656 7      -375.407 7        43.189               
E30  28019109.973 6 146896921.765 6      2699.898 6        38.210               
E34  27630735.515 6 145199898.530 6     -2490.251 6        39.125               
> 2025 01 08 17 43 03.0000000  0  6                                             
E13  28002412.515 6 147153152.707 6      2483.955 6        36.339               
E15  25591114.825 7 134481584.923 7       125.134 7        42.299               
E21  27981844.161 6 147314504.793 6     -2071.230 6        38.476               
E27  25630433.144 7 134688250.097 7      -376.594 7        43.047               
E30  28019625.941 6 146894221.091 6      2700.518 6        38.509               
E34  27631211.027 6 145202390.092 6     -2492.396 6        38.948               
> 2025 01 08 17 43 04.0000000  0  6                                             
E13  28001939.468 6 147150668.102 6      2485.633 6        36.317               
E15  25591090.970 7 134481460.952 7       123.549 7        42.099               
E21  27981453.312 6 147316577.800 6     -2073.820 6        38.347               
E27  25630510.070 7 134688626.858 7      -377.023 7        43.611               
E30  28020140.229 6 146891520.224 6      2701.792 6        38.919               
E34  27631687.987 6 145204881.845 6     -2492.702 6        38.719               
> 2025 01 08 17 43 05.0000000  0  6                                             
E13  28001469.191 6 147148183.658 6      2484.021 6        36.474               
E15  25591066.382 6 134481337.347 6       123.919 6        41.999               
E21  27981059.140 6 147318650.704 6     -2072.771 6        38.612               
E27  25630580.528 7 134689003.965 7      -376.235 7        43.663               
E30  28020653.589 6 146888819.197 6      2701.233 6        38.895               
E34  27632164.197 6 145207373.799 6     -2491.657 6        38.659               
> 2025 01 08 17 43 06.0000000  0  6                                             
E13  28000998.325 6 147145698.409 6      2484.886 6        37.075               
E15  25591050.050 7 134481213.133 7       123.775 7        42.052               
E21  27980664.752 6 147320724.493 6     -2073.376 6        38.790               
E27  25630651.057 7 134689380.381 7      -377.000 7        43.643               
E30  28021171.469 6 146886118.984 6      2698.001 6        38.810               
E34  27632636.797 6 145209864.917 6     -2493.880 6        38.711               
> 2025 01 08 17 43 07.0000000  0  6                                             
E13  28000528.512 6 147143213.903 6      2483.881 6        36.888               
E15  25591029.197 7 134481089.852 7       121.740 7        42.434               
E21  27980272.492 6 147322797.595 6     -2070.135 6        38.851               
E27  25630726.804 7 134689757.687 7      -376.752 7        43.487               
E30  28021687.598 6 146883418.025 6      2702.109 6        38.435               
E34  27633114.203 6 145212356.786 6     -2493.858 6        38.575               
> 2025 01 08 17 43 08.0000000  0  6                                             
E13  28000055.519 6 147140730.177 6      2483.881 6        36.736               
E15  25591004.251 7 134480967.574 7       121.701 7        42.231               
E21  27979879.838 6 147324869.967 6     -2072.495 6        38.545               
E27  25630799.120 7 134690135.952 7      -378.632 7        43.577               
E30  28022200.278 6 146880716.291 6      2702.301 6        38.273               
E34  27633589.323 6 145214849.475 6     -2492.377 6        38.537               
> 2025 01 08 17 43 09.0000000  0  6                                             
E13  27999588.173 6 147138246.790 6      2485.389 6        36.418               
E15  25590985.435 7 134480845.836 7       121.560 7        42.437               
E21  27979488.774 6 147326942.033 6     -2069.676 6        38.367               
E27  25630875.009 7 134690514.705 7      -379.762 7        43.335               
E30  28022721.767 6 146878014.200 6      2701.570 6        38.650               
E34  27634066.890 6 145217342.509 6     -2492.586 6        38.412               
> 2025 01 08 17 43 10.0000000  0  6                                             
E13  27999117.431 6 147135763.498 6      2482.648 6        36.800               
E15  25590961.366 7 134480724.406 7       120.512 7        42.199               
E21  27979098.104 6 147329014.053 6     -2070.232 6        38.338               
E27  25630949.362 7 134690893.714 7      -379.488 7        43.311               
E30  28023236.270 6 146875312.000 6      2703.440 6        38.453               
E34  27634542.582 6 145219835.641 6     -2493.525 6        38.843               
> 2025 01 08 17 43 11.0000000  0  6                                             
E13  27998645.242 6 147133280.394 6      2482.959 6        36.656               
E15  25590939.494 7 134480603.348 7       120.767 7        42.251               
E21  27978705.092 6 147331085.973 6     -2071.992 6        38.496               
E27  25631020.981 7 134691273.012 7      -378.919 7        43.728               
E30  28023750.648 6 146872609.650 6      2702.387 6        38.903               
E34  27635022.222 6 145222328.997 6     -2493.617 6        38.988               
> 2025 01 08 17 43 12.0000000  0  6                                             
E13  27998177.074 6 147130797.113 6      2484.034 6        36.617               
E15  25590919.409 6 134480482.341 6       120.899 6        41.934               
E21  27978311.062 6 147333158.111 6     -2072.511 6        38.134               
E27  25631093.887 7 134691652.317 7      -378.860 7        43.447               
E30  28024263.792 6 146869907.460 6      2701.901 6        38.681               
E34  27635493.249 6 145224822.164 6     -2495.207 6        38.844               
> 2025 01 08 17 43 13.0000000  0  6                                             
E13  27997705.403 6 147128314.297 6      2482.890 6        36.655               
E15  25590895.054 6 134480361.979 6       120.325 6        41.715               
E21  27977922.393 6 147335229.821 6     -2070.411 6        38.405               
E27  25631171.617 7 134692032.257 7      -380.610 7        43.363               
E30  28024787.212 6 146867204.784 6      2701.948 6        39.115               
E34  27635970.585 6 145227315.832 6     -2490.904 6        38.588               
> 2025 01 08 17 43 14.0000000  0  6                                             
E13  27997234.376 6 147125831.152 6      2481.398 6        36.992               
E15  25590875.130 6 134480241.514 6       120.302 6        41.651               
E21  27977527.131 6 147337301.926 6     -2071.411 6        38.415               
E27  25631242.825 7 134692411.986 7      -380.037 7        43.490               
E30  28025302.894 6 146864502.438 6      2702.992 6        38.861               
E34  27636446.830 6 145229809.178 6     -2490.238 6        38.704               
> 2025 01 08 17 43 15.0000000  0  6                                             
E13  27996764.134 6 147123349.492 6      2482.575 6        36.429               
E15  25590854.116 6 134480122.734 6       118.232 6        41.401               
E21  27977136.299 6 147339372.583 6     -2069.313 6        38.468               
E27  25631317.303 7 134692793.385 7      -381.656 7        43.441               
E30  28025815.681 6 146861798.600 6      2704.717 6        38.686               
E34  27636925.362 6 145232304.031 6     -2497.364 6        39.136               
> 2025 01 08 17 43 16.0000000  0  6                                             
E13  27996289.676 6 147120867.298 6      2482.639 6        36.783               
E15  25590831.869 6 134480003.646 6       118.640 6        41.197               
E21  27976741.519 6 147341443.826 6     -2071.468 6        38.403               
E27  25631391.638 7 134693174.391 7      -381.155 7        43.491               
E30  28026330.792 6 146859095.297 6      2704.075 6        38.380               
E34  27637398.409 6 145234798.362 6     -2494.055 6        39.060               
> 2025 01 08 17 43 17.0000000  0  6                                             
E13  27995819.417 6 147118385.535 6      2481.791 6        36.524               
E15  25590813.178 6 134479885.161 6       118.663 6        41.185               
E21  27976349.794 6 147343514.726 6     -2069.979 6        38.498               
E27  25631469.512 7 134693555.953 7      -381.777 7        43.237               
E30  28026849.851 6 146856391.597 6      2704.376 6        38.293               
E34  27637876.763 6 145237293.096 6     -2494.088 6        39.294               
> 2025 01 08 17 43 18.0000000  0  6                                             
E13  27995352.124 6 147115904.132 6      2479.565 6        36.613               
E15  25590791.950 6 134479767.231 6       117.720 6        41.225               
E21  27975955.800 6 147345585.320 6     -2071.367 6        38.675               
E27  25631542.292 7 134693938.029 7      -382.198 7        43.558               
E30  28027362.352 6 146853687.534 6      2703.545 6        38.334               
E34  27638355.241 6 145239788.229 6     -2496.820 6        39.397               
> 2025 01 08 17 43 19.0000000  0  6                                             
E13  27994880.614 6 147113422.603 6      2481.148 6        36.427               
E15  25590773.830 6 134479649.398 6       118.442 6        41.067               
E21  27975565.112 6 147347656.103 6     -2073.926 6        38.466               
E27  25631616.038 7 134694320.144 7      -382.824 7        43.360               
E30  28027885.933 6 146850983.565 6      2703.455 6        38.541               
E34  27638829.271 6 145242283.229 6     -2494.381 6        39.521               
> 2025 01 08 17 43 20.0000000  0  6                                             
E13  27994409.319 6 147110941.217 6      2481.785 6        36.699               
E15  25590751.226 6 134479531.910 6       115.885 6        40.982               
E21  27975173.548 6 147349726.761 6     -2071.793 6        38.465               
E27  25631693.357 7 134694702.562 7      -383.199 7        43.355               
E30  28028403.634 6 146848279.447 6      2703.328 6        38.971               
E34  27639308.089 6 145244778.409 6     -2493.400 6        38.938               
> 2025 01 08 17 43 21.0000000  0  6                                             
E13  27993936.576 6 147108460.217 6      2479.135 6        36.506               
E15  25590731.856 6 134479415.046 6       115.429 6        40.884               
E21  27974779.179 6 147351797.074 6     -2068.594 6        38.308               
E27  25631764.940 7 134695085.511 7      -384.794 7        43.266               
E30  28028918.923 6 146845574.954 6      2704.274 6        39.037               
E34  27639786.997 6 145247274.001 6     -2493.357 6        38.885               
> 2025 01 08 17 43 22.0000000  0  6                                             
E13  27993466.710 6 147105979.521 6      2478.481 6        36.443               
E15  25590709.395 6 134479298.671 6       115.094 6        40.837               
E21  27974386.453 6 147353867.148 6     -2070.008 6        38.214               
E27  25631843.832 7 134695468.937 7      -382.581 7        43.256               
E30  28029434.963 6 146842870.143 6      2705.030 6        38.871               
E34  27640261.884 6 145249769.905 6     -2496.793 6        38.932               
> 2025 01 08 17 43 23.0000000  0  6                                             
E13  27992991.233 6 147103499.151 6      2480.283 6        36.511               
E15  25590690.311 6 134479182.816 6       115.546 6        40.542               
E21  27973993.496 6 147355936.935 6     -2068.523 6        38.298               
E27  25631918.167 7 134695852.817 7      -383.936 7        43.122               
E30  28029952.646 6 146840165.000 6      2704.987 6        38.903               
E34  27640737.325 6 145252266.151 6     -2496.795 6        39.000               
> 2025 01 08 17 43 24.0000000  0  6                                             
E13  27992530.355 6 147101019.716 6      2479.151 6        36.746               
E15  25590670.887 6 134479068.085 6       114.984 6        40.316               
E21  27973605.112 6 147358005.871 6     -2069.313 6        38.492               
E27  25631989.947 7 134696237.779 7      -385.260 7        43.080               
E30  28030464.290 6 146837458.941 6      2706.517 6        39.059               
E34  27641213.195 6 145254763.314 6     -2497.529 6        39.045               
> 2025 01 08 17 43 25.0000000  0  6                                             
E13  27992062.580 6 147098540.778 6      2478.695 6        36.849               
E15  25590650.749 6 134478954.054 6       115.748 6        40.388               
E21  27973209.564 6 147360074.371 6     -2067.991 6        38.559               
E27  25632066.677 7 134696623.379 7      -385.002 7        43.319               
E30  28030983.010 6 146834752.382 6      2706.191 6        39.298               
E34  27641693.157 6 145257260.990 6     -2498.128 6        39.229               
> 2025 01 08 17 43 26.0000000  0  6                                             
E13  27991588.443 6 147096060.969 6      2479.335 6        36.450               
E15  25590631.486 6 134478839.375 6       115.684 6        40.223               
E21  27972822.592 6 147362143.764 6     -2068.413 6        38.617               
E27  25632140.994 7 134697008.280 7      -385.651 7        43.123               
E30  28031503.356 6 146832046.685 6      2705.993 6        38.876               
E34  27642176.818 6 145259757.803 6     -2495.796 6        39.173               
> 2025 01 08 17 43 27.0000000  0  6                                             
E13  27991123.009 6 147093582.095 6      2476.596 6        36.873               
E15  25590614.814 6 134478725.819 6       113.363 6        40.027               
E21  27972432.350 6 147364212.316 6     -2069.535 6        38.270               
E27  25632214.882 7 134697394.243 7      -386.285 7        43.303               
E30  28032016.643 6 146829340.100 6      2708.957 6        39.068               
E34  27642648.649 6 145262255.561 6     -2499.568 6        39.264               
> 2025 01 08 17 43 28.0000000  0  6                                             
E13  27990648.283 6 147091103.735 6      2479.101 6        36.713               
E15  25590589.333 6 134478613.004 6       113.838 6        39.937               
E21  27972038.339 6 147366280.375 6     -2066.183 6        38.265               
E27  25632294.739 7 134697780.900 7      -386.195 7        43.396               
E30  28032533.952 6 146826632.957 6      2705.808 6        39.233               
E34  27643125.323 6 145264753.865 6     -2498.822 6        39.288               
> 2025 01 08 17 43 29.0000000  0  6                                             
E13  27990180.758 6 147088624.888 6      2479.548 6        36.821               
E15  25590569.212 6 134478499.909 6       111.858 6        40.129               
E21  27971647.061 6 147368348.956 6     -2069.462 6        38.320               
E27  25632368.234 7 134698167.220 7      -386.671 7        43.393               
E30  28033050.813 6 146823926.283 6      2706.455 6        38.944               
E34  27643600.568 6 145267251.694 6     -2499.254 6        39.435               
> 2025 01 08 17 43 30.0000000  0  6                                             
E13  27989706.764 6 147086146.221 6      2478.752 6        37.152               
E15  25590550.557 6 134478387.175 6       114.686 6        39.855               
E21  27971252.352 6 147370417.444 6     -2067.011 6        38.476               
E27  25632442.998 7 134698553.853 7      -385.951 7        43.526               
E30  28033567.907 6 146821219.448 6      2707.932 6        38.803               
E34  27644075.402 6 145269749.701 6     -2498.086 6        39.298               
> 2025 01 08 17 43 31.0000000  0  6                                             
E13  27989240.025 6 147083667.821 6      2476.425 6        36.820               
E15  25590527.828 6 134478274.899 6       111.914 6        39.573               
E21  27970859.894 6 147372485.728 6     -2066.732 6        38.483               
E27  25632517.619 7 134698940.890 7      -387.435 7        43.351               
E30  28034083.625 6 146818512.374 6      2707.326 6        38.756               
E34  27644553.291 6 145272247.965 6     -2497.819 6        39.286               
> 2025 01 08 17 43 32.0000000  0  6                                             
E13  27988770.105 6 147081189.723 6      2477.080 6        36.842               
E15  25590510.084 6 134478163.183 6       109.976 6        39.707               
E21  27970472.923 6 147374553.719 6     -2068.356 6        38.450               
E27  25632594.599 7 134699328.431 7      -387.886 7        43.302               
E30  28034601.344 6 146815804.918 6      2707.864 6        38.765               
E34  27645031.537 6 145274746.594 6     -2498.736 6        39.200               
> 2025 01 08 17 43 33.0000000  0  6                                             
E13  27988296.809 6 147078711.940 6      2478.156 6        36.826               
E15  25590493.591 6 134478051.962 6       111.506 6        39.484               
E21  27970077.642 6 147376621.472 6     -2068.185 6        38.604               
E27  25632668.791 7 134699716.403 7      -388.872 7        43.154               
E30  28035118.509 6 146813097.225 6      2707.751 6        38.925               
E34  27645507.103 6 145277245.521 6     -2499.461 6        39.792               
> 2025 01 08 17 43 34.0000000  0  6                                             
E13  27987828.193 6 147076234.548 6      2476.729 6        36.736               
E15  25590474.435 6 134477941.342 6       109.963 6        39.303               
E21  27969687.258 6 147378688.860 6     -2066.247 6        38.696               
E27  25632746.093 7 134700104.958 7      -390.255 7        42.949               
E30  28035634.620 6 146810389.049 6      2708.670 6        39.116               
E34  27645987.727 6 145279744.889 6     -2499.597 6        39.760               
> 2025 01 08 17 43 35.0000000  0  6                                             
E13  27987359.221 6 147073757.563 6      2477.398 6        36.810               
E15  25590453.457 6 134477831.306 6       109.732 6        39.011               
E21  27969294.604 6 147380755.935 6     -2065.362 6        38.777               
E27  25632820.982 7 134700494.029 7      -389.712 7        42.926               
E30  28036151.482 6 146807680.546 6      2709.901 6        39.010               
E34  27646467.492 6 145282244.622 6     -2498.365 6        39.645               
> 2025 01 08 17 43 36.0000000  0  6                                             
E13  27986892.500 6 147071280.557 6      2477.714 6        36.950               
E15  25590436.964 6 134477721.453 6       110.544 6        38.744               
E21  27968905.309 6 147382823.069 6     -2065.518 6        38.700               
E27  25632896.800 7 134700883.223 7      -389.449 7        42.900               
E30  28036672.524 6 146804972.045 6      2709.891 6        38.939               
E34  27646945.881 6 145284744.365 6     -2499.567 6        39.432               
> 2025 01 08 17 43 37.0000000  0  6                                             
E13  27986417.005 6 147068803.740 6      2475.238 6        36.793               
E15  25590417.522 6 134477612.016 6       110.410 6        38.777               
E21  27968512.334 6 147384890.052 6     -2067.961 6        38.781               
E27  25632973.065 7 134701272.778 7      -390.318 7        43.280               
E30  28037189.386 6 146802263.365 6      2708.489 6        39.036               
E34  27647424.074 6 145287244.304 6     -2497.964 6        39.480               
> 2025 01 08 17 43 38.0000000  0  6                                             
E13  27985949.087 6 147066327.386 6      2476.636 6        36.868               
E15  25590392.148 6 134477503.222 6       108.392 6        38.606               
E21  27968122.539 6 147386956.646 6     -2064.546 6        38.643               
E27  25633049.008 7 134701662.946 7      -391.095 7        43.355               
E30  28037701.601 6 146799554.208 6      2709.413 6        39.009               
E34  27647897.711 6 145289744.699 6     -2499.236 6        39.515               
> 2025 01 08 17 43 39.0000000  0  6                                             
E13  27985483.313 6 147063851.816 6      2473.750 6        36.608               
E15  25590378.818 6 134477395.434 6       106.287 6        38.495               
E21  27967730.189 6 147389022.515 6     -2064.889 6        38.684               
E27  25633126.703 7 134702054.039 7      -391.899 7        43.295               
E30  28038223.877 6 146796844.278 6      2709.678 6        39.182               
E34  27648378.638 6 145292245.908 6     -2501.128 6        39.265               
> 2025 01 08 17 43 40.0000000  0  6                                             
E13  27985014.877 6 147061376.471 6      2474.875 6        36.584               
E15  25590358.465 6 134477288.070 6       107.307 6        38.157               
E21  27967339.196 6 147391088.201 6     -2066.156 6        38.764               
E27  25633201.181 7 134702445.519 7      -390.985 7        43.448               
E30  28038739.542 6 146794134.113 6      2708.734 6        39.258               
E34  27648853.525 6 145294747.342 6     -2500.535 6        39.246               
> 2025 01 08 17 43 41.0000000  0  6                                             
E13  27984545.064 6 147058900.671 6      2476.984 6        36.453               
E15  25590339.899 6 134477180.455 6       108.820 6        37.851               
E21  27966947.329 6 147393154.400 6     -2065.810 6        38.404               
E27  25633277.035 7 134702836.679 7      -390.413 7        43.324               
E30  28039260.995 6 146791424.383 6      2709.609 6        39.235               
E34  27649332.647 6 145297248.353 6     -2500.270 6        39.510               
> 2025 01 08 17 43 42.0000000  0  6                                             
E13  27984073.644 6 147056424.726 6      2477.025 6        36.716               
E15  25590319.957 6 134477072.908 6       106.251 6        37.902               
E21  27966560.840 6 147395220.782 6     -2066.614 6        38.394               
E27  25633355.087 7 134703227.873 7      -391.748 7        43.344               
E30  28039774.658 6 146788714.832 6      2709.981 6        39.569               
E34  27649806.498 6 145299749.211 6     -2500.176 6        39.651               
> 2025 01 08 17 43 43.0000000  0  6                                             
E13  27983604.153 6 147053949.144 6      2476.525 6        36.408               
E15  25590303.821 6 134476965.918 6       105.576 6        37.587               
E21  27966165.827 6 147397286.857 6     -2066.612 6        38.417               
E27  25633430.065 7 134703619.573 7      -392.519 7        43.256               
E30  28040292.717 6 146786004.895 6      2711.202 6        39.595               
E34  27650288.622 6 145302250.466 6     -2502.330 6        39.755               
> 2025 01 08 17 43 44.0000000  0  6                                             
E13  27983134.448 6 147051473.753 6      2476.005 6        36.825               
E15  25590284.934 6 134476859.319 6       107.342 6        37.848               
E21  27965771.422 6 147399352.802 6     -2064.611 6        38.621               
E27  25633507.456 7 134704011.605 7      -391.907 7        43.077               
E30  28040811.080 6 146783294.783 6      2710.127 6        39.265               
E34  27650769.173 6 145304751.909 6     -2501.783 6        39.650               
> 2025 01 08 17 43 45.0000000  0  6                                             
E13  27982668.245 6 147048998.486 6      2477.452 6        37.066               
E15  25590265.886 6 134476753.025 6       105.357 6        37.797               
E21  27965380.055 6 147401418.688 6     -2066.699 6        38.357               
E27  25633582.810 7 134704403.905 7      -392.566 7        43.234               
E30  28041328.120 6 146780584.541 6      2708.578 6        38.917               
E34  27651243.560 6 145307253.459 6     -2500.407 6        39.703               
> 2025 01 08 17 43 46.0000000  0  6                                             
E13  27982191.607 6 147046523.305 6      2474.553 6        36.513               
E15  25590248.999 6 134476647.075 6       107.143 6        37.416               
E21  27964993.172 6 147403484.517 6     -2065.442 6        38.212               
E27  25633660.325 7 134704796.458 7      -392.068 7        43.407               
E30  28041843.570 6 146777874.193 6      2709.717 6        38.799               
E34  27651721.074 6 145309755.163 6     -2503.867 6        39.699               
> 2025 01 08 17 43 47.0000000  0  6                                             
E13  27981728.066 6 147044048.371 6      2477.658 6        36.885               
E15  25590228.736 6 134476541.530 6       105.998 6        37.248               
E21  27964596.123 6 147405550.163 6     -2064.117 6        38.060               
E27  25633736.805 7 134705189.407 7      -393.030 7        43.375               
E30  28042364.076 6 146775163.621 6      2711.733 6        39.014               
E34  27652196.926 6 145312257.062 6     -2503.917 6        39.722               
> 2025 01 08 17 43 48.0000000  0  6                                             
E13  27981261.185 6 147041573.831 6      2473.634 6        36.985               
E15  25590208.740 6 134476436.588 6       104.436 6        37.169               
E21  27964204.059 6 147407615.463 6     -2066.526 6        38.282               
E27  25633814.356 7 134705582.870 7      -394.267 7        43.520               
E30  28042880.777 6 146772452.659 6      2710.793 6        38.956               
E34  27652677.907 6 145314759.371 6     -2504.243 6        39.578               
> 2025 01 08 17 43 49.0000000  0  6                                             
E13  27980787.459 6 147039099.633 6      2472.898 6        37.203               
E15  25590192.355 6 134476332.219 6       103.018 6        37.141               
E21  27963814.246 6 147409680.469 6     -2064.545 6        38.010               
E27  25633888.888 7 134705976.860 7      -394.454 7        43.390               
E30  28043398.157 6 146769741.334 6      2713.007 6        38.980               
E34  27653156.904 6 145317262.073 6     -2503.015 6        39.534               
> 2025 01 08 17 43 50.0000000  0  6                                             
E13  27980325.169 6 147036625.947 6      2474.159 6        36.843               
E15  25590174.628 6 134476228.489 6       105.438 6        37.046               
E21  27963427.238 6 147411745.076 6     -2064.903 6        37.931               
E27  25633968.066 7 134706371.476 7      -394.643 7        43.470               
E30  28043911.963 6 146767029.550 6      2713.788 6        38.923               
E34  27653632.023 6 145319765.225 6     -2503.722 6        39.455               
> 2025 01 08 17 43 51.0000000  0  6                                             
E13  27979854.213 6 147034152.631 6      2473.373 6        36.821               
E15  25590158.100 6 134476125.445 6       102.361 6        36.703               
E21  27963032.405 6 147413809.281 6     -2065.246 6        37.639               
E27  25634044.688 7 134706766.670 7      -394.808 7        43.293               
E30  28044429.503 6 146764317.336 6      2712.408 6        38.775               
E34  27654110.019 6 145322268.838 6     -2503.827 6        39.682               
> 2025 01 08 17 43 52.0000000  0  6                                             
E13  27979383.079 6 147031679.656 6      2473.570 6        36.953               
E15  25590139.855 6 134476022.889 6       100.902 6        36.490               
E21  27962639.929 6 147415873.210 6     -2061.906 6        37.667               
E27  25634120.488 7 134707162.335 7      -395.430 7        42.934               
E30  28044951.028 6 146761604.786 6      2713.421 6        38.649               
E34  27654590.035 6 145324772.782 6     -2504.784 6        39.557               
> 2025 01 08 17 43 53.0000000  0  6                                             
E13  27978912.230 6 147029206.835 6      2471.456 6        36.874               
E15  25590123.612 6 134475920.688 6       101.161 6        36.296               
E21  27962252.833 6 147417937.079 6     -2062.669 6        37.716               
E27  25634196.503 7 134707558.302 7      -396.539 7        43.081               
E30  28045469.444 6 146758892.100 6      2711.301 6        38.722               
E34  27655069.550 6 145327276.874 6     -2505.526 6        39.442               
> 2025 01 08 17 43 54.0000000  0  6                                             
E13  27978445.670 6 147026734.021 6      2474.583 6        36.910               
E15  25590103.349 6 134475818.660 6       100.416 6        36.169               
E21  27961861.841 6 147420001.002 6     -2065.203 6        38.093               
E27  25634275.288 7 134707954.391 7      -396.548 7        43.038               
E30  28045988.414 6 146756179.440 6      2712.129 6        38.477               
E34  27655546.868 6 145329780.958 6     -2503.631 6        39.241               
> 2025 01 08 17 43 55.0000000  0  6                                             
E13  27977974.660 6 147024260.615 6      2474.837 6        36.542               
E15  25590085.980 6 134475716.324 6       101.220 6        36.224               
E21  27961472.653 6 147422065.513 6     -2062.330 6        37.978               
E27  25634352.714 7 134708350.096 7      -396.398 7        43.194               
E30  28046502.167 6 146753467.323 6      2710.482 6        38.726               
E34  27656024.399 6 145332284.501 6     -2501.373 6        39.280               
> 2025 01 08 17 43 56.0000000  0  6                                             
E13  27977509.315 6 147021788.096 6      2471.517 6        36.666               
E15  25590068.469 5 134475614.997 5        99.217 5        35.968               
E21  27961077.676 6 147424129.235 6     -2063.106 6        37.832               
E27  25634430.194 7 134708746.776 7      -397.875 7        42.904               
E30  28047019.689 6 146750754.345 6      2713.662 6        38.532               
E34  27656502.753 6 145334788.902 6     -2506.636 6        39.469               
> 2025 01 08 17 43 57.0000000  0  6                                             
E13  27977041.057 6 147019316.599 6      2469.033 6        36.673               
E15  25590049.742 5 134475514.911 5        99.630 5        35.731               
E21  27960691.044 6 147426192.002 6     -2061.708 6        38.039               
E27  25634506.978 7 134709144.662 7      -398.165 7        42.676               
E30  28047539.839 6 146748040.357 6      2714.503 6        38.504               
E34  27656980.785 6 145337294.331 6     -2504.559 6        39.356               
> 2025 01 08 17 43 58.0000000  0  6                                             
E13  27976570.638 6 147016844.357 6      2472.602 6        36.982               
E15  25590032.373 5 134475414.324 5       101.965 5        35.664               
E21  27960297.711 6 147428255.508 6     -2062.805 6        37.846               
E27  25634580.812 7 134709541.968 7      -397.273 7        42.776               
E30  28048059.595 6 146745327.064 6      2712.418 6        38.590               
E34  27657459.210 6 145339799.087 6     -2506.083 6        39.254               
> 2025 01 08 17 43 59.0000000  0  6                                             
E13  27976099.503 6 147014372.394 6      2470.250 6        36.724               
E15  25590012.235 5 134475314.206 5        96.641 5        35.475               
E21  27959903.592 6 147430318.797 6     -2062.455 6        37.624               
E27  25634662.099 7 134709939.708 7      -399.359 7        42.527               
E30  28048579.870 6 146742613.502 6      2714.596 6        38.377               
E34  27657940.334 6 145342304.094 6     -2504.208 6        39.095               
> 2025 01 08 17 44 00.0000000  0  6                                             
E13  27975633.121 6 147011901.218 6      2473.044 6        36.638               
E15  25589998.476 5 134475215.074 5       101.595 5        35.347               
E21  27959512.815 6 147432381.377 6     -2064.781 6        37.769               
E27  25634738.238 7 134710338.371 7      -398.555 7        43.072               
E30  28049092.800 6 146739899.189 6      2712.663 6        38.096               
E34  27658417.955 6 145344809.893 6     -2506.679 6        39.372               
> 2025 01 08 17 44 01.0000000  0  6                                             
E13  27975160.504 6 147009428.611 6      2472.283 6        36.865               
E15  25589980.642 5 134475114.701 5       102.706 5        35.417               
E21  27959118.874 6 147434445.454 6     -2061.461 6        37.710               
E27  25634816.862 7 134710735.734 7      -397.091 7        42.746               
E30  28049613.342 6 146737186.290 6      2713.352 6        38.401               
E34  27658894.647 6 145347314.257 6     -2506.249 6        39.782               
> 2025 01 08 17 44 02.0000000  0  6                                             
E13  27974701.270 6 147006957.568 6      2471.726 6        37.040               
E15  25589964.364 5 134475016.091 5        96.890 5        35.259               
E21  27958738.639 6 147436508.010 6     -2063.734 6        38.077               
E27  25634896.165 7 134711134.839 7      -398.110 7        42.683               
E30  28050131.633 6 146734471.837 6      2714.483 6        38.488               
E34  27659375.484 6 145349820.220 6     -2506.124 6        39.336               
> 2025 01 08 17 44 03.0000000  0  6                                             
E13  27974227.151 6 147004485.772 6      2472.125 6        36.863               
E15  25589950.319 5 134474916.963 5       101.568 5        35.273               
E21  27958344.431 6 147438571.341 6     -2063.675 6        38.042               
E27  25634971.018 7 134711533.341 7      -397.738 7        42.882               
E30  28050647.315 6 146731758.122 6      2711.584 6        38.456               
E34  27659854.285 6 145352325.430 6     -2503.004 6        39.355               
> 2025 01 08 17 44 04.0000000  0  6                                             
E13  27973755.963 6 147002014.135 6      2471.826 6        36.648               
E15  25589933.289 5 134474818.153 5        99.327 5        35.104               
E21  27957949.489 6 147440634.606 6     -2063.425 6        37.733               
E27  25635050.053 7 134711932.120 7      -399.288 7        42.873               
E30  28051170.860 6 146729044.288 6      2713.117 6        38.539               
E34  27660328.940 6 145354830.774 6     -2503.588 6        39.069               
> 2025 01 08 17 44 05.0000000  0  6                                             
E13  27973287.455 6 146999542.716 6      2471.576 6        36.848               
E15  25589914.938 5 134474719.793 5        97.580 5        35.186               
E21  27957557.908 6 147442697.684 6     -2064.469 6        37.820               
E27  25635128.033 7 134712331.308 7      -399.160 7        42.956               
E30  28051685.059 6 146726330.176 6      2713.774 6        38.531               
E34  27660807.311 6 145357336.398 6     -2507.072 6        38.872               
> 2025 01 08 17 44 06.0000000  0  6                                             
E13  27972826.720 6 146997071.672 6      2469.369 6        37.221               
E15  25589898.945 5 134474621.983 5        96.014 5        35.064               
E21  27957174.170 6 147444760.441 6     -2062.066 6        37.796               
E27  25635205.245 7 134712730.972 7      -400.760 7        43.206               
E30  28052204.243 6 146723615.781 6      2714.024 6        38.513               
E34  27661287.470 6 145359842.344 6     -2508.655 6        38.892               
> 2025 01 08 17 44 07.0000000  0  6                                             
E13  27972352.530 6 146994601.312 6      2469.802 6        36.762               
E15  25589881.809 5 134474525.078 5        93.834 5        34.867               
E21  27956780.284 6 147446822.602 6     -2063.648 6        37.741               
E27  25635283.279 7 134713131.505 7      -401.517 7        42.830               
E30  28052724.089 6 146720900.622 6      2717.707 6        38.359               
E34  27661767.057 6 145362349.034 6     -2505.177 6        38.690               
> 2025 01 08 17 44 08.0000000  0  6                                             
E13  27971885.630 6 146992131.898 6      2469.619 6        36.699               
E15  25589866.477 5 134474429.333 5        94.607 5        34.642               
E21  27956393.973 6 147448883.818 6     -2062.464 6        37.808               
E27  25635360.509 7 134713533.138 7      -400.846 7        43.079               
E30  28053243.756 6 146718184.553 6      2714.714 6        38.489               
E34  27662245.911 6 145364856.649 6     -2508.691 6        38.976               
> 2025 01 08 17 44 09.0000000  0  6                                             
E13  27971413.727 6 146989662.208 6      2471.083 6        36.410               
E15  25589845.606 5 134474333.515 5        96.735 5        34.448               
E21  27956001.927 6 147450945.354 6     -2062.766 6        37.937               
E27  25635439.687 7 134713934.675 7      -399.627 7        43.035               
E30  28053757.615 6 146715468.725 6      2716.023 6        38.330               
E34  27662724.193 6 145367364.043 6     -2504.756 6        38.800               
> 2025 01 08 17 44 10.0000000  0  6                                             
E13  27970949.507 6 146987191.924 6      2471.980 6        36.463               
E15  25589834.045 5 134474237.291 5        99.645 5        34.544               
E21  27955610.935 6 147453007.582 6     -2063.316 6        37.884               
E27  25635518.043 7 134714335.737 7      -400.211 7        42.787               
E30  28054280.356 6 146712753.499 6      2716.248 6        38.200               
E34  27663201.743 6 145369870.806 6     -2505.808 6        38.702               
> 2025 01 08 17 44 11.0000000  0  6                                             
E13  27970479.552 6 146984721.325 6      2471.247 6        36.515               
E15  25589816.015 5 134474140.948 5        95.304 5        34.440               
E21  27955217.137 6 147455070.156 6     -2061.423 6        37.957               
E27  25635596.166 7 134714736.627 7      -402.110 7        42.917               
E30  28054797.146 6 146710038.636 6      2713.767 6        38.274               
E34  27663684.028 6 145372377.285 6     -2506.340 6        38.630               
> 2025 01 08 17 44 12.0000000  0  6                                             
E13  27970014.564 6 146982251.971 6      2468.035 6        36.776               
E15  25589799.915 5 134474046.059 5        94.842 5        34.321               
E21  27954827.164 6 147457131.527 6     -2060.039 6        38.032               
E27  25635675.397 7 134715138.911 7      -402.797 7        42.582               
E30  28055315.759 6 146707322.490 6      2716.170 6        38.034               
E34  27664162.453 6 145374884.991 6     -2507.186 6        38.743               
> 2025 01 08 17 44 13.0000000  0  6                                             
E13  27969544.770 6 146979783.523 6      2468.128 6        36.864               
E15  25589783.797 5 134473952.252 5        91.708 5        34.334               
E21  27954435.278 6 147459192.077 6     -2060.235 6        38.067               
E27  25635752.341 7 134715542.224 7      -403.846 7        42.808               
E30  28055838.678 6 146704605.474 6      2716.955 6        38.457               
E34  27664638.734 6 145377393.602 6     -2511.309 6        38.695               
> 2025 01 08 17 44 14.0000000  0  6                                             
E13  27969079.711 6 146977315.073 6      2466.553 6        36.783               
E15  25589768.198 5 134473858.657 5        96.108 5        33.967               
E21  27954047.717 6 147461252.672 6     -2060.345 6        38.172               
E27  25635830.214 7 134715945.716 7      -402.600 7        42.678               
E30  28056355.897 6 146701888.457 6      2717.302 6        38.502               
E34  27665117.177 6 145379902.223 6     -2507.928 6        39.057               
> 2025 01 08 17 44 15.0000000  0  6                                             
E13  27968609.827 6 146974846.383 6      2469.974 6        37.115               
E15  25589753.616 5 134473765.059 5        91.308 5        33.841               
E21  27953658.226 6 147463313.543 6     -2061.352 6        38.076               
E27  25635909.696 7 134716349.138 7      -403.531 7        42.401               
E30  28056871.847 6 146699171.654 6      2717.545 6        38.357               
E34  27665598.104 6 145382410.642 6     -2510.277 6        38.988               
> 2025 01 08 17 44 16.0000000  0  6                                             
E13  27968137.549 6 146972377.615 6      2467.772 6        37.263               
E15  25589735.193 5 134473671.563 5        91.131 5        33.770               
E21  27953259.925 6 147465374.567 6     -2059.932 6        38.270               
E27  25635986.032 7 134716752.619 7      -404.778 7        42.173               
E30  28057390.638 6 146696454.937 6      2716.807 6        38.310               
E34  27666079.191 6 145384918.981 6     -2511.476 6        39.017               
> 2025 01 08 17 44 17.0000000  0  6                                             
E13  27967671.810 6 146969910.072 6      2469.234 6        37.153               
E15  25589720.737 5 134473579.480 5        94.555 5        33.558               
E21  27952876.706 6 147467434.381 6     -2059.400 6        38.493               
E27  25636066.300 7 134717157.479 7      -405.282 7        42.275               
E30  28057913.093 6 146693737.020 6      2716.874 6        38.185               
E34  27666561.512 6 145387428.553 6     -2509.923 6        39.069               
> 2025 01 08 17 44 18.0000000  0  6                                             
E13  27967205.840 6 146967442.527 6      2468.317 6        37.043               
E15  25589705.209 5 134473487.596 5        94.230 5        33.633               
E21  27952487.555 6 147469494.295 6     -2059.327 6        38.926               
E27  25636146.139 7 134717562.458 7      -405.596 7        42.277               
E30  28058429.311 6 146691019.116 6      2717.221 6        38.447               
E34  27667037.829 6 145389938.097 6     -2508.618 6        38.930               
> 2025 01 08 17 44 19.0000000  0  6                                             
E13  27966735.724 6 146964975.522 6      2466.138 6        37.383               
E15  25589689.306 5 134473396.456 5        88.614 5        33.436               
E21  27952098.671 6 147471553.708 6     -2060.148 6        38.589               
E27  25636222.404 7 134717968.141 7      -406.209 7        42.174               
E30  28058949.817 6 146688300.631 6      2718.642 6        38.114               
E34  27667515.718 6 145392448.200 6     -2511.181 6        38.921               
> 2025 01 08 17 44 20.0000000  0  6                                             
E13  27966268.717 6 146962509.181 6      2465.941 6        37.313               
E15  25589669.918 5 134473306.188 5        89.742 5        33.173               
E21  27951706.249 6 147473612.491 6     -2059.811 6        38.776               
E27  25636304.369 7 134718374.647 7      -406.781 7        42.062               
E30  28059466.697 6 146685581.543 6      2718.982 6        38.229               
E34  27667994.393 6 145394958.967 6     -2511.423 6        39.145               
> 2025 01 08 17 44 21.0000000  0  6                                             
E13  27965798.029 6 146960041.847 6      2467.084 6        37.362               
E15  25589657.570 5 134473215.162 5        88.110 5        33.117               
E21  27951318.742 6 147475672.319 6     -2060.682 6        38.946               
E27  25636380.473 7 134718780.324 7      -405.537 7        42.042               
E30  28059986.971 6 146682863.375 6      2717.097 6        38.336               
E34  27668476.464 6 145397468.801 6     -2509.491 6        39.456               
> 2025 01 08 17 44 22.0000000  0  6                                             
E13  27965336.168 6 146957574.126 6      2468.127 6        37.517               
E15  25589641.846 5 134473123.909 5        91.237 5        33.121               
E21  27950930.305 6 147477732.590 6     -2060.018 6        38.648               
E27  25636461.581 7 134719185.747 7      -405.277 7        42.123               
E30  28060504.512 6 146680145.640 6      2718.376 6        38.485               
E34  27668955.068 6 145399978.188 6     -2507.294 6        39.431               
> 2025 01 08 17 44 24.0000000  0  6                                             
E13  27964404.352 6 146952640.874 6      2465.103 6        37.493               
E15  25589608.663 5 134472944.211 5        89.768 5        32.930               
E21  27950146.552 6 147481851.127 6     -2058.204 6        38.409               
E27  25636621.365 6 134719999.232 6      -406.757 6        41.862               
E30  28061544.275 6 146674707.941 6      2719.528 6        38.148               
E34  27669913.562 6 145404999.236 6     -2510.223 6        39.252               
> 2025 01 08 17 44 25.0000000  0  6                                             
E13  27963925.355 6 146950175.057 6      2466.883 6        37.519               
E15  25589597.102 5 134472855.473 5        89.805 5        32.986               
E21  27949750.842 6 147483909.655 6     -2058.956 6        38.752               
E27  25636700.186 7 134720407.020 7      -407.838 7        42.045               
E30  28062061.887 6 146671988.334 6      2720.299 6        37.872               
E34  27670393.792 6 145407510.569 6     -2510.862 6        39.371               
> 2025 01 08 17 44 26.0000000  0  6                                             
E13  27963467.998 6 146947709.839 6      2465.173 6        37.574               
E15  25589580.805 5 134472767.542 5        91.054 5        32.547               
E21  27949368.374 6 147485967.640 6     -2056.732 6        38.465               
E27  25636777.987 6 134720815.539 6      -407.226 6        41.919               
E30  28062581.607 6 146669268.087 6      2719.655 6        37.868               
E34  27670871.681 6 145410022.516 6     -2513.472 6        39.523               
> 2025 01 08 17 44 27.0000000  0  6                                             
E13  27962997.774 6 146945245.022 6      2464.044 6        37.474               
E15  25589567.796 5 134472680.197 5        89.260 5        32.354               
E21  27948976.131 6 147488025.283 6     -2057.674 6        38.155               
E27  25636857.719 6 134721224.619 6      -408.863 6        41.956               
E30  28063102.132 6 146666547.439 6      2720.771 6        38.001               
E34  27671353.251 6 145412534.851 6     -2512.857 6        39.276               
> 2025 01 08 17 44 28.0000000  0  6                                             
E13  27962527.712 6 146942780.059 6      2464.157 6        37.816               
E15  25589554.252 5 134472592.932 5        85.641 5        32.352               
E21  27948589.016 6 147490083.101 6     -2057.847 6        38.360               
E27  25636939.952 7 134721633.714 7      -408.433 7        42.243               
E30  28063620.316 6 146663826.971 6      2719.669 6        38.062               
E34  27671831.105 6 145415047.067 6     -2512.011 6        39.057               
> 2025 01 08 17 44 29.0000000  0  6                                             
E13  27962061.795 6 146940314.859 6      2464.095 6        37.772               
E15  25589537.812 5 134472505.598 5        84.588 5        32.144               
E21  27948195.165 6 147492141.259 6     -2059.552 6        38.417               
E27  25637018.898 7 134722042.690 7      -409.707 7        42.216               
E30  28064142.484 6 146661106.735 6      2718.266 6        37.982               
E34  27672314.730 6 145417559.026 6     -2514.939 6        38.808               
> 2025 01 08 17 44 30.0000000  0  6                                             
E13  27961594.877 6 146937849.444 6      2465.631 6        37.134               
E15  25589522.802 5 134472418.283 5        85.363 5        32.133               
E21  27947804.477 6 147494199.646 6     -2059.902 6        38.585               
E27  25637095.645 7 134722451.622 7      -408.965 7        42.003               
E30  28064663.509 6 146658386.691 6      2720.831 6        38.256               
E34  27672787.919 6 145420070.811 6     -2509.097 6        39.098               
> 2025 01 08 17 44 31.0000000  0  6                                             
E13  27961130.283 6 146935384.738 6      2464.960 6        37.162               
E15  25589508.328 5 134472331.858 5        83.692 5        31.987               
E21  27947419.971 6 147496257.391 6     -2057.639 6        38.699               
E27  25637176.234 7 134722861.406 7      -410.916 7        42.015               
E30  28065179.209 6 146655665.974 6      2721.256 6        38.347               
E34  27673270.651 6 145422583.283 6     -2511.553 6        38.968               
> 2025 01 08 17 44 32.0000000  0  6                                             
E13  27960658.183 6 146932920.538 6      2463.387 6        37.341               
E15  25589491.871 5 134472246.158 5        87.955 5        32.061               
E21  27947027.210 6 147498314.631 6     -2055.944 6        38.825               
E27  25637256.002 7 134723271.876 7      -410.961 7        42.165               
E30  28065698.519 6 146652944.721 6      2720.996 6        38.513               
E34  27673751.864 6 145425096.302 6     -2512.807 6        38.717               
> 2025 01 08 17 44 33.0000000  0  6                                             
E13  27960192.302 6 146930456.803 6      2463.839 6        37.145               
E15  25589477.915 5 134472161.112 5        83.583 5        32.129               
E21  27946642.722 6 147500371.510 6     -2056.837 6        39.074               
E27  25637338.038 7 134723682.933 7      -411.372 7        42.101               
E30  28066224.761 6 146650223.034 6      2720.580 6        38.552               
E34  27674228.574 6 145427609.743 6     -2513.466 6        38.850               
> 2025 01 08 17 44 34.0000000  0  6                                             
E13  27959728.011 6 146927993.051 6      2462.815 6        36.994               
E15  25589463.173 5 134472076.257 5        82.142 5        31.915               
E21  27946252.856 6 147502428.450 6     -2055.946 6        39.004               
E27  25637416.483 7 134724094.122 7      -411.591 7        42.101               
E30  28066744.267 6 146647501.340 6      2724.009 6        38.587               
E34  27674715.916 6 145430123.210 6     -2514.504 6        38.926               
> 2025 01 08 17 44 35.0000000  0  6                                             
E13  27959260.147 6 146925530.586 6      2464.579 6        37.273               
E15  25589454.632 5 134471992.866 5        81.317 5        31.843               
E21  27945858.379 6 147504484.164 6     -2055.346 6        38.747               
E27  25637497.430 7 134724506.755 7      -414.248 7        42.088               
E30  28067261.897 6 146644778.391 6      2724.086 6        38.545               
E34  27675194.394 6 145432637.966 6     -2517.019 6        38.802               
> 2025 01 08 17 44 36.0000000  0  6                                             
E13  27958795.355 6 146923068.116 6      2462.928 6        37.468               
E15  25589433.404 5 134471909.658 5        86.330 5        31.654               
E21  27945475.178 6 147506539.913 6     -2055.437 6        38.608               
E27  25637577.733 6 134724919.536 6      -411.516 6        41.727               
E30  28067780.206 6 146642055.455 6      2721.246 6        38.362               
E34  27675672.355 6 145435152.699 6     -2514.429 6        38.909               
> 2025 01 08 17 44 37.0000000  0  6                                             
E13  27958329.188 6 146920605.159 6      2461.323 6        37.028               
E15  25589419.466 5 134471826.194 5        85.841 5        31.565               
E21  27945079.129 6 147508596.238 6     -2056.440 6        38.628               
E27  25637656.286 6 134725331.957 6      -412.759 6        41.775               
E30  28068296.549 6 146639332.987 6      2722.988 6        38.007               
E34  27676153.639 6 145437666.935 6     -2513.510 6        39.146               
> 2025 01 08 17 44 38.0000000  0  6                                             
E13  27957862.700 6 146918142.436 6      2463.086 6        37.008               
E15  25589406.689 5 134471743.211 5        82.170 5        31.500               
E21  27944695.714 6 147510652.323 6     -2056.617 6        38.917               
E27  25637738.072 6 134725744.815 6      -412.661 6        41.795               
E30  28068815.234 6 146636610.265 6      2724.293 6        37.932               
E34  27676632.618 6 145440181.482 6     -2514.067 6        39.124               
> 2025 01 08 17 44 39.0000000  0  6                                             
E13  27957390.421 6 146915679.990 6      2462.951 6        36.832               
E15  25589396.111 5 134471660.643 5        80.746 5        31.280               
E21  27944299.343 6 147512708.224 6     -2056.093 6        38.855               
E27  25637820.073 6 134726158.061 6      -413.028 6        41.811               
E30  28069337.045 6 146633887.295 6      2723.261 6        38.149               
E34  27677110.954 6 145442696.261 6     -2514.672 6        39.244               
> 2025 01 08 17 44 40.0000000  0  6                                             
E13  27956922.646 6 146913217.524 6      2464.358 6        36.901               
E15  25589381.172 5 134471578.262 5        80.298 5        31.260               
E21  27943912.210 6 147514764.200 6     -2056.053 6        38.663               
E27  25637898.715 6 134726571.440 6      -413.696 6        41.742               
E30  28069858.945 6 146631164.360 6      2723.462 6        38.087               
E34  27677592.167 6 145445211.034 6     -2513.565 6        38.931               
> 2025 01 08 17 44 41.0000000  0  6                                             
E13  27956457.426 6 146910754.868 6      2460.599 6        36.580               
E15  25589366.359 5 134471495.892 5        80.870 5        31.336               
E21  27943522.273 6 147516820.398 6     -2054.911 6        38.694               
E27  25637979.679 6 134726984.769 6      -412.238 6        41.638               
E30  28070376.236 6 146628441.627 6      2723.315 6        37.779               
E34  27678070.950 6 145447725.588 6     -2512.819 6        38.727               
> 2025 01 08 17 44 42.0000000  0  6                                             
E13  27955988.954 6 146908292.706 6      2462.583 6        36.884               
E15  25589350.831 5 134471414.219 5        82.052 5        31.202               
E21  27943132.692 6 147518876.176 6     -2054.673 6        39.110               
E27  25638059.572 6 134727398.763 6      -414.046 6        41.478               
E30  28070899.744 6 146625718.367 6      2723.377 6        37.882               
E34  27678550.483 6 145450240.682 6     -2515.630 6        38.902               
> 2025 01 08 17 44 43.0000000  0  6                                             
E13  27955523.805 6 146905830.920 6      2462.391 6        36.717               
E15  25589337.536 5 134471333.119 5        78.754 5        31.053               
E21  27942746.239 6 147520931.617 6     -2055.098 6        38.795               
E27  25638140.429 6 134727813.260 6      -415.347 6        41.537               
E30  28071417.803 6 146622994.787 6      2723.344 6        38.025               
E34  27679036.699 6 145452756.145 6     -2514.765 6        39.194               
> 2025 01 08 17 44 44.0000000  0  6                                             
E13  27955056.620 6 146903369.200 6      2460.604 6        36.774               
E15  25589322.723 5 134471252.292 5        79.270 5        30.985               
E21  27942355.336 6 147522987.047 6     -2056.491 6        38.882               
E27  25638221.626 6 134728227.998 6      -414.457 6        41.725               
E30  28071941.169 6 146620271.083 6      2724.033 6        37.931               
E34  27679513.855 6 145455271.678 6     -2516.066 6        39.406               
> 2025 01 08 17 44 45.0000000  0  6                                             
E13  27954594.098 6 146900907.990 6      2460.581 6        36.668               
E15  25589314.235 5 134471172.174 5        82.166 5        30.877               
E21  27941968.400 6 147525042.022 6     -2055.738 6        38.873               
E27  25638301.304 6 134728643.371 6      -415.826 6        41.861               
E30  28072460.085 6 146617546.909 6      2722.643 6        37.544               
E34  27679995.193 6 145457787.730 6     -2516.469 6        39.035               
> 2025 01 08 17 44 46.0000000  0  6                                             
E13  27954127.931 6 146898447.144 6      2461.069 6        37.030               
E15  25589300.476 5 134471092.635 5        79.496 5        30.906               
E21  27941582.126 6 147527096.645 6     -2053.828 6        39.106               
E27  25638382.250 6 134729059.295 6      -416.156 6        41.827               
E30  28072979.198 6 146614822.342 6      2725.713 6        37.858               
E34  27680476.031 6 145460304.131 6     -2517.272 6        38.701               
> 2025 01 08 17 44 47.0000000  0  6                                             
E13  27953660.620 6 146895986.696 6      2460.149 6        36.923               
E15  25589285.037 5 134471013.650 5        76.746 5        30.779               
E21  27941188.971 6 147529151.016 6     -2054.338 6        39.233               
E27  25638464.502 6 134729475.702 6      -416.925 6        41.570               
E30  28073499.866 6 146612097.442 6      2724.717 6        37.980               
E34  27680953.044 6 145462820.927 6     -2516.527 6        38.633               
> 2025 01 08 17 44 48.0000000  0  6                                             
E13  27953193.595 6 146893526.148 6      2459.906 6        36.721               
E15  25589275.012 5 134470934.807 5        77.070 5        30.787               
E21  27940801.946 6 147531205.468 6     -2054.025 6        38.928               
E27  25638544.305 6 134729892.213 6      -418.689 6        41.571               
E30  28074019.980 6 146609372.614 6      2724.016 6        38.060               
E34  27681436.473 6 145465337.656 6     -2516.062 6        38.659               
> 2025 01 08 17 44 49.0000000  0  6                                             
E13  27952728.304 6 146891065.964 6      2460.161 6        36.636               
E15  25589257.983 5 134470856.497 5        78.903 5        30.888               
E21  27940407.559 6 147533259.643 6     -2055.274 6        38.732               
E27  25638622.982 6 134730309.216 6      -417.151 6        41.548               
E30  28074541.291 6 146606647.419 6      2726.312 6        38.077               
E34  27681918.740 6 145467854.748 6     -2517.046 6        38.877               
> 2025 01 08 17 44 50.0000000  0  6                                             
E13  27952255.114 6 146888606.222 6      2458.870 6        36.893               
E15  25589244.510 5 134470778.849 5        74.589 5        30.678               
E21  27940023.804 6 147535313.393 6     -2052.438 6        38.534               
E27  25638705.662 6 134730726.825 6      -418.637 6        41.422               
E30  28075064.942 6 146603921.779 6      2726.443 6        37.890               
E34  27682394.646 6 145470372.273 6     -2519.190 6        39.057               
> 2025 01 08 17 44 51.0000000  0  6                                             
E13  27951794.219 6 146886146.759 6      2458.506 6        36.558               
E15  25589232.520 5 134470701.690 5        76.712 5        30.645               
E21  27939637.690 6 147537366.925 6     -2052.282 6        38.715               
E27  25638787.341 6 134731144.872 6      -417.267 6        41.796               
E30  28075582.572 6 146601195.867 6      2726.046 6        37.848               
E34  27682877.806 6 145472890.107 6     -2518.459 6        39.208               
> 2025 01 08 17 44 52.0000000  0  6                                             
E13  27951327.158 6 146883687.411 6      2459.188 6        36.811               
E15  25589219.529 5 134470624.827 5        77.282 5        30.669               
E21  27939244.661 6 147539420.410 6     -2052.667 6        38.641               
E27  25638868.645 6 134731563.185 6      -419.494 6        41.839               
E30  28076104.240 6 146598469.858 6      2727.240 6        37.682               
E34  27683357.482 6 145475408.040 6     -2519.855 6        39.343               
> 2025 01 08 17 44 53.0000000  0  6                                             
E13  27950860.669 6 146881228.478 6      2460.000 6        36.848               
E15  25589207.307 5 134470548.554 5        79.448 5        30.536               
E21  27938854.276 6 147541473.543 6     -2053.856 6        38.636               
E27  25638951.540 6 134731982.012 6      -418.986 6        41.789               
E30  28076619.744 6 146595743.460 6      2726.985 6        37.654               
E34  27683839.178 6 145477926.353 6     -2518.597 6        39.215               
> 2025 01 08 17 44 54.0000000  0  6                                             
E13  27950394.145 6 146878769.644 6      2459.695 6        36.804               
E15  25589195.281 5 134470472.629 5        78.874 5        30.291               
E21  27938468.931 6 147543526.585 6     -2052.947 6        38.604               
E27  25639031.825 6 134732401.129 6      -419.201 6        41.864               
E30  28077143.896 6 146593016.920 6      2725.839 6        37.866               
E34  27684320.069 6 145480444.817 6     -2518.258 6        39.281               
> 2025 01 08 17 44 55.0000000  0  6                                             
E13  27949926.119 6 146876310.976 6      2458.939 6        37.085               
E15  25589184.720 5 134470397.069 5        73.765 5        30.258               
E21  27938076.742 6 147545579.533 6     -2051.697 6        38.308               
E27  25639114.005 6 134732820.558 6      -420.160 6        41.917               
E30  28077662.187 6 146590290.250 6      2726.503 6        37.840               
E34  27684801.442 6 145482963.453 6     -2516.713 6        39.040               
> 2025 01 08 17 44 56.0000000  0  6                                             
E13  27949462.043 6 146873852.751 6      2457.974 6        37.129               
E15  25589169.567 4 134470322.116 4        71.999 4        29.980               
E21  27937691.074 6 147547632.103 6     -2051.832 6        38.384               
E27  25639196.613 6 134733240.586 6      -419.799 6        41.913               
E30  28078185.803 6 146587563.131 6      2726.820 6        37.915               
E34  27685284.174 6 145485482.527 6     -2519.264 6        38.768               
> 2025 01 08 17 44 57.0000000  0  6                                             
E13  27948996.448 6 146871395.043 6      2460.570 6        36.832               
E15  25589154.808 4 134470247.894 4        75.394 4        29.923               
E21  27937299.296 6 147549684.202 6     -2051.354 6        38.564               
E27  25639277.882 6 134733661.264 6      -420.942 6        41.897               
E30  28078705.470 6 146584835.495 6      2728.482 6        37.953               
E34  27685767.084 6 145488002.116 6     -2520.199 6        38.836               
> 2025 01 08 17 44 58.0000000  0  6                                             
E13  27948527.815 6 146868937.360 6      2459.303 6        36.845               
E15  25589144.604 4 134470173.918 4        72.499 4        29.955               
E21  27936912.735 6 147551736.311 6     -2052.469 6        38.594               
E27  25639360.651 6 134734082.139 6      -419.720 6        41.786               
E30  28079227.799 6 146582107.836 6      2725.542 6        37.918               
E34  27686245.116 6 145490521.744 6     -2519.612 6        39.092               
> 2025 01 08 17 44 59.0000000  0  6                                             
E13  27948062.899 6 146866479.517 6      2457.048 6        37.241               
E15  25589133.436 4 134470099.952 4        71.895 4        29.970               
E21  27936525.424 6 147553788.656 6     -2052.596 6        38.506               
E27  25639439.239 6 134734502.987 6      -422.168 6        41.527               
E30  28079746.054 6 146579380.344 6      2727.893 6        37.803               
E34  27686725.311 6 145493041.186 6     -2519.805 6        38.895               
> 2025 01 08 17 45 00.0000000  0  6                                             
E13  27947597.643 6 146864021.879 6      2457.472 6        36.845               
E15  25589122.125 4 134470026.437 4        71.895 4        29.949               
E21  27936133.450 6 147555840.802 6     -2052.408 6        38.386               
E27  25639523.956 6 134734924.212 6      -420.587 6        41.564               
E30  28080271.207 6 146576652.621 6      2728.773 6        37.667               
E34  27687210.062 6 145495560.887 6     -2521.897 6        39.329               
> 2025 01 08 17 45 01.0000000  0  6                                             
E13  27947131.154 6 146861564.618 6      2457.672 6        36.965               
E15  25589109.456 4 134469953.408 4        75.988 4        29.901               
E21  27935750.892 6 147557892.696 6     -2049.867 6        38.480               
E27  25639603.759 6 134735345.905 6      -421.747 6        41.867               
E30  28080791.285 6 146573924.593 6      2727.094 6        37.796               
E34  27687689.952 6 145498080.898 6     -2521.355 6        39.149               
> 2025 01 08 17 45 02.0000000  0  6                                             
E13  27946666.399 6 146859107.404 6      2457.722 6        36.723               
E15  25589094.464 4 134469880.709 4        69.322 4        29.990               
E21  27935360.596 6 147559944.553 6     -2051.074 6        38.463               
E27  25639688.744 6 134735767.870 6      -422.174 6        41.747               
E30  28081306.914 6 146571196.488 6      2727.277 6        37.744               
E34  27688171.754 6 145500601.033 6     -2521.425 6        39.419               
> 2025 01 08 17 45 03.0000000  0  6                                             
E13  27946202.930 6 146856650.659 6      2456.226 6        36.697               
E15  25589080.794 4 134469808.626 4        73.733 4        29.864               
E21  27934964.154 6 147561996.015 6     -2050.693 6        38.102               
E27  25639769.530 6 134736190.389 6      -423.340 6        41.797               
E30  28081828.457 6 146568467.948 6      2728.401 6        38.033               
E34  27688653.521 6 145503121.557 6     -2521.008 6        39.200               
> 2025 01 08 17 45 04.0000000  0  6                                             
E13  27945735.137 6 146854194.330 6      2454.538 6        36.685               
E15  25589072.664 4 134469737.195 4        72.415 4        29.939               
E21  27934576.361 6 147564047.086 6     -2050.901 6        38.285               
E27  25639853.479 6 134736613.513 6      -422.329 6        41.774               
E30  28082349.768 6 146565738.953 6      2728.790 6        38.066               
E34  27689138.218 6 145505642.563 6     -2521.139 6        39.020               
> 2025 01 08 17 45 05.0000000  0  6                                             
E13  27945268.398 6 146851738.742 6      2453.918 6        36.721               
E15  25589062.621 4 134469666.709 4        68.995 4        29.716               
E21  27934191.801 6 147566097.464 6     -2049.214 6        38.387               
E27  25639936.051 6 134737037.519 6      -425.420 6        41.516               
E30  28082872.258 6 146563009.240 6      2730.497 6        38.280               
E34  27689611.426 6 145508164.289 6     -2524.028 6        38.899               
> 2025 01 08 17 45 06.0000000  0  6                                             
E13  27944805.358 6 146849283.433 6      2456.080 6        36.986               
E15  25589049.720 4 134469596.659 4        68.588 4        29.535               
E21  27933802.972 6 147568147.652 6     -2049.687 6        38.621               
E27  25640017.999 6 134737461.931 6      -424.451 6        41.693               
E30  28083397.679 6 146560279.262 6      2728.201 6        38.388               
E34  27690094.158 6 145510686.297 6     -2522.466 6        38.888               
> 2025 01 08 17 45 07.0000000  0  6                                             
E13  27944340.906 6 146846827.693 6      2457.017 6        37.144               
E15  25589035.621 4 134469526.413 4        69.131 4        29.469               
E21  27933414.785 6 147570198.272 6     -2053.215 6        38.551               
E27  25640099.606 6 134737886.095 6      -423.822 6        41.351               
E30  28083914.826 6 146557549.713 6      2730.303 6        38.468               
E34  27690576.407 6 145513207.892 6     -2520.922 6        38.615               
> 2025 01 08 17 45 08.0000000  0  6                                             
E13  27943876.812 6 146844372.167 6      2454.613 6        37.261               
E15  25589026.365 4 134469456.531 4        68.777 4        29.429               
E21  27933026.187 6 147572248.804 6     -2051.061 6        38.660               
E27  25640180.893 6 134738310.570 6      -424.824 6        41.284               
E30  28084441.194 6 146554819.971 6      2729.307 6        38.090               
E34  27691053.903 6 145515729.650 6     -2522.056 6        38.732               
> 2025 01 08 17 45 09.0000000  0  6                                             
E13  27943410.484 6 146841916.920 6      2455.073 6        37.092               
E15  25589015.197 4 134469387.176 4        69.115 4        29.434               
E21  27932636.982 6 147574299.057 6     -2050.190 6        38.355               
E27  25640265.717 6 134738735.531 6      -425.271 6        41.510               
E30  28084960.539 6 146552089.933 6      2729.102 6        38.177               
E34  27691538.368 6 145518251.733 6     -2523.504 6        38.828               
> 2025 01 08 17 45 10.0000000  0  5                                             
E13  27942944.835 6 146839461.983 6      2453.767 6        37.044               
E21  27932245.865 6 147576349.055 6     -2050.633 6        38.482               
E27  25640348.057 6 134739160.926 6      -425.148 6        41.130               
E30  28085478.830 6 146549359.602 6      2729.610 6        38.155               
E34  27692017.865 6 145520774.140 6     -2523.181 6        38.893               
> 2025 01 08 17 45 11.0000000  0  5                                             
E13  27942479.329 6 146837007.391 6      2457.661 6        37.080               
E21  27931863.968 6 147578398.750 6     -2051.070 6        38.356               
E27  25640429.111 6 134739586.822 6      -426.290 6        40.983               
E30  28085999.730 6 146546628.921 6      2731.107 6        38.655               
E34  27692503.456 6 145523296.885 6     -2521.131 6        39.047               
> 2025 01 08 17 45 12.0000000  0  5                                             
E13  27942018.559 6 146834553.046 6      2455.199 6        37.267               
E21  27931476.782 6 147580448.219 6     -2048.821 6        38.501               
E27  25640512.971 6 134740013.140 6      -425.394 6        41.275               
E30  28086522.506 6 146543897.968 6      2730.785 6        38.813               
E34  27692983.668 6 145525819.882 6     -2521.247 6        39.084               
> 2025 01 08 17 45 13.0000000  0  5                                             
E13  27941550.569 6 146832098.843 6      2453.520 6        37.577               
E21  27931085.200 6 147582497.665 6     -2049.943 6        38.459               
E27  25640595.811 6 134740439.715 6      -426.751 6        41.234               
E30  28087044.853 6 146541166.920 6      2731.904 6        38.408               
E34  27693468.222 6 145528343.024 6     -2525.861 6        38.862               
> 2025 01 08 17 45 14.0000000  0  5                                             
E13  27941087.154 6 146829644.717 6      2454.427 6        37.515               
E21  27930691.010 6 147584547.081 6     -2049.224 6        38.397               
E27  25640679.563 6 134740866.513 6      -426.592 6        41.308               
E30  28087564.574 6 146538435.821 6      2731.511 6        38.186               
E34  27693947.362 6 145530866.206 6     -2523.654 6        38.643               
> 2025 01 08 17 45 15.0000000  0  5                                             
E13  27940617.895 6 146827190.592 6      2452.822 6        37.560               
E21  27930300.929 6 147586596.547 6     -2050.681 6        38.579               
E27  25640763.333 6 134741293.462 6      -426.432 6        41.252               
E30  28088089.316 6 146535704.701 6      2731.615 6        38.254               
E34  27694428.164 6 145533389.406 6     -2521.592 6        38.650               
> 2025 01 08 17 45 16.0000000  0  5                                             
E13  27940153.426 6 146824736.622 6      2455.227 6        37.496               
E21  27929918.764 6 147588645.871 6     -2046.983 6        38.299               
E27  25640845.835 6 134741720.743 6      -428.871 6        40.953               
E30  28088608.339 6 146532973.436 6      2730.747 6        38.730               
E34  27694915.613 6 145535912.787 6     -2523.380 6        38.367               
> 2025 01 08 17 45 17.0000000  0  5                                             
E13  27939686.776 6 146822282.982 6      2453.207 6        37.397               
E21  27929533.061 6 147590694.921 6     -2049.002 6        38.328               
E27  25640927.943 6 134742148.489 6      -428.389 6        41.212               
E30  28089131.866 6 146530241.818 6      2731.962 6        38.581               
E34  27695394.414 6 145538436.507 6     -2526.073 6        38.240               
> 2025 01 08 17 45 18.0000000  0  5                                             
E13  27939225.166 6 146819829.433 6      2452.852 6        37.207               
E21  27929144.535 6 147592743.952 6     -2049.180 6        38.527               
E27  25641013.786 6 134742576.447 6      -427.203 6        41.451               
E30  28089652.337 6 146527510.160 6      2731.941 6        38.450               
E34  27695878.396 6 145540960.259 6     -2525.547 6        38.575               
> 2025 01 08 17 45 19.0000000  0  5                                             
E13  27938756.944 6 146817375.945 6      2454.400 6        37.376               
E21  27928750.952 6 147594792.961 6     -2048.052 6        38.568               
E27  25641094.786 6 134743004.661 6      -428.598 6        41.445               
E30  28090175.792 6 146524778.431 6      2732.185 6        38.433               
E34  27696360.359 6 145543484.142 6     -2523.268 6        38.356               
> 2025 01 08 17 45 20.0000000  0  5                                             
E13  27938296.137 6 146814922.862 6      2452.957 6        37.334               
E21  27928364.195 6 147596841.660 6     -2050.991 6        38.464               
E27  25641177.484 6 134743433.406 6      -428.785 6        41.249               
E30  28090696.192 6 146522046.286 6      2731.314 6        38.727               
E34  27696840.071 6 145546008.399 6     -2525.396 6        38.502               
> 2025 01 08 17 45 21.0000000  0  5                                             
E13  27937830.524 6 146812470.034 6      2453.254 6        37.119               
E21  27927982.030 6 147598890.085 6     -2047.127 6        38.270               
E27  25641263.076 6 134743862.559 6      -428.878 6        41.335               
E30  28091218.753 6 146519313.877 6      2733.299 6        38.801               
E34  27697315.691 6 145548532.911 6     -2526.745 6        38.314               
> 2025 01 08 17 45 22.0000000  0  5                                             
E13  27937360.140 6 146810017.353 6      2454.996 6        37.145               
E21  27927592.610 6 147600938.475 6     -2048.230 6        38.481               
E27  25641346.489 6 134744292.006 6      -430.191 6        41.466               
E30  28091743.495 6 146516581.363 6      2733.203 6        38.522               
E34  27697806.624 6 145551057.573 6     -2527.644 6        38.386               
> 2025 01 08 17 45 23.0000000  0  5                                             
E13  27936899.584 6 146807564.917 6      2452.987 6        37.051               
E21  27927205.067 6 147602986.663 6     -2049.724 6        38.558               
E27  25641428.615 6 134744721.817 6      -429.267 6        41.464               
E30  28092263.251 6 146513848.622 6      2733.451 6        38.528               
E34  27698284.210 6 145553582.452 6     -2524.904 6        38.653               
> 2025 01 08 17 45 24.0000000  0  5                                             
E13  27936431.594 6 146805112.887 6      2449.887 6        36.917               
E21  27926815.094 6 147605034.491 6     -2049.881 6        38.562               
E27  25641513.171 6 134745152.223 6      -431.188 6        41.161               
E30  28092788.351 6 146511115.446 6      2733.506 6        38.255               
E34  27698768.961 6 145556107.767 6     -2523.049 6        38.519               
> 2025 01 08 17 45 25.0000000  0  5                                             
E13  27935972.450 6 146802661.116 6      2452.809 6        37.081               
E21  27926424.941 6 147607082.104 6     -2047.788 6        38.358               
E27  25641596.530 6 134745583.031 6      -431.798 6        41.354               
E30  28093309.536 6 146508382.053 6      2733.785 6        38.743               
E34  27699254.051 6 145558633.345 6     -2527.003 6        38.454               
> 2025 01 08 17 45 26.0000000  0  5                                             
E13  27935502.995 6 146800209.422 6      2451.552 6        37.315               
E21  27926038.935 6 147609129.670 6     -2045.879 6        38.100               
E27  25641679.818 6 134746014.067 6      -431.408 6        41.316               
E30  28093828.935 6 146505648.566 6      2733.030 6        38.770               
E34  27699736.801 6 145561159.009 6     -2527.252 6        37.995               
> 2025 01 08 17 45 27.0000000  0  5                                             
E13  27935033.683 6 146797758.007 6      2451.165 6        37.512               
E21  27925652.571 6 147611177.055 6     -2047.910 6        37.927               
E27  25641766.661 6 134746445.526 6      -432.138 6        41.229               
E30  28094353.891 6 146502914.811 6      2732.020 6        38.891               
E34  27700213.778 6 145563684.933 6     -2527.910 6        38.112               
> 2025 01 08 17 45 28.0000000  0  5                                             
E13  27934571.018 6 146795307.396 6      2449.038 6        37.660               
E21  27925264.044 6 147613223.668 6     -2046.232 6        38.205               
E27  25641850.145 6 134746877.924 6      -433.223 6        41.273               
E30  28094874.630 6 146500180.247 6      2735.039 6        38.879               
E34  27700696.045 6 145566211.661 6     -2529.610 6        38.119               
> 2025 01 08 17 45 29.0000000  0  5                                             
E13  27934111.945 6 146792857.400 6      2448.926 6        37.509               
E21  27924876.108 6 147615269.687 6     -2046.164 6        38.600               
E27  25641935.398 6 134747311.097 6      -431.638 6        41.467               
E30  28095396.477 6 146497445.103 6      2735.984 6        38.695               
E34  27701179.295 6 145568739.005 6     -2527.861 6        38.355               
> 2025 01 08 17 45 30.0000000  0  5                                             
E13  27933644.116 6 146790406.408 6      2452.239 6        37.666               
E21  27924487.189 6 147617316.798 6     -2046.788 6        38.566               
E27  25642018.900 6 134747743.438 6      -432.988 6        41.362               
E30  28095916.591 6 146494710.937 6      2735.384 6        38.946               
E34  27701666.726 6 145571265.357 6     -2526.117 6        38.136               
> 2025 01 08 17 45 31.0000000  0  5                                             
E13  27933180.218 6 146787955.765 6      2450.927 6        37.331               
E21  27924099.913 6 147619363.599 6     -2046.461 6        38.446               
E27  25642102.063 6 134748176.273 6      -432.073 6        41.372               
E30  28096439.635 6 146491976.430 6      2733.789 6        38.940               
E34  27702142.096 6 145573792.072 6     -2529.152 6        38.253               
> 2025 01 08 17 45 32.0000000  0  5                                             
E13  27932715.677 6 146785505.464 6      2449.132 6        37.550               
E21  27923712.602 6 147621410.079 6     -2045.187 6        38.672               
E27  25642187.101 6 134748609.588 6      -434.294 6        41.210               
E30  28096965.771 6 146489241.600 6      2737.888 6        38.946               
E34  27702628.545 6 145576319.108 6     -2526.270 6        38.274               
> 2025 01 08 17 45 33.0000000  0  5                                             
E13  27932248.331 6 146783055.966 6      2447.719 6        37.283               
E21  27923326.614 6 147623455.863 6     -2045.794 6        38.762               
E27  25642270.907 6 134749043.840 6      -434.552 6        41.405               
E30  28097483.579 6 146486505.989 6      2736.283 6        39.019               
E34  27703110.490 6 145578846.950 6     -2527.582 6        38.325               
> 2025 01 08 17 45 34.0000000  0  5                                             
E13  27931782.557 6 146780606.961 6      2448.330 6        37.239               
E21  27922936.711 6 147625501.181 6     -2047.426 6        38.795               
E27  25642355.392 6 134749478.751 6      -435.767 6        41.325               
E30  28098012.234 6 146483769.868 6      2736.615 6        38.747               
E34  27703595.705 6 145581375.287 6     -2529.448 6        38.447               
> 2025 01 08 17 45 35.0000000  0  5                                             
E13  27931320.732 6 146778157.795 6      2449.639 6        37.554               
E21  27922551.348 6 147627546.709 6     -2046.834 6        38.772               
E27  25642440.663 6 134749913.650 6      -434.351 6        41.213               
E30  28098532.098 6 146481033.912 6      2735.671 6        38.639               
E34  27704078.008 6 145583903.458 6     -2529.739 6        38.647               
> 2025 01 08 17 45 36.0000000  0  5                                             
E13  27930858.568 6 146775708.827 6      2446.632 6        37.624               
E21  27922164.716 6 147629592.093 6     -2045.738 6        38.904               
E27  25642523.986 6 134750348.884 6      -436.207 6        41.476               
E30  28099052.783 6 146478297.797 6      2737.916 6        38.851               
E34  27704563.492 6 145586431.812 6     -2529.530 6        38.724               
> 2025 01 08 17 45 37.0000000  0  5                                             
E13  27930395.206 6 146773260.141 6      2448.359 6        37.660               
E21  27921778.531 6 147631637.228 6     -2045.936 6        38.725               
E27  25642607.059 6 134750784.577 6      -436.263 6        41.443               
E30  28099574.416 6 146475561.379 6      2736.278 6        38.807               
E34  27705045.759 6 145588960.470 6     -2527.202 6        38.728               
> 2025 01 08 17 45 38.0000000  0  5                                             
E13  27929930.397 6 146770811.595 6      2449.462 6        37.636               
E21  27921388.414 6 147633682.274 6     -2043.454 6        38.927               
E27  25642692.652 6 134751220.549 6      -436.169 6        41.368               
E30  28100096.781 6 146472824.808 6      2735.358 6        38.607               
E34  27705527.651 6 145591489.290 6     -2526.517 6        38.699               
> 2025 01 08 17 45 39.0000000  0  5                                             
E13  27929468.322 6 146768363.211 6      2446.999 6        37.886               
E21  27920999.692 6 147635727.234 6     -2045.475 6        38.879               
E27  25642779.835 6 134751656.819 6      -438.081 6        41.195               
E30  28100622.648 6 146470088.117 6      2736.547 6        38.639               
E34  27706013.759 6 145594018.212 6     -2529.660 6        38.884               
> 2025 01 08 17 45 40.0000000  0  5                                             
E13  27929004.335 6 146765915.057 6      2448.521 6        38.026               
E21  27920615.811 6 147637771.970 6     -2043.538 6        38.735               
E27  25642865.410 6 134752093.503 6      -436.680 6        41.330               
E30  28101145.907 6 146467351.166 6      2737.314 6        38.717               
E34  27706496.187 6 145596547.430 6     -2529.268 6        38.814               
> 2025 01 08 17 45 41.0000000  0  5                                             
E13  27928536.542 6 146763467.409 6      2448.862 6        37.979               
E21  27920227.517 6 147639816.306 6     -2046.117 6        38.472               
E27  25642947.518 6 134752530.803 6      -437.410 6        41.604               
E30  28101668.147 6 146464613.730 6      2738.154 6        38.526               
E34  27706979.509 6 145599077.102 6     -2528.931 6        38.936               
> 2025 01 08 17 45 42.0000000  0  5                                             
E13  27928072.304 6 146761019.630 6      2448.773 6        38.057               
E21  27919839.742 6 147641860.811 6     -2044.720 6        38.471               
E27  25643033.110 6 134752968.118 6      -437.483 6        41.307               
E30  28102188.993 6 146461876.453 6      2735.734 6        38.801               
E34  27707460.096 6 145601606.645 6     -2529.285 6        38.906               
> 2025 01 08 17 45 43.0000000  0  5                                             
E13  27927607.960 6 146758571.229 6      2448.238 6        38.089               
E21  27919451.501 6 147643905.991 6     -2045.375 6        38.377               
E27  25643118.131 6 134753404.970 6      -437.325 6        41.299               
E30  28102708.106 6 146459139.812 6      2735.475 6        38.666               
E34  27707946.044 6 145604135.569 6     -2527.703 6        38.682               
> 2025 01 08 17 45 44.0000000  0  5                                             
E13  27927145.831 6 146756123.436 6      2447.811 6        37.997               
E21  27919065.781 6 147645950.605 6     -2044.371 6        38.539               
E27  25643202.151 6 134753842.575 6      -438.202 6        41.265               
E30  28103232.544 6 146456402.544 6      2738.277 6        38.834               
E34  27708427.936 6 145606665.123 6     -2529.929 6        38.510               
> 2025 01 08 17 45 45.0000000  0  5                                             
E13  27926682.077 6 146753676.135 6      2447.061 6        37.939               
E21  27918678.666 6 147647994.772 6     -2043.018 6        38.888               
E27  25643287.833 6 134754280.848 6      -438.529 6        41.517               
E30  28103757.697 6 146453664.805 6      2738.632 6        38.755               
E34  27708908.773 6 145609195.139 6     -2528.359 6        38.626               
> 2025 01 08 17 45 46.0000000  0  5                                             
E13  27926219.090 6 146751229.015 6      2448.480 6        38.330               
E21  27918293.857 6 147650038.828 6     -2042.848 6        39.182               
E27  25643374.534 6 134754719.423 6      -438.660 6        41.373               
E30  28104279.383 6 146450926.899 6      2736.805 6        38.791               
E34  27709392.577 6 145611725.355 6     -2528.844 6        38.640               
> 2025 01 08 17 45 47.0000000  0  5                                             
E13  27925750.761 6 146748782.122 6      2447.501 6        38.430               
E21  27917902.758 6 147652082.704 6     -2044.705 6        39.080               
E27  25643457.142 6 134755158.380 6      -439.464 6        41.673               
E30  28104801.766 6 146448188.758 6      2739.012 6        38.800               
E34  27709875.863 6 145614255.778 6     -2529.075 6        38.529               
> 2025 01 08 17 45 48.0000000  0  5                                             
E13  27925287.935 6 146746335.482 6      2445.325 6        38.057               
E21  27917517.698 6 147654126.343 6     -2042.751 6        39.320               
E27  25643543.378 6 134755597.767 6      -440.291 6        41.347               
E30  28105325.811 6 146445450.356 6      2737.995 6        38.675               
E34  27710362.418 6 145616786.487 6     -2530.898 6        38.709               
> 2025 01 08 17 45 49.0000000  0  5                                             
E13  27924821.697 6 146743888.937 6      2446.166 6        37.885               
E21  27917132.674 6 147656169.955 6     -2043.244 6        38.971               
E27  25643630.793 6 134756037.374 6      -440.423 6        41.212               
E30  28105847.479 6 146442711.895 6      2739.432 6        38.653               
E34  27710844.864 6 145619317.261 6     -2530.052 6        38.945               
> 2025 01 08 17 45 50.0000000  0  5                                             
E13  27924363.875 6 146741442.797 6      2445.305 6        37.853               
E21  27916748.026 6 147658213.258 6     -2042.959 6        38.791               
E27  25643715.814 6 134756477.498 6      -440.370 6        41.013               
E30  28106367.986 6 146439973.065 6      2738.983 6        38.406               
E34  27711324.773 6 145621848.421 6     -2530.977 6        38.581               
> 2025 01 08 17 45 51.0000000  0  5                                             
E13  27923896.635 6 146738996.585 6      2447.111 6        37.613               
E21  27916358.427 6 147660256.632 6     -2042.856 6        38.959               
E27  25643799.084 6 134756917.762 6      -440.711 6        40.701               
E30  28106896.641 6 146437234.265 6      2738.150 6        38.119               
E34  27711811.060 6 145624379.548 6     -2528.946 6        38.706               
> 2025 01 08 17 45 52.0000000  0  5                                             
E13  27923432.148 6 146736550.501 6      2445.701 6        37.762               
E21  27915975.798 6 147662299.964 6     -2042.475 6        39.113               
E27  25643887.643 6 134757358.253 6      -440.984 6        41.044               
E30  28107416.594 6 146434495.370 6      2740.182 6        38.127               
E34  27712293.470 6 145626910.752 6     -2532.201 6        38.759               
> 2025 01 08 17 45 53.0000000  0  5                                             
E13  27922972.235 6 146734105.792 6      2446.669 6        37.852               
E21  27915583.376 6 147664341.951 6     -2041.853 6        39.198               
E27  25643972.038 6 134757800.294 6      -441.657 6        41.085               
E30  28107937.815 6 146431755.087 6      2742.847 6        38.326               
E34  27712779.954 6 145629443.378 6     -2534.785 6        38.914               
> 2025 01 08 17 45 54.0000000  0  5                                             
E13  27922507.301 6 146731661.480 6      2445.616 6        37.761               
E21  27915198.835 6 147666383.580 6     -2040.068 6        39.222               
E27  25644057.220 6 134758242.896 6      -442.219 6        41.175               
E30  28108464.666 6 146429014.408 6      2742.433 6        38.373               
E34  27713263.544 6 145631976.372 6     -2533.156 6        39.173               
> 2025 01 08 17 45 55.0000000  0  5                                             
E13  27922046.763 6 146729217.203 6      2443.992 6        37.802               
E21  27914809.558 6 147668425.291 6     -2040.642 6        39.039               
E27  25644141.097 6 134758685.617 6      -442.859 6        41.246               
E30  28108985.709 6 146426273.751 6      2741.927 6        38.479               
E34  27713748.491 6 145634509.389 6     -2531.804 6        38.994               
> 2025 01 08 17 45 56.0000000  0  5                                             
E13  27921578.827 6 146726772.488 6      2446.298 6        38.009               
E21  27914425.535 6 147670467.405 6     -2042.301 6        38.879               
E27  25644229.138 6 134759128.107 6      -442.011 6        41.126               
E30  28109508.610 6 146423533.517 6      2739.244 6        38.717               
E34  27714232.223 6 145637041.980 6     -2532.647 6        38.954               
> 2025 01 08 17 45 57.0000000  0  5                                             
E13  27921114.286 6 146724327.106 6      2443.593 6        37.994               
E21  27914037.116 6 147672510.297 6     -2043.297 6        39.135               
E27  25644316.678 6 134759570.079 6      -442.150 6        41.170               
E30  28110029.724 6 146420793.956 6      2741.429 6        38.733               
E34  27714714.705 6 145639573.882 6     -2532.366 6        38.687               
> 2025 01 08 17 45 58.0000000  0  5                                             
E13  27920653.408 6 146721882.811 6      2443.602 6        38.159               
E21  27913653.629 6 147674552.114 6     -2041.004 6        39.046               
E27  25644401.985 6 134760013.267 6      -444.160 6        41.240               
E30  28110556.503 6 146418053.317 6      2739.637 6        38.836               
E34  27715193.577 6 145642106.887 6     -2530.353 6        38.611               
> 2025 01 08 17 45 59.0000000  0  5                                             
E13  27920190.636 6 146719439.048 6      2444.379 6        38.020               
E21  27913264.924 6 147676593.464 6     -2042.031 6        39.165               
E27  25644485.183 6 134760457.149 6      -445.104 6        41.036               
E30  28111078.171 6 146415312.150 6      2740.712 6        38.559               
E34  27715682.438 6 145644640.440 6     -2530.985 6        39.034               
> 2025 01 08 17 46 00.0000000  0  5                                             
E13  27919729.311 6 146716995.410 6      2442.919 6        38.174               
E21  27912879.757 6 147678634.749 6     -2042.127 6        39.288               
E27  25644574.314 6 134760901.286 6      -444.122 6        41.050               
E30  28111604.199 6 146412570.855 6      2740.436 6        38.675               
E34  27716163.025 6 145647174.084 6     -2533.102 6        38.981               
> 2025 01 08 17 46 01.0000000  0  5                                             
E13  27919265.128 6 146714552.015 6      2441.394 6        38.188               
E21  27912491.589 6 147680675.846 6     -2039.842 6        39.200               
E27  25644659.549 6 134761345.810 6      -445.455 6        41.531               
E30  28112126.261 6 146409829.347 6      2742.507 6        38.664               
E34  27716648.187 6 145649707.950 6     -2533.616 6        39.260               
> 2025 01 08 17 46 02.0000000  0  5                                             
E13  27918801.730 6 146712108.773 6      2442.907 6        38.259               
E21  27912107.387 6 147682716.826 6     -2041.120 6        39.087               
E27  25644746.678 6 134761790.653 6      -444.565 6        41.524               
E30  28112647.411 6 146407087.681 6      2740.716 6        38.657               
E34  27717133.813 6 145652242.008 6     -2533.996 6        39.321               
> 2025 01 08 17 46 03.0000000  0  5                                             
E13  27918337.850 6 146709665.719 6      2443.726 6        38.099               
E21  27911719.825 6 147684757.691 6     -2040.373 6        39.536               
E27  25644833.361 6 134762235.833 6      -445.237 6        41.417               
E30  28113173.100 6 146404345.845 6      2742.643 6        38.564               
E34  27717618.546 6 145654776.253 6     -2534.977 6        39.156               
> 2025 01 08 17 46 04.0000000  0  5                                             
E13  27917875.489 6 146707222.884 6      2443.501 6        38.308               
E21  27911329.066 6 147686798.379 6     -2043.029 6        39.422               
E27  25644921.652 6 134762681.366 6      -445.236 6        41.364               
E30  28113700.843 6 146401603.793 6      2744.436 6        38.396               
E34  27718101.850 6 145657310.687 6     -2535.335 6        39.658               
> 2025 01 08 17 46 05.0000000  0  5                                             
E13  27917413.093 6 146704780.296 6      2441.119 6        38.247               
E21  27910945.936 6 147688838.849 6     -2041.928 6        39.548               
E27  25645004.850 6 134763127.298 6      -446.719 6        41.390               
E30  28114217.562 6 146398861.517 6      2741.150 6        38.565               
E34  27718585.475 6 145659845.389 6     -2533.777 6        39.414               
> 2025 01 08 17 46 06.0000000  0  5                                             
E13  27916951.804 6 146702337.975 6      2442.269 6        38.398               
E21  27910555.498 6 147690879.142 6     -2042.029 6        39.559               
E27  25645091.926 6 134763573.628 6      -446.377 6        41.154               
E30  28114738.462 6 146396118.975 6      2742.105 6        38.328               
E34  27719067.867 6 145662380.318 6     -2535.004 6        39.568               
> 2025 01 08 17 46 07.0000000  0  5                                             
E13  27916485.136 6 146699895.906 6      2443.825 6        38.538               
E21  27910170.849 6 147692919.183 6     -2040.065 6        39.604               
E27  25645179.948 6 134764020.414 6      -446.864 6        41.462               
E30  28115262.828 6 146393376.164 6      2743.499 6        38.190               
E34  27719553.958 6 145664915.547 6     -2535.224 6        39.381               
> 2025 01 08 17 46 08.0000000  0  5                                             
E13  27916021.167 6 146697453.896 6      2441.787 6        38.857               
E21  27909782.180 6 147694959.256 6     -2038.825 6        39.724               
E27  25645266.434 6 134764467.371 6      -447.518 6        41.132               
E30  28115787.481 6 146390633.334 6      2741.047 6        37.798               
E34  27720037.208 6 145667450.779 6     -2536.301 6        39.260               
