     3.02           OBSERVATION DATA    E                   RINEX VERSION / TYPE
G = GPS  R = GLONASS  E = GALILEO  S = GEO  M = MIXED       COMMENT             
GNSS-SDR            jmfriedt            20250108 180626 UTC PGM / RUN BY / DATE 
GALILEO OBSERVATION DATA FILE GENERATED BY GNSS-SDR         COMMENT             
GNSS-SDR VERSION 0.0.19.git-main-87fcfd237                  COMMENT             
See https://gnss-sdr.org                                    COMMENT             
DEFAULT MARKER NAME                                         MARKER NAME         
jmfriedt            CTTC                                    OBSERVER / AGENCY   
GNSS-SDR            Software Receiver   0.0.19.gi           REC # / TYPE / VERS 
Antenna number      Antenna type                            ANT # / TYPE        
        0.0000        0.0000        0.0000                  APPROX POSITION XYZ 
        0.0000        0.0000        0.0000                  ANTENNA: DELTA H/E/N
E    4 C1B L1B D1B S1B                                      SYS / # / OBS TYPES 
DBHZ                                                        SIGNAL STRENGTH UNIT
  2025    01    08    17    42    6.1600000     GAL         TIME OF FIRST OBS   
    18    18   137     7                                    LEAP SECONDS        
                                                            END OF HEADER       
> 2025 01 08 17 42 07.0000000  0  4                                             
E21  28003894.965 6 147164951.995 6     -2081.443 6        38.680               
E27  25626437.148 7 134667835.385 7      -356.177 7        42.518               
E30  27990809.711 6 147088194.383 6      2688.784 6        39.079               
E34  27604636.413 6 145063339.957 6     -2477.795 6        38.571               
> 2025 01 08 17 42 08.0000000  0  4                                             
E21  28003499.630 6 147167034.062 6     -2083.299 6        38.759               
E27  25626506.766 7 134668191.592 7      -355.903 7        42.330               
E30  27991327.734 6 147085505.804 6      2687.057 6        39.246               
E34  27605111.139 6 145065818.740 6     -2479.886 6        39.017               
> 2025 01 08 17 42 09.0000000  0  4                                             
E21  28003104.564 6 147169116.412 6     -2081.929 6        38.530               
E27  25626577.205 7 134668547.708 7      -356.743 7        42.373               
E30  27991841.272 6 147082817.468 6      2689.389 6        39.653               
E34  27605583.989 6 145068297.281 6     -2477.130 6        38.573               
> 2025 01 08 17 42 10.0000000  0  4                                             
E21  28002711.160 6 147171198.015 6     -2082.368 6        38.505               
E27  25626645.805 7 134668904.775 7      -357.367 7        42.471               
E30  27992352.523 6 147080128.330 6      2689.438 6        39.703               
E34  27606056.714 6 145070776.677 6     -2480.850 6        38.629               
> 2025 01 08 17 42 11.0000000  0  4                                             
E21  28002318.327 6 147173279.463 6     -2081.264 6        38.495               
E27  25626717.102 7 134669262.222 7      -357.286 7        42.562               
E30  27992871.153 6 147077438.934 6      2688.903 6        39.147               
E34  27606532.298 6 145073256.305 6     -2480.877 6        38.763               
> 2025 01 08 17 42 12.0000000  0  4                                             
E21  28001920.741 6 147175361.132 6     -2082.453 6        38.279               
E27  25626785.648 7 134669619.638 7      -356.846 7        42.732               
E30  27993383.548 6 147074749.745 6      2690.994 6        39.270               
E34  27607003.022 6 145075735.752 6     -2479.121 6        39.114               
> 2025 01 08 17 42 13.0000000  0  4                                             
E21  28001526.354 6 147177442.415 6     -2079.312 6        38.268               
E27  25626857.195 7 134669977.660 7      -358.051 7        42.972               
E30  27993896.514 6 147072060.087 6      2687.329 6        38.823               
E34  27607478.892 6 145078215.655 6     -2478.973 6        39.357               
> 2025 01 08 17 42 14.0000000  0  4                                             
E21  28001131.181 6 147179523.974 6     -2080.746 6        38.311               
E27  25626927.706 7 134670335.598 7      -356.628 7        42.795               
E30  27994406.817 6 147069370.681 6      2689.661 6        38.574               
E34  27607953.583 6 145080695.380 6     -2479.006 6        39.516               
> 2025 01 08 17 42 15.0000000  0  4                                             
E21  28000737.973 6 147181606.258 6     -2082.344 6        38.361               
E27  25626997.181 7 134670693.033 7      -357.673 7        42.826               
E30  27994921.624 6 147066681.908 6      2687.449 6        38.902               
E34  27608430.221 6 145083174.473 6     -2479.424 6        39.516               
> 2025 01 08 17 42 16.0000000  0  4                                             
E21  28000341.388 6 147183688.154 6     -2082.434 6        38.375               
E27  25627067.353 7 134671051.067 7      -358.884 7        42.794               
E30  27995432.660 6 147063992.684 6      2689.300 6        38.977               
E34  27608900.409 6 145085653.996 6     -2479.670 6        39.515               
> 2025 01 08 17 42 17.0000000  0  4                                             
E21  27999946.286 6 147185769.746 6     -2082.690 6        38.493               
E27  25627136.738 7 134671409.594 7      -358.388 7        42.528               
E30  27995949.343 6 147061303.111 6      2689.945 6        38.921               
E34  27609374.331 6 145088133.875 6     -2478.282 6        39.405               
> 2025 01 08 17 42 18.0000000  0  4                                             
E21  27999551.845 6 147187850.994 6     -2082.677 6        38.418               
E27  25627206.499 7 134671768.690 7      -359.531 7        42.629               
E30  27996461.344 6 147058613.115 6      2690.787 6        39.020               
E34  27609844.733 6 145090614.219 6     -2478.312 6        39.198               
> 2025 01 08 17 42 19.0000000  0  4                                             
E21  27999159.548 6 147189931.814 6     -2079.384 6        38.610               
E27  25627278.565 7 134672128.405 7      -360.712 7        42.875               
E30  27996980.403 6 147055922.634 6      2689.126 6        39.007               
E34  27610322.014 6 145093095.055 6     -2481.852 6        39.315               
> 2025 01 08 17 42 20.0000000  0  4                                             
E21  27998766.698 6 147192012.350 6     -2078.665 6        38.628               
E27  25627345.216 7 134672488.598 7      -360.566 7        43.258               
E30  27997489.099 6 147053231.843 6      2690.150 6        39.018               
E34  27610794.686 6 145095576.206 6     -2483.826 6        39.501               
> 2025 01 08 17 42 21.0000000  0  4                                             
E21  27998371.185 6 147194092.246 6     -2080.353 6        38.603               
E27  25627417.210 7 134672849.663 7      -361.020 7        43.200               
E30  27998002.690 6 147050540.299 6      2692.241 6        39.105               
E34  27611271.074 6 145098058.112 6     -2482.334 6        39.334               
> 2025 01 08 17 42 22.0000000  0  4                                             
E21  27997978.692 6 147196171.987 6     -2079.666 6        38.449               
E27  25627491.385 7 134673211.092 7      -361.902 7        43.373               
E30  27998520.963 6 147047848.562 6      2692.643 6        39.181               
E34  27611742.655 6 145100540.232 6     -2482.310 6        39.297               
> 2025 01 08 17 42 23.0000000  0  4                                             
E21  27997584.180 6 147198251.489 6     -2078.665 6        38.147               
E27  25627558.930 7 134673572.928 7      -360.661 7        43.271               
E30  27999034.626 6 147045156.548 6      2691.074 6        39.104               
E34  27612217.846 6 145103022.632 6     -2481.878 6        39.261               
> 2025 01 08 17 42 24.0000000  0  4                                             
E21  27997191.329 6 147200332.426 6     -2079.829 6        38.391               
E27  25627626.760 7 134673933.561 7      -360.525 7        43.143               
E30  27999545.287 6 147042465.896 6      2690.740 6        38.890               
E34  27612693.555 6 145105503.697 6     -2480.792 6        39.273               
> 2025 01 08 17 42 25.0000000  0  4                                             
E21  27996794.530 6 147202412.673 6     -2080.542 6        38.082               
E27  25627700.720 7 134674295.093 7      -362.438 7        43.014               
E30  28000063.364 6 147039774.518 6      2691.879 6        39.146               
E34  27613164.762 6 145107985.514 6     -2480.448 6        39.878               
> 2025 01 08 17 42 26.0000000  0  4                                             
E21  27996405.700 6 147204492.361 6     -2078.303 6        38.106               
E27  25627768.676 7 134674657.389 7      -362.801 7        43.080               
E30  28000575.293 6 147037082.491 6      2693.273 6        39.084               
E34  27613638.023 6 145110467.980 6     -2483.469 6        39.762               
> 2025 01 08 17 42 27.0000000  0  4                                             
E21  27996007.828 6 147206571.515 6     -2079.111 6        38.025               
E27  25627841.528 7 134675020.434 7      -363.381 7        43.144               
E30  28001086.991 6 147034389.880 6      2692.068 6        38.957               
E34  27614110.569 6 145112951.033 6     -2484.645 6        39.252               
> 2025 01 08 17 42 28.0000000  0  4                                             
E21  27995614.281 6 147208651.197 6     -2080.486 6        38.267               
E27  25627911.235 7 134675383.157 7      -362.076 7        42.947               
E30  28001602.047 6 147031697.741 6      2691.051 6        38.702               
E34  27614588.565 6 145115433.636 6     -2479.835 6        39.101               
> 2025 01 08 17 42 29.0000000  0  4                                             
E21  27995221.073 6 147210730.809 6     -2078.631 6        38.015               
E27  25627983.104 7 134675746.146 7      -363.611 7        42.815               
E30  28002116.568 6 147029005.474 6      2693.742 6        38.537               
E34  27615061.040 6 145117916.380 6     -2484.753 6        39.120               
> 2025 01 08 17 42 30.0000000  0  4                                             
E21  27994829.813 6 147212809.544 6     -2076.983 6        38.415               
E27  25628052.347 7 134676110.210 7      -364.661 7        43.104               
E30  28002632.911 6 147026312.275 6      2692.068 6        38.571               
E34  27615533.801 6 145120400.059 6     -2483.128 6        39.299               
> 2025 01 08 17 42 31.0000000  0  4                                             
E21  27994433.353 6 147214888.180 6     -2079.030 6        38.147               
E27  25628125.324 7 134676474.593 7      -364.051 7        42.944               
E30  28003145.252 6 147023618.909 6      2691.788 6        38.773               
E34  27616007.473 6 145122883.932 6     -2483.791 6        38.889               
> 2025 01 08 17 42 32.0000000  0  4                                             
E21  27994039.037 6 147216966.417 6     -2078.392 6        38.192               
E27  25628195.496 7 134676839.553 7      -365.544 7        43.060               
E30  28003662.292 6 147020925.118 6      2692.353 6        38.589               
E34  27616478.947 6 145125368.241 6     -2483.001 6        39.260               
> 2025 01 08 17 42 33.0000000  0  4                                             
E21  27993645.293 6 147219044.420 6     -2076.538 6        38.114               
E27  25628266.829 7 134677204.985 7      -365.976 7        42.804               
E30  28004173.328 6 147018230.982 6      2694.148 6        38.809               
E34  27616958.855 6 145127852.909 6     -2485.247 6        39.115               
> 2025 01 08 17 42 34.0000000  0  4                                             
E21  27993250.745 6 147221122.516 6     -2079.350 6        38.217               
E27  25628336.625 7 134677570.540 7      -367.019 7        43.133               
E30  28004691.476 6 147015536.885 6      2695.269 6        38.505               
E34  27617432.367 6 145130337.516 6     -2484.547 6        38.768               
> 2025 01 08 17 42 35.0000000  0  4                                             
E21  27992858.931 6 147223200.618 6     -2078.496 6        38.274               
E27  25628409.477 7 134677936.268 7      -366.197 7        43.238               
E30  28005204.746 6 147012842.760 6      2693.767 6        38.331               
E34  27617907.683 6 145132822.219 6     -2485.721 6        38.590               
> 2025 01 08 17 42 36.0000000  0  5                                             
E13  28015149.983 6 147221214.657 6     -2494.231 6        36.433               
E21  27992460.577 6 147225278.504 6     -2075.921 6        38.091               
E27  25628480.524 7 134678302.407 7      -367.331 7        43.136               
E30  28005718.963 6 147010148.366 6      2695.922 6        38.214               
E34  27618381.122 6 145135307.157 6     -2484.914 6        38.971               
> 2025 01 08 17 42 37.0000000  0  5                                             
E13  28014682.226 6 147223705.429 6     -2489.054 6        36.363               
E21  27992070.603 6 147227356.055 6     -2078.784 6        37.721               
E27  25628554.055 7 134678669.119 7      -367.095 7        43.293               
E30  28006231.053 6 147007453.578 6      2697.185 6        38.518               
E34  27618854.366 6 145137792.528 6     -2485.845 6        38.771               
> 2025 01 08 17 42 38.0000000  0  5                                             
E13  28014207.821 6 147226196.064 6     -2490.829 6        36.302               
E21  27991676.413 6 147229433.507 6     -2076.069 6        37.652               
E27  25628624.120 7 134679036.129 7      -367.293 7        43.252               
E30  28006748.844 6 147004758.585 6      2694.491 6        38.367               
E34  27619334.506 6 145140278.106 6     -2485.572 6        39.143               
> 2025 01 08 17 42 39.0000000  0  5                                             
E13  28013731.933 6 147228686.474 6     -2491.304 6        36.666               
E21  27991279.631 6 147231510.755 6     -2075.723 6        37.667               
E27  25628694.345 7 134679403.544 7      -368.111 7        43.125               
E30  28007260.220 6 147002063.387 6      2696.989 6        38.631               
E34  27619807.910 6 145142763.912 6     -2484.582 6        39.176               
> 2025 01 08 17 42 40.0000000  0  5                                             
E13  28013263.640 6 147231176.507 6     -2490.891 6        36.427               
E21  27990890.015 6 147233587.719 6     -2076.054 6        37.523               
E27  25628767.787 7 134679771.446 7      -369.125 7        43.124               
E30  28007776.545 6 146999367.852 6      2695.084 6        38.806               
E34  27620281.672 6 145145250.049 6     -2485.464 6        39.523               
> 2025 01 08 17 42 41.0000000  0  5                                             
E13  28012784.303 6 147233666.346 6     -2491.449 6        36.445               
E21  27990492.340 6 147235664.514 6     -2077.845 6        37.727               
E27  25628840.049 7 134680139.733 7      -367.743 7        43.342               
E30  28008292.763 6 146996672.046 6      2695.422 6        38.793               
E34  27620756.845 6 145147736.479 6     -2488.029 6        39.295               
> 2025 01 08 17 42 42.0000000  0  5                                             
E13  28012317.975 6 147236155.982 6     -2491.152 6        36.525               
E21  27990099.311 6 147237741.193 6     -2077.872 6        37.424               
E27  25628912.133 7 134680508.337 7      -369.234 7        43.141               
E30  28008810.000 6 146993976.084 6      2696.237 6        38.456               
E34  27621229.123 6 145150223.064 6     -2488.286 6        39.035               
> 2025 01 08 17 42 43.0000000  0  5                                             
E13  28011847.627 6 147238645.353 6     -2488.726 6        36.685               
E21  27989706.496 6 147239817.659 6     -2076.584 6        37.529               
E27  25628983.091 7 134680877.365 7      -368.799 7        43.247               
E30  28009322.073 6 146991279.855 6      2694.865 6        38.408               
E34  27621706.905 6 145152709.971 6     -2486.320 6        39.346               
> 2025 01 08 17 42 44.0000000  0  5                                             
E13  28011372.793 6 147241134.344 6     -2490.220 6        36.410               
E21  27989310.733 6 147241893.776 6     -2077.420 6        37.953               
E27  25629052.530 7 134681246.948 7      -369.900 7        43.389               
E30  28009838.613 6 146988583.208 6      2696.169 6        38.479               
E34  27622180.488 6 145155197.247 6     -2488.523 6        39.149               
> 2025 01 08 17 42 45.0000000  0  5                                             
E13  28010901.301 6 147243622.663 6     -2486.800 6        36.142               
E21  27988923.332 6 147243969.249 6     -2076.348 6        37.641               
E27  25629127.490 7 134681617.352 7      -371.105 7        43.434               
E30  28010350.078 6 146985885.875 6      2696.033 6        38.426               
E34  27622656.018 6 145157685.249 6     -2486.684 6        39.262               
> 2025 01 08 17 42 46.0000000  0  5                                             
E13  28010425.592 6 147246110.810 6     -2487.540 6        36.376               
E21  27988528.123 6 147246044.629 6     -2073.425 6        37.846               
E27  25629201.504 7 134681988.075 7      -370.581 7        43.344               
E30  28010867.833 6 146983188.396 6      2697.000 6        38.464               
E34  27623135.265 6 145160173.401 6     -2489.236 6        39.098               
> 2025 01 08 17 42 47.0000000  0  5                                             
E13  28009957.424 6 147248598.920 6     -2488.189 6        36.162               
E21  27988133.075 6 147248120.052 6     -2076.599 6        37.939               
E27  25629274.660 7 134682358.962 7      -370.901 7        43.692               
E30  28011382.854 6 146980490.893 6      2696.904 6        38.625               
E34  27623606.829 6 145162661.596 6     -2488.154 6        39.274               
> 2025 01 08 17 42 48.0000000  0  5                                             
E13  28009489.720 6 147251086.753 6     -2488.183 6        36.254               
E21  27987741.743 6 147250195.220 6     -2073.900 6        38.133               
E27  25629345.689 7 134682730.283 7      -369.571 7        43.527               
E30  28011900.466 6 146977793.092 6      2698.347 6        38.500               
E34  27624082.449 6 145165150.110 6     -2488.262 6        39.412               
> 2025 01 08 17 42 49.0000000  0  5                                             
E13  28009014.583 6 147253574.535 6     -2488.875 6        36.428               
E21  27987349.858 6 147252270.383 6     -2073.548 6        37.818               
E27  25629415.557 7 134683101.846 7      -370.369 7        43.241               
E30  28012412.967 6 146975095.220 6      2699.270 6        38.238               
E34  27624556.103 6 145167638.708 6     -2489.661 6        39.440               
> 2025 01 08 17 42 50.0000000  0  5                                             
E13  28008540.911 6 147256062.499 6     -2488.435 6        36.713               
E21  27986956.364 6 147254345.822 6     -2076.779 6        37.812               
E27  25629489.052 7 134683473.325 7      -371.414 7        43.228               
E30  28012929.257 6 146972397.551 6      2697.407 6        38.067               
E34  27625032.169 6 145170127.109 6     -2488.251 6        39.453               
> 2025 01 08 17 42 51.0000000  0  5                                             
E13  28008070.562 6 147258550.607 6     -2487.099 6        36.649               
E21  27986565.979 6 147256421.456 6     -2075.002 6        37.950               
E27  25629560.653 7 134683844.846 7      -371.308 7        43.106               
E30  28013440.900 6 146969700.046 6      2698.830 6        37.939               
E34  27625509.719 6 145172615.382 6     -2487.604 6        39.522               
> 2025 01 08 17 42 52.0000000  0  5                                             
E13  28007603.984 6 147261038.527 6     -2488.887 6        36.470               
E21  27986169.841 6 147258496.902 6     -2072.565 6        37.690               
E27  25629637.061 7 134684216.732 7      -371.599 7        43.161               
E30  28013955.850 6 146967002.265 6      2698.732 6        37.920               
E34  27625980.335 6 145175103.871 6     -2489.666 6        39.241               
> 2025 01 08 17 42 53.0000000  0  5                                             
E13  28007129.812 6 147263525.744 6     -2489.368 6        36.319               
E21  27985775.204 6 147260571.769 6     -2074.756 6        37.845               
E27  25629707.394 7 134684589.400 7      -372.610 7        43.096               
E30  28014471.371 6 146964303.866 6      2699.714 6        38.021               
E34  27626457.206 6 145177593.052 6     -2490.148 6        39.281               
> 2025 01 08 17 42 54.0000000  0  5                                             
E13  28006656.551 6 147266012.284 6     -2485.240 6        36.275               
E21  27985385.230 6 147262645.941 6     -2075.970 6        37.977               
E27  25629779.853 7 134684962.961 7      -373.528 7        42.787               
E30  28014987.929 6 146961604.722 6      2700.022 6        38.185               
E34  27626936.703 6 145180082.945 6     -2490.525 6        39.507               
> 2025 01 08 17 42 55.0000000  0  5                                             
E13  28006184.773 6 147268498.538 6     -2486.114 6        36.340               
E21  27984988.055 6 147264719.966 6     -2074.753 6        37.719               
E27  25629852.633 7 134685336.912 7      -373.677 7        42.718               
E30  28015504.379 6 146958905.343 6      2698.516 6        38.354               
E34  27627411.912 6 145182573.104 6     -2492.295 6        39.315               
> 2025 01 08 17 42 56.0000000  0  5                                             
E13  28005714.263 6 147270984.833 6     -2488.091 6        36.096               
E21  27984601.638 6 147266794.026 6     -2074.385 6        37.827               
E27  25629925.467 7 134685711.003 7      -373.615 7        43.056               
E30  28016022.349 6 146956205.978 6      2699.389 6        38.133               
E34  27627885.155 6 145185063.273 6     -2486.665 6        39.092               
> 2025 01 08 17 42 57.0000000  0  5                                             
E13  28005243.093 6 147273470.916 6     -2485.724 6        36.215               
E21  27984205.303 6 147268867.929 6     -2071.984 6        37.723               
E27  25630000.267 7 134686085.460 7      -373.897 7        43.388               
E30  28016534.958 6 146953506.397 6      2700.095 6        38.282               
E34  27628358.756 6 145187553.675 6     -2491.187 6        39.288               
> 2025 01 08 17 42 58.0000000  0  5                                             
E13  28004765.347 6 147275956.516 6     -2485.612 6        36.129               
E21  27983813.221 6 147270941.397 6     -2072.515 6        38.016               
E27  25630070.939 7 134686460.548 7      -375.565 7        43.331               
E30  28017053.302 6 146950806.294 6      2700.762 6        38.050               
E34  27628838.593 6 145190044.594 6     -2491.103 6        38.979               
> 2025 01 08 17 42 59.0000000  0  5                                             
E13  28004301.020 6 147278442.069 6     -2485.604 6        36.154               
E21  27983419.262 6 147273014.895 6     -2074.071 6        37.895               
E27  25630142.951 7 134686835.834 7      -375.240 7        43.135               
E30  28017569.395 6 146948106.183 6      2700.784 6        38.206               
E34  27629314.927 6 145192535.550 6     -2490.952 6        38.805               
> 2025 01 08 17 43 00.0000000  0  5                                             
E13  28003826.562 6 147280927.443 6     -2486.016 6        36.044               
E21  27983029.968 6 147275088.234 6     -2073.556 6        38.179               
E27  25630220.360 7 134687211.475 7      -375.741 7        42.904               
E30  28018081.879 6 146945405.873 6      2700.482 6        38.173               
E34  27629790.922 6 145195026.705 6     -2493.783 6        38.807               
> 2025 01 08 17 43 01.0000000  0  5                                             
E13  28003359.823 6 147283412.366 6     -2484.818 6        36.121               
E21  27982633.400 6 147277161.210 6     -2073.538 6        38.109               
E27  25630292.372 7 134687587.663 7      -376.705 7        43.002               
E30  28018596.846 6 146942705.134 6      2700.549 6        37.938               
E34  27630265.720 6 145197518.300 6     -2492.288 6        38.890               
> 2025 01 08 17 43 02.0000000  0  5                                             
E13  28002889.153 5 147285897.157 5     -2487.124 5        35.869               
E21  27982242.051 6 147279234.105 6     -2075.557 6        38.114               
E27  25630366.171 7 134687964.173 7      -375.338 7        42.926               
E30  28019113.815 6 146940004.241 6      2701.589 6        37.801               
E34  27630740.447 6 145200010.052 6     -2491.816 6        38.823               
> 2025 01 08 17 43 03.0000000  0  5                                             
E13  28002418.036 6 147288382.152 6     -2482.762 6        36.022               
E21  27981847.431 6 147281307.281 6     -2072.386 6        38.110               
E27  25630437.147 7 134688340.609 7      -376.560 7        42.838               
E30  28019631.892 6 146937303.581 6      2700.832 6        38.057               
E34  27631217.603 6 145202501.597 6     -2491.947 6        38.675               
> 2025 01 08 17 43 04.0000000  0  5                                             
E13  28001944.775 6 147290866.982 6     -2486.480 6        36.017               
E21  27981457.458 6 147283380.280 6     -2073.428 6        37.812               
E27  25630514.126 7 134688717.378 7      -376.887 7        43.261               
E30  28020143.178 6 146934602.711 6      2701.383 6        38.252               
E34  27631690.668 6 145204993.355 6     -2492.767 6        38.634               
> 2025 01 08 17 43 05.0000000  0  5                                             
E13  28001474.052 6 147293351.646 6     -2483.732 6        36.168               
E21  27981063.839 6 147285453.203 6     -2074.636 6        38.137               
E27  25630584.387 7 134689094.484 7      -376.589 7        43.179               
E30  28020658.235 6 146931901.688 6      2700.391 6        38.259               
E34  27632169.236 6 145207485.307 6     -2491.449 6        38.472               
> 2025 01 08 17 43 06.0000000  0  5                                             
E13  28001000.576 6 147295837.122 6     -2485.478 6        36.425               
E21  27980669.845 6 147287526.991 6     -2073.764 6        38.464               
E27  25630656.650 7 134689470.893 7      -377.089 7        43.021               
E30  28021177.205 6 146929201.473 6      2699.231 6        38.476               
E34  27632640.603 6 145209976.419 6     -2492.478 6        38.528               
> 2025 01 08 17 43 07.0000000  0  5                                             
E13  28000529.906 6 147298321.842 6     -2483.924 6        36.422               
E21  27980276.155 6 147289600.072 6     -2069.331 6        38.273               
E27  25630731.950 7 134689848.202 7      -376.801 7        42.986               
E30  28021693.405 6 146926500.510 6      2701.535 6        38.320               
E34  27633116.526 6 145212468.301 6     -2493.485 6        38.156               
> 2025 01 08 17 43 08.0000000  0  5                                             
E13  28000059.361 6 147300805.785 6     -2485.111 6        36.524               
E21  27979885.609 6 147291672.438 6     -2073.009 6        37.983               
E27  25630805.195 7 134690226.486 7      -378.030 7        43.007               
E30  28022205.549 6 146923798.759 6      2703.531 6        38.044               
E34  27633595.273 6 145214961.002 6     -2491.730 6        38.171               
> 2025 01 08 17 43 09.0000000  0  5                                             
E13  27999592.175 6 147303289.393 6     -2486.328 6        36.276               
E21  27979491.901 6 147293744.518 6     -2070.548 6        38.169               
E27  25630880.173 7 134690605.229 7      -380.115 7        42.886               
E30  28022724.948 6 146921096.681 6      2700.815 6        38.369               
E34  27634071.590 6 145217454.030 6     -2492.075 6        38.040               
> 2025 01 08 17 43 10.0000000  0  5                                             
E13  27999120.880 6 147305772.906 6     -2483.055 6        36.722               
E21  27979102.803 6 147295816.532 6     -2069.938 6        38.010               
E27  25630953.168 7 134690984.232 7      -379.289 7        42.941               
E30  28023241.398 6 146918394.471 6      2703.384 6        38.128               
E34  27634546.406 6 145219947.161 6     -2492.075 6        38.236               
> 2025 01 08 17 43 11.0000000  0  5                                             
E13  27998649.924 6 147308256.231 6     -2482.356 6        36.321               
E21  27978710.453 6 147297888.453 6     -2071.320 6        38.274               
E27  25631026.145 7 134691363.531 7      -378.720 7        43.473               
E30  28023753.114 6 146915692.143 6      2702.613 6        38.296               
E34  27635027.600 6 145222440.517 6     -2495.063 6        38.304               
> 2025 01 08 17 43 12.0000000  0  5                                             
E13  27998179.683 6 147310739.742 6     -2483.324 6        36.369               
E21  27978317.799 6 147299960.590 6     -2072.665 6        37.979               
E27  25631098.104 7 134691742.827 7      -378.386 7        43.092               
E30  28024267.670 6 146912989.951 6      2701.144 6        38.304               
E34  27635498.985 6 145224933.686 6     -2495.800 6        38.363               
> 2025 01 08 17 43 13.0000000  0  5                                             
E13  27997707.923 6 147313222.780 6     -2483.189 6        36.372               
E21  27977924.037 6 147302032.306 6     -2070.731 6        38.216               
E27  25631175.924 7 134692122.767 7      -379.792 7        42.922               
E30  28024792.680 6 146910287.269 6      2701.515 6        38.496               
E34  27635976.696 6 145227427.350 6     -2491.962 6        37.983               
> 2025 01 08 17 43 14.0000000  0  5                                             
E13  27997239.790 6 147315706.149 6     -2480.265 6        36.689               
E21  27977531.973 6 147304104.410 6     -2071.385 6        38.396               
E27  25631247.721 7 134692502.510 7      -380.006 7        43.145               
E30  28025307.111 6 146907584.928 6      2703.474 6        38.327               
E34  27636452.065 6 145229920.696 6     -2491.212 6        38.299               
> 2025 01 08 17 43 15.0000000  0  5                                             
E13  27996769.995 6 147318188.021 6     -2481.951 6        36.307               
E21  27977140.695 6 147306175.066 6     -2069.403 6        38.274               
E27  25631322.199 7 134692883.912 7      -381.810 7        42.900               
E30  28025822.865 6 146904881.077 6      2705.611 6        38.307               
E34  27636930.491 6 145232415.558 6     -2495.842 6        38.693               
> 2025 01 08 17 43 16.0000000  0  5                                             
E13  27996295.966 6 147320670.436 6     -2483.789 6        36.406               
E21  27976748.273 6 147308246.303 6     -2071.766 6        37.805               
E27  25631397.035 7 134693264.917 7      -380.266 7        43.133               
E30  28026337.743 6 146902177.769 6      2703.851 6        38.053               
E34  27637404.752 6 145234909.886 6     -2495.230 6        38.661               
> 2025 01 08 17 43 17.0000000  0  5                                             
E13  27995820.882 6 147323152.457 6     -2482.921 6        36.406               
E21  27976353.582 6 147310317.213 6     -2070.552 6        37.904               
E27  25631473.496 7 134693646.463 7      -382.220 7        42.912               
E30  28026853.872 6 146899474.092 6      2703.806 6        37.953               
E34  27637882.052 6 145237404.608 6     -2493.894 6        38.651               
> 2025 01 08 17 43 18.0000000  0  5                                             
E13  27995359.022 6 147325634.056 6     -2481.667 6        36.396               
E21  27975961.286 6 147312387.801 6     -2071.611 6        38.050               
E27  25631546.313 7 134694028.551 7      -381.675 7        43.320               
E30  28027369.947 6 146896770.003 6      2703.665 6        38.131               
E34  27638359.977 6 145239899.751 6     -2495.560 6        38.851               
> 2025 01 08 17 43 19.0000000  0  5                                             
E13  27994886.779 6 147328115.790 6     -2480.745 6        36.322               
E21  27975569.972 6 147314458.581 6     -2073.217 6        38.377               
E27  25631620.970 7 134694410.671 7      -382.806 7        43.142               
E30  28027891.633 6 146894066.040 6      2703.073 6        38.275               
E34  27638837.151 6 145242394.764 6     -2494.329 6        39.054               
> 2025 01 08 17 43 20.0000000  0  5                                             
E13  27994414.233 6 147330597.431 6     -2482.653 6        36.339               
E21  27975177.765 6 147316529.243 6     -2071.357 6        38.367               
E27  25631697.771 7 134694793.072 7      -383.472 7        43.112               
E30  28028406.582 6 146891361.933 6      2704.090 6        38.728               
E34  27639310.787 6 145244889.923 6     -2492.691 6        38.569               
> 2025 01 08 17 43 21.0000000  0  5                                             
E13  27993939.346 6 147333078.657 6     -2479.848 6        36.195               
E21  27974783.682 6 147318599.558 6     -2067.873 6        38.222               
E27  25631769.157 7 134695176.026 7      -384.696 7        42.878               
E30  28028924.016 6 146888657.442 6      2705.427 6        38.842               
E34  27639791.000 6 145247385.518 6     -2494.315 6        38.609               
> 2025 01 08 17 43 22.0000000  0  5                                             
E13  27993471.052 6 147335559.576 6     -2480.555 6        36.083               
E21  27974392.654 6 147320669.630 6     -2070.519 6        38.133               
E27  25631847.888 7 134695559.451 7      -382.764 7        43.068               
E30  28029440.145 6 146885952.625 6      2705.537 6        38.593               
E34  27640265.172 6 145249881.409 6     -2495.800 6        38.668               
> 2025 01 08 17 43 23.0000000  0  5                                             
E13  27992998.738 6 147338040.144 6     -2480.889 6        36.237               
E21  27973999.285 6 147322739.409 6     -2068.117 6        38.045               
E27  25631920.955 7 134695943.337 7      -383.539 7        43.074               
E30  28029956.363 6 146883247.467 6      2705.292 6        38.679               
E34  27640741.774 6 145252377.673 6     -2497.278 6        38.687               
> 2025 01 08 17 43 24.0000000  0  5                                             
E13  27992536.020 6 147340519.810 6     -2479.421 6        36.499               
E21  27973609.830 6 147324808.365 6     -2069.566 6        38.268               
E27  25631994.021 7 134696328.300 7      -385.521 7        42.834               
E30  28030468.543 6 146880541.429 6      2706.232 6        38.584               
E34  27641218.181 6 145254874.835 6     -2496.756 6        38.702               
> 2025 01 08 17 43 25.0000000  0  5                                             
E13  27992064.760 6 147342998.967 6     -2479.065 6        36.324               
E21  27973214.549 6 147326876.863 6     -2067.771 6        38.605               
E27  25632070.286 7 134696713.889 7      -385.149 7        42.974               
E30  28030986.172 6 146877834.873 6      2705.601 6        38.963               
E34  27641697.767 6 145257372.497 6     -2498.922 6        38.797               
> 2025 01 08 17 43 26.0000000  0  5                                             
E13  27991594.215 6 147345479.011 6     -2479.092 6        36.122               
E21  27972823.932 6 147328946.250 6     -2067.806 6        38.429               
E27  25632144.925 7 134697098.794 7      -385.627 7        43.198               
E30  28031508.073 6 146875129.167 6      2706.635 6        38.504               
E34  27642179.141 6 145259869.319 6     -2496.216 6        38.594               
> 2025 01 08 17 43 27.0000000  0  5                                             
E13  27991126.672 6 147347958.109 6     -2477.890 6        36.369               
E21  27972435.871 6 147331014.801 6     -2069.050 6        38.173               
E27  25632219.886 7 134697484.756 7      -385.960 7        43.217               
E30  28032020.968 6 146872422.587 6      2707.357 6        38.569               
E34  27642651.348 6 145262367.073 6     -2498.921 6        38.797               
> 2025 01 08 17 43 28.0000000  0  5                                             
E13  27990653.072 6 147350436.695 6     -2479.499 6        36.289               
E21  27972041.966 6 147333082.870 6     -2067.815 6        38.130               
E27  25632297.705 7 134697871.415 7      -385.837 7        43.261               
E30  28032537.615 6 146869715.443 6      2707.022 6        38.654               
E34  27643129.326 6 145264865.377 6     -2498.131 6        38.907               
> 2025 01 08 17 43 29.0000000  0  5                                             
E13  27990184.474 6 147352915.750 6     -2478.674 6        36.222               
E21  27971651.760 6 147335151.442 6     -2069.241 6        38.124               
E27  25632372.880 7 134698257.733 7      -386.758 7        43.111               
E30  28033055.638 6 146867008.773 6      2706.849 6        38.372               
E34  27643606.929 6 145267363.207 6     -2498.050 6        39.044               
> 2025 01 08 17 43 30.0000000  0  5                                             
E13  27989712.178 6 147355394.651 6     -2479.742 6        36.452               
E21  27971259.589 6 147337219.910 6     -2067.650 6        38.119               
E27  25632448.180 7 134698644.377 7      -386.009 7        43.291               
E30  28033576.627 6 146864301.914 6      2707.023 6        38.470               
E34  27644079.297 6 145269861.234 6     -2498.670 6        38.737               
> 2025 01 08 17 43 31.0000000  0  5                                             
E13  27989245.672 6 147357873.258 6     -2477.480 6        36.384               
E21  27970864.898 6 147339288.202 6     -2067.004 6        38.041               
E27  25632523.516 7 134699031.413 7      -387.043 7        43.104               
E30  28034090.308 6 146861594.847 6      2706.929 6        38.373               
E34  27644559.116 6 145272359.495 6     -2497.301 6        38.877               
> 2025 01 08 17 43 32.0000000  0  5                                             
E13  27988772.821 6 147360351.590 6     -2477.529 6        36.355               
E21  27970478.909 6 147341356.195 6     -2067.783 6        38.054               
E27  25632598.637 7 134699418.945 7      -387.815 7        43.026               
E30  28034603.828 6 146858887.412 6      2708.064 6        38.207               
E34  27645039.185 6 145274858.109 6     -2498.470 6        38.714               
> 2025 01 08 17 43 33.0000000  0  5                                             
E13  27988301.061 6 147362829.575 6     -2479.441 6        36.537               
E21  27970083.467 6 147343423.936 6     -2068.426 6        38.163               
E27  25632674.259 7 134699806.932 7      -388.522 7        42.982               
E30  28035124.728 6 146856179.695 6      2706.159 6        38.439               
E34  27645515.448 6 145277357.054 6     -2501.166 6        39.145               
> 2025 01 08 17 43 34.0000000  0  5                                             
E13  27987833.518 6 147365307.198 6     -2477.036 6        36.285               
E21  27969692.136 6 147345491.341 6     -2065.453 6        38.223               
E27  25632750.327 7 134700195.477 7      -389.742 7        42.934               
E30  28035640.713 6 146853471.532 6      2708.426 6        38.623               
E34  27645992.980 6 145279856.412 6     -2499.651 6        39.267               
> 2025 01 08 17 43 35.0000000  0  5                                             
E13  27987363.045 6 147367784.415 6     -2477.235 6        36.680               
E21  27969300.697 6 147347558.410 6     -2066.588 6        38.160               
E27  25632827.843 7 134700584.556 7      -389.880 7        42.873               
E30  28036157.861 6 146850763.020 6      2710.246 6        38.561               
E34  27646473.049 6 145282356.140 6     -2498.940 6        39.118               
> 2025 01 08 17 43 36.0000000  0  6                                             
E13  27986896.342 6 147370261.657 6     -2478.165 6        36.842               
E15  25590441.770 6 134478668.965 6       110.633 6        38.710               
E21  27968910.295 6 147349625.564 6     -2066.819 6        38.066               
E27  25632902.429 7 134700973.738 7      -390.014 7        42.670               
E30  28036675.920 6 146848054.538 6      2710.065 6        38.712               
E34  27646949.277 6 145284855.879 6     -2500.377 6        38.932               
> 2025 01 08 17 43 37.0000000  0  6                                             
E13  27986421.330 6 147372738.695 6     -2475.917 6        36.671               
E15  25590422.186 6 134478559.531 6       110.487 6        38.543               
E21  27968515.836 6 147351692.549 6     -2069.274 6        38.165               
E27  25632977.157 7 134701363.291 7      -390.398 7        43.012               
E30  28037192.960 6 146845345.856 6      2707.860 6        38.644               
E34  27647428.041 6 145287355.810 6     -2497.651 6        38.979               
> 2025 01 08 17 43 38.0000000  0  6                                             
E13  27985955.770 6 147375215.259 6     -2477.838 6        36.750               
E15  25590396.240 6 134478450.729 6       109.533 6        38.399               
E21  27968125.737 6 147353759.131 6     -2064.578 6        38.057               
E27  25633052.278 7 134701753.459 7      -391.280 7        42.971               
E30  28037706.658 6 146842636.690 6      2709.832 6        38.782               
E34  27647902.964 6 145289856.201 6     -2498.960 6        39.074               
> 2025 01 08 17 43 39.0000000  0  6                                             
E13  27985487.066 6 147377691.071 6     -2475.340 6        36.526               
E15  25590382.820 6 134478342.945 6       106.491 6        38.267               
E21  27967735.192 6 147355825.011 6     -2066.290 6        37.938               
E27  25633132.135 7 134702144.551 7      -392.274 7        42.799               
E30  28038229.363 6 146839926.760 6      2709.255 6        38.820               
E34  27648382.944 6 145292357.426 6     -2500.396 6        38.925               
> 2025 01 08 17 43 40.0000000  0  6                                             
E13  27985020.666 6 147380166.624 6     -2474.982 6        36.419               
E15  25590363.665 6 134478235.598 6       106.781 6        38.046               
E21  27967340.161 6 147357890.690 6     -2065.777 6        38.149               
E27  25633204.826 7 134702536.035 7      -391.561 7        42.815               
E30  28038745.849 6 146837216.602 6      2708.208 6        38.791               
E34  27648856.795 6 145294858.864 6     -2501.124 6        39.170               
> 2025 01 08 17 43 41.0000000  0  6                                             
E13  27984553.177 6 147382642.642 6     -2477.823 6        36.091               
E15  25590343.812 6 134478127.965 6       109.618 6        37.734               
E21  27966953.154 6 147359956.883 6     -2066.031 6        38.050               
E27  25633281.270 7 134702927.195 7      -390.398 7        43.015               
E30  28039262.371 6 146834506.866 6      2709.936 6        38.944               
E34  27649336.703 6 145297359.868 6     -2498.952 6        39.199               
> 2025 01 08 17 43 42.0000000  0  6                                             
E13  27984078.236 6 147385118.825 6     -2477.561 6        36.271               
E15  25590326.658 6 134478020.430 6       106.498 6        37.957               
E21  27966563.556 6 147362023.276 6     -2068.000 6        37.862               
E27  25633360.126 7 134703318.387 7      -392.412 7        43.175               
E30  28039779.840 6 146831797.319 6      2710.088 6        39.151               
E34  27649810.536 6 145299860.718 6     -2500.300 6        39.469               
> 2025 01 08 17 43 43.0000000  0  6                                             
E13  27983608.477 5 147387594.619 5     -2478.070 5        35.981               
E15  25590309.164 6 134477913.436 6       105.410 6        37.592               
E21  27966171.777 6 147364089.344 6     -2066.657 6        37.744               
E27  25633435.283 7 134703710.083 7      -392.469 7        43.032               
E30  28040296.327 6 146829087.377 6      2710.833 6        39.075               
E34  27650293.875 6 145302361.984 6     -2503.664 6        39.349               
> 2025 01 08 17 43 44.0000000  0  6                                             
E13  27983141.399 6 147390070.231 6     -2475.631 6        36.504               
E15  25590290.098 6 134477806.830 6       107.248 6        37.725               
E21  27965776.872 6 147366155.280 6     -2063.698 6        38.215               
E27  25633512.048 7 134704102.114 7      -391.780 7        42.940               
E30  28040814.224 6 146826377.265 6      2709.821 6        38.836               
E34  27650773.909 6 145304863.423 6     -2503.698 6        39.262               
> 2025 01 08 17 43 45.0000000  0  6                                             
E13  27982673.713 6 147392545.711 6     -2476.535 6        36.990               
E15  25590270.978 6 134477700.547 6       106.171 6        37.742               
E21  27965387.149 6 147368221.157 6     -2066.168 6        38.165               
E27  25633587.813 7 134704494.433 7      -392.242 7        43.219               
E30  28041334.749 6 146823667.012 6      2709.335 6        38.590               
E34  27651248.814 6 145307364.990 6     -2500.539 6        39.397               
> 2025 01 08 17 43 46.0000000  0  6                                             
E13  27982197.450 6 147395021.133 6     -2474.467 6        36.504               
E15  25590254.056 6 134477594.587 6       106.338 6        37.595               
E21  27964996.067 6 147370287.006 6     -2065.663 6        38.082               
E27  25633664.793 7 134704886.967 7      -392.205 7        43.099               
E30  28041848.483 6 146820956.681 6      2711.072 6        38.387               
E34  27651725.220 6 145309866.667 6     -2503.489 6        39.394               
> 2025 01 08 17 43 47.0000000  0  6                                             
E13  27981729.728 6 147397496.281 6     -2478.147 6        36.777               
E15  25590232.524 6 134477489.054 6       106.201 6        37.296               
E21  27964602.770 6 147372352.626 6     -2064.070 6        37.710               
E27  25633742.559 7 134705279.930 7      -392.763 7        43.119               
E30  28042368.812 6 146818246.096 6      2710.825 6        38.469               
E34  27652204.860 6 145312368.576 6     -2501.485 6        39.526               
> 2025 01 08 17 43 48.0000000  0  6                                             
E13  27981264.294 6 147399971.048 6     -2473.302 6        36.893               
E15  25590215.852 6 134477384.099 6       104.818 6        37.222               
E21  27964210.402 6 147374417.945 6     -2066.703 6        37.906               
E27  25633819.931 7 134705673.388 7      -394.493 7        43.213               
E30  28042888.782 6 146815535.150 6      2709.797 6        38.726               
E34  27652682.338 6 145314870.888 6     -2504.760 6        39.443               
> 2025 01 08 17 43 49.0000000  0  6                                             
E13  27980794.732 6 147402445.448 6     -2471.695 6        36.719               
E15  25590199.002 6 134477279.746 6       103.623 6        37.129               
E21  27963820.857 6 147376482.936 6     -2064.855 6        37.885               
E27  25633896.214 7 134706067.387 7      -394.349 7        43.060               
E30  28043402.928 6 146812823.801 6      2711.926 6        38.553               
E34  27653160.942 6 145317373.611 6     -2504.451 6        39.501               
> 2025 01 08 17 43 50.0000000  0  6                                             
E13  27980328.850 6 147404919.389 6     -2474.070 6        36.346               
E15  25590179.525 6 134477175.998 6       105.926 6        37.017               
E21  27963433.278 6 147378547.560 6     -2065.517 6        37.960               
E27  25633973.480 7 134706461.984 7      -394.154 7        43.171               
E30  28043920.057 6 146810112.033 6      2713.679 6        38.676               
E34  27653636.633 6 145319876.724 6     -2503.717 6        39.048               
> 2025 01 08 17 43 51.0000000  0  6                                             
E13  27979860.468 6 147407392.916 6     -2472.729 6        36.390               
E15  25590162.924 6 134477072.963 6       102.254 6        36.636               
E21  27963037.193 6 147380611.768 6     -2065.887 6        37.676               
E27  25634048.887 7 134706857.186 7      -394.940 7        42.963               
E30  28044434.667 6 146807399.822 6      2712.493 6        38.521               
E34  27654114.701 6 145322380.348 6     -2502.649 6        39.535               
> 2025 01 08 17 43 52.0000000  0  6                                             
E13  27979389.315 6 147409866.109 6     -2473.661 6        36.571               
E15  25590145.556 6 134476970.412 6        99.891 6        36.543               
E21  27962647.863 6 147382675.686 6     -2062.328 6        37.533               
E27  25634125.956 7 134707252.869 7      -397.025 7        42.648               
E30  28044955.817 6 146804687.268 6      2712.428 6        38.288               
E34  27654593.805 6 145324884.314 6     -2503.395 6        39.503               
> 2025 01 08 17 43 53.0000000  0  6                                             
E13  27978920.092 6 147412339.139 6     -2471.220 6        36.640               
E15  25590127.240 6 134476868.207 6       102.679 6        36.373               
E21  27962260.445 6 147384739.561 6     -2062.636 6        37.297               
E27  25634202.829 7 134707648.819 7      -395.581 7        43.037               
E30  28045473.662 6 146801974.578 6      2711.753 6        38.625               
E34  27655072.910 6 145327388.391 6     -2504.164 6        39.084               
> 2025 01 08 17 43 54.0000000  0  6                                             
E13  27978448.422 6 147414812.199 6     -2474.138 6        36.659               
E15  25590108.120 6 134476766.184 6        99.633 6        36.198               
E21  27961866.737 6 147386803.479 6     -2064.433 6        37.535               
E27  25634279.648 7 134708044.908 7      -396.411 7        42.841               
E30  28045993.650 6 146799261.917 6      2711.974 6        38.259               
E34  27655550.048 6 145329892.475 6     -2503.986 6        39.071               
> 2025 01 08 17 43 55.0000000  0  6                                             
E13  27977980.700 6 147417285.805 6     -2474.925 6        36.225               
E15  25590091.716 6 134476663.849 6       101.446 6        36.235               
E21  27961474.279 6 147388867.992 6     -2063.594 6        37.570               
E27  25634358.468 7 134708440.615 7      -396.191 7        42.802               
E30  28046506.598 6 146796549.799 6      2709.813 6        38.342               
E34  27656029.206 6 145332396.015 6     -2500.781 6        38.983               
> 2025 01 08 17 43 56.0000000  0  6                                             
E13  27977514.587 6 147419758.564 6     -2471.961 6        36.439               
E15  25590073.561 5 134476562.516 5        99.505 5        35.944               
E21  27961083.269 6 147390931.702 6     -2062.827 6        37.507               
E27  25634434.251 7 134708837.294 7      -397.825 7        42.657               
E30  28047025.693 6 146793836.828 6      2711.969 6        38.207               
E34  27656507.185 6 145334900.419 6     -2506.094 6        39.008               
> 2025 01 08 17 43 57.0000000  0  6                                             
E13  27977045.971 6 147422230.260 6     -2469.906 6        36.656               
E15  25590053.923 5 134476462.438 5        99.211 5        35.654               
E21  27960696.959 6 147392994.475 6     -2062.335 6        37.875               
E27  25634511.892 7 134709235.194 7      -397.754 7        42.615               
E30  28047542.126 6 146791122.825 6      2714.010 6        38.183               
E34  27656984.180 6 145337405.867 6     -2504.340 6        38.946               
> 2025 01 08 17 43 58.0000000  0  6                                             
E13  27976574.086 6 147424702.744 6     -2474.190 6        36.824               
E15  25590038.895 5 134476361.857 5       102.080 5        35.553               
E21  27960303.733 6 147395057.972 6     -2062.476 6        37.609               
E27  25634585.816 7 134709632.500 7      -397.141 7        42.935               
E30  28048069.298 6 146788409.511 6      2712.226 6        38.189               
E34  27657466.680 6 145339910.625 6     -2506.286 6        38.685               
> 2025 01 08 17 43 59.0000000  0  6                                             
E13  27976105.096 6 147427174.922 6     -2470.590 6        36.674               
E15  25590018.382 5 134476261.727 5        95.681 5        35.365               
E21  27959908.613 6 147397121.268 6     -2062.756 6        37.336               
E27  25634666.280 7 134710030.225 7      -398.493 7        42.643               
E30  28048584.247 6 146785695.981 6      2715.620 6        37.879               
E34  27657944.783 6 145342415.618 6     -2504.637 6        38.589               
> 2025 01 08 17 44 00.0000000  0  6                                             
E13  27975637.714 6 147429646.322 6     -2473.377 6        36.357               
E15  25590004.926 5 134476162.597 5       101.797 5        35.317               
E21  27959519.498 6 147399183.852 6     -2063.706 6        37.351               
E27  25634744.814 7 134710428.894 7      -398.601 7        42.953               
E30  28049099.179 6 146782981.665 6      2712.755 6        37.847               
E34  27658421.457 6 145344921.419 6     -2507.567 6        38.732               
> 2025 01 08 17 44 01.0000000  0  6                                             
E13  27975169.081 6 147432119.152 6     -2470.998 6        36.363               
E15  25589987.897 5 134476062.228 5       101.806 5        35.448               
E21  27959124.020 6 147401247.923 6     -2061.890 6        37.477               
E27  25634822.276 7 134710826.257 7      -396.786 7        42.697               
E30  28049616.684 6 146780268.757 6      2713.554 6        38.206               
E34  27658899.847 6 145347425.781 6     -2506.101 6        39.176               
> 2025 01 08 17 44 02.0000000  0  6                                             
E13  27974705.540 6 147434590.442 6     -2471.686 6        36.406               
E15  25589971.100 5 134475963.615 5        96.975 5        35.334               
E21  27958742.785 6 147403310.482 6     -2063.025 6        37.651               
E27  25634900.042 7 134711225.352 7      -398.290 7        42.458               
E30  28050137.780 6 146777554.330 6      2715.020 6        38.296               
E34  27659382.096 6 145349931.743 6     -2506.615 6        38.893               
> 2025 01 08 17 44 03.0000000  0  6                                             
E13  27974231.386 6 147437062.443 6     -2472.604 6        36.440               
E15  25589955.376 5 134475864.478 5       101.330 5        35.250               
E21  27958346.646 6 147405373.835 6     -2065.142 6        37.692               
E27  25634975.736 7 134711623.855 7      -397.226 7        42.540               
E30  28050652.730 6 146774840.599 6      2712.417 6        38.073               
E34  27659860.664 6 145352436.953 6     -2502.577 6        38.900               
> 2025 01 08 17 44 04.0000000  0  6                                             
E13  27973761.681 6 147439534.298 6     -2472.245 6        36.140               
E15  25589938.632 5 134475765.675 5        99.266 5        35.113               
E21  27957952.277 6 147407437.091 6     -2064.244 6        37.442               
E27  25635054.449 7 134712022.638 7      -399.248 7        42.609               
E30  28051174.416 6 146772126.769 6      2713.657 6        38.220               
E34  27660335.122 6 145354942.301 6     -2504.058 6        39.010               
> 2025 01 08 17 44 05.0000000  0  6                                             
E13  27973293.119 6 147442005.937 6     -2472.202 6        36.205               
E15  25589919.691 5 134475667.312 5        97.148 5        35.008               
E21  27957561.053 6 147409500.161 6     -2064.458 6        37.322               
E27  25635134.287 7 134712421.834 7      -399.413 7        42.600               
E30  28051690.866 6 146769412.646 6      2714.310 6        38.581               
E34  27660813.244 6 145357447.921 6     -2506.657 6        38.909               
> 2025 01 08 17 44 06.0000000  0  6                                             
E13  27972831.509 6 147444477.219 6     -2469.240 6        36.641               
E15  25589903.001 5 134475569.499 5        96.079 5        34.920               
E21  27957178.155 6 147411562.929 6     -2063.444 6        37.192               
E27  25635209.659 7 134712821.491 7      -400.871 7        42.728               
E30  28052207.174 6 146766698.267 6      2714.695 6        38.412               
E34  27661289.668 6 145359953.869 6     -2508.060 6        38.628               
> 2025 01 08 17 44 07.0000000  0  6                                             
E13  27972358.426 6 147446947.804 6     -2469.185 6        36.530               
E15  25589886.419 5 134475472.586 5        93.455 5        34.849               
E21  27956783.929 6 147413625.074 6     -2062.181 6        37.043               
E27  25635288.158 7 134713222.022 7      -401.301 7        42.629               
E30  28052730.576 6 146763983.107 6      2718.103 6        38.170               
E34  27661771.184 6 145362460.543 6     -2504.974 6        38.348               
> 2025 01 08 17 44 08.0000000  0  6                                             
E13  27971891.670 6 147449417.426 6     -2469.709 6        36.469               
E15  25589871.623 5 134475376.862 5        94.834 5        34.534               
E21  27956396.511 6 147415686.293 6     -2061.429 6        37.088               
E27  25635366.406 7 134713623.670 7      -401.062 7        42.731               
E30  28053247.705 6 146761267.022 6      2714.252 6        38.191               
E34  27662251.361 6 145364968.185 6     -2508.915 6        38.551               
> 2025 01 08 17 44 09.0000000  0  6                                             
E13  27971419.177 6 147451887.324 6     -2470.975 6        36.280               
E15  25589851.968 5 134475281.048 5        97.891 5        34.356               
E21  27956007.055 6 147417747.834 6     -2062.728 6        37.384               
E27  25635445.119 7 134714025.206 7      -399.758 7        42.715               
E30  28053762.172 6 146758551.208 6      2716.025 6        38.017               
E34  27662730.000 6 145367475.566 6     -2505.956 6        38.333               
> 2025 01 08 17 44 10.0000000  0  6                                             
E13  27970956.530 6 147454357.835 6     -2472.404 6        36.322               
E15  25589838.727 5 134475184.814 5        97.053 5        34.480               
E21  27955616.492 6 147419810.045 6     -2062.209 6        37.343               
E27  25635524.994 7 134714426.260 7      -400.953 7        42.478               
E30  28054285.145 6 146755835.974 6      2715.384 6        37.708               
E34  27663206.621 6 145369982.330 6     -2504.285 6        38.475               
> 2025 01 08 17 44 11.0000000  0  6                                             
E13  27970483.662 6 147456828.674 6     -2470.171 6        36.229               
E15  25589821.554 5 134475088.468 5        93.766 5        34.458               
E21  27955223.409 6 147421872.633 6     -2060.615 6        37.599               
E27  25635600.580 7 134714827.136 7      -402.509 7        42.582               
E30  28054800.452 6 146753121.122 6      2715.218 6        38.019               
E34  27663689.871 6 145372488.802 6     -2506.014 6        38.141               
> 2025 01 08 17 44 12.0000000  0  6                                             
E13  27970018.764 6 147459298.248 6     -2468.420 6        36.639               
E15  25589803.989 5 134474993.583 5        94.432 5        34.444               
E21  27954830.201 6 147423934.008 6     -2060.477 6        37.625               
E27  25635681.276 7 134715229.435 7      -402.540 7        42.394               
E30  28055320.887 6 146750404.954 6      2716.185 6        37.810               
E34  27664166.187 6 145374996.519 6     -2507.487 6        38.212               
> 2025 01 08 17 44 13.0000000  0  6                                             
E13  27969548.094 6 147461766.919 6     -2469.008 6        36.608               
E15  25589789.640 5 134474899.766 5        91.413 5        34.318               
E21  27954439.531 6 147425994.555 6     -2060.913 6        37.842               
E27  25635757.094 7 134715632.739 7      -403.761 7        42.681               
E30  28055841.698 6 146747687.972 6      2716.222 6        38.083               
E34  27664643.308 6 145377505.121 6     -2510.104 6        38.359               
> 2025 01 08 17 44 14.0000000  0  6                                             
E13  27969082.856 6 147464235.583 6     -2467.855 6        36.663               
E15  25589772.647 5 134474806.185 5        95.824 5        33.945               
E21  27954053.399 6 147428055.142 6     -2060.268 6        38.027               
E27  25635835.468 7 134716036.246 7      -402.938 7        42.464               
E30  28056362.919 6 146744970.928 6      2717.419 6        38.006               
E34  27665123.931 6 145380013.747 6     -2507.856 6        38.631               
> 2025 01 08 17 44 15.0000000  0  6                                             
E13  27968614.008 6 147466704.500 6     -2469.656 6        36.877               
E15  25589760.621 5 134474712.577 5        91.541 5        33.851               
E21  27953661.835 6 147430116.027 6     -2061.834 6        37.751               
E27  25635915.253 7 134716439.652 7      -403.473 7        42.323               
E30  28056875.420 6 146742254.145 6      2717.125 6        37.844               
E34  27665604.447 6 145382522.146 6     -2508.727 6        38.563               
> 2025 01 08 17 44 16.0000000  0  6                                             
E13  27968144.643 6 147469173.475 6     -2468.264 6        36.931               
E15  25589741.037 5 134474619.099 5        89.810 5        33.746               
E21  27953266.358 6 147432177.033 6     -2058.696 6        37.885               
E27  25635991.429 7 134716843.151 7      -405.628 7        42.587               
E30  28057398.054 6 146739537.408 6      2716.224 6        37.930               
E34  27666086.107 6 145385030.509 6     -2511.832 6        38.491               
> 2025 01 08 17 44 17.0000000  0  6                                             
E13  27967676.653 6 147471641.253 6     -2468.889 6        36.707               
E15  25589724.061 5 134474527.002 5        94.582 5        33.568               
E21  27952881.978 6 147434236.861 6     -2059.913 6        37.834               
E27  25636072.161 7 134717248.006 7      -404.505 7        42.435               
E30  28057915.112 6 146736819.490 6      2717.670 6        37.931               
E34  27666567.802 6 145387540.083 6     -2510.065 6        38.774               
> 2025 01 08 17 44 18.0000000  0  6                                             
E13  27967210.897 6 147474109.032 6     -2467.767 6        36.699               
E15  25589710.248 5 134474435.105 5        94.621 5        33.677               
E21  27952491.647 6 147436296.783 6     -2058.908 6        38.329               
E27  25636150.928 7 134717652.968 7      -405.507 7        42.162               
E30  28058434.207 6 146734101.602 6      2715.539 6        38.011               
E34  27667042.421 6 145390049.608 6     -2507.834 6        38.640               
> 2025 01 08 17 44 19.0000000  0  6                                             
E13  27966741.299 6 147476576.248 6     -2465.839 6        37.225               
E15  25589694.720 5 134474343.982 5        88.393 5        33.436               
E21  27952103.621 6 147438356.171 6     -2058.938 6        38.180               
E27  25636229.069 6 134718058.667 6      -406.032 6        41.881               
E30  28058955.339 6 146731383.112 6      2717.310 6        37.857               
E34  27667521.918 6 145392559.719 6     -2510.495 6        38.443               
> 2025 01 08 17 44 20.0000000  0  6                                             
E13  27966273.506 6 147479042.818 6     -2466.547 6        37.148               
E15  25589676.494 5 134474253.721 5        91.124 5        33.239               
E21  27951712.021 6 147440414.957 6     -2059.654 6        38.424               
E27  25636310.301 6 134718465.178 6      -406.739 6        41.707               
E30  28059473.862 6 146728664.007 6      2719.172 6        37.970               
E34  27668001.577 6 145395070.509 6     -2510.600 6        39.009               
> 2025 01 08 17 44 21.0000000  0  6                                             
E13  27965804.176 6 147481510.374 6     -2468.630 6        36.951               
E15  25589661.216 5 134474162.679 5        88.907 5        33.150               
E21  27951325.675 6 147442474.805 6     -2060.868 6        38.424               
E27  25636386.173 6 134718870.848 6      -405.161 6        41.648               
E30  28059990.188 6 146725945.862 6      2717.151 6        38.149               
E34  27668479.484 6 145397580.314 6     -2509.524 6        39.031               
> 2025 01 08 17 44 22.0000000  0  6                                             
E13  27965341.922 6 147483978.322 6     -2467.850 6        37.047               
E15  25589646.742 5 134474071.422 5        91.243 5        33.065               
E21  27950934.665 6 147444535.082 6     -2059.347 6        38.261               
E27  25636466.495 6 134719276.260 6      -405.455 6        41.654               
E30  28060506.674 6 146723228.133 6      2718.154 6        38.015               
E34  27668959.303 6 145400089.709 6     -2506.625 6        38.945               
> 2025 01 08 17 44 23.0000000  0  6                                             
E13  27964877.578 6 147486445.647 6     -2468.474 6        36.930               
E15  25589630.946 5 134473980.988 5        87.480 5        32.851               
E21  27950543.208 6 147446594.811 6     -2060.217 6        38.107               
E27  25636545.351 6 134719682.449 6      -407.418 6        41.571               
E30  28061026.287 6 146720509.762 6      2717.927 6        37.869               
E34  27669447.306 6 145402599.768 6     -2514.108 6        39.471               
> 2025 01 08 17 44 24.0000000  0  6                                             
E13  27964409.838 6 147488912.021 6     -2467.519 6        37.021               
E15  25589614.167 5 134473891.736 5        90.440 5        32.693               
E21  27950153.199 6 147448653.598 6     -2058.271 6        38.124               
E27  25636625.725 6 134720089.756 6      -406.710 6        41.707               
E30  28061549.760 6 146717790.420 6      2719.258 6        37.953               
E34  27669919.137 6 145405110.762 6     -2509.687 6        39.045               
> 2025 01 08 17 44 25.0000000  0  6                                             
E13  27963933.700 6 147491378.038 6     -2465.668 6        37.083               
E15  25589602.480 5 134473803.007 5        88.562 5        32.691               
E21  27949757.436 6 147450712.123 6     -2058.099 6        38.126               
E27  25636704.849 6 134720497.544 6      -407.332 6        41.843               
E30  28062067.837 6 146715070.806 6      2719.518 6        37.775               
E34  27670399.957 6 145407622.104 6     -2510.742 6        38.955               
> 2025 01 08 17 44 26.0000000  0  6                                             
E13  27963472.000 6 147493843.499 6     -2465.720 6        37.510               
E15  25589585.058 5 134473715.058 5        90.450 5        32.398               
E21  27949373.967 6 147452770.110 6     -2056.081 6        38.068               
E27  25636783.938 6 134720906.068 6      -407.215 6        41.748               
E30  28062587.986 6 146712350.568 6      2719.550 6        37.801               
E34  27670877.292 6 145410134.041 6     -2513.250 6        38.911               
> 2025 01 08 17 44 27.0000000  0  6                                             
E13  27963000.312 6 147496308.549 6     -2464.540 6        37.469               
E15  25589572.317 5 134473627.712 5        88.983 5        32.308               
E21  27948980.902 6 147454827.777 6     -2058.475 6        37.906               
E27  25636862.186 6 134721315.131 6      -408.450 6        41.738               
E30  28063108.243 6 146709629.929 6      2719.297 6        37.747               
E34  27671355.253 6 145412646.358 6     -2513.247 6        38.735               
> 2025 01 08 17 44 28.0000000  0  6                                             
E13  27962529.874 6 147498773.727 6     -2464.842 6        37.622               
E15  25589559.237 5 134473540.453 5        85.002 5        32.262               
E21  27948593.108 6 147456885.591 6     -2057.353 6        38.035               
E27  25636944.848 6 134721724.232 6      -408.319 6        41.879               
E30  28063626.480 6 146706909.450 6      2719.143 6        37.894               
E34  27671838.092 6 145415158.587 6     -2511.684 6        38.491               
> 2025 01 08 17 44 29.0000000  0  6                                             
E13  27962066.369 6 147501239.144 6     -2464.749 6        37.765               
E15  25589542.994 5 134473453.107 5        84.964 5        32.146               
E21  27948203.296 6 147458943.754 6     -2059.675 6        38.227               
E27  25637023.436 6 134722133.209 6      -409.082 6        41.820               
E30  28064146.576 6 146704189.213 6      2718.512 6        38.100               
E34  27672319.376 6 145417670.540 6     -2514.294 6        38.756               
> 2025 01 08 17 44 30.0000000  0  6                                             
E13  27961600.721 6 147503704.770 6     -2465.675 6        37.055               
E15  25589527.680 5 134473365.802 5        86.111 5        32.176               
E21  27947809.909 6 147461002.109 6     -2058.855 6        37.982               
E27  25637101.649 6 134722542.153 6      -409.502 6        41.756               
E30  28064667.655 6 146701469.169 6      2721.379 6        38.030               
E34  27672793.227 6 145420182.345 6     -2509.402 6        38.837               
> 2025 01 08 17 44 31.0000000  0  6                                             
E13  27961134.571 6 147506169.709 6     -2464.559 6        37.048               
E15  25589512.670 5 134473279.372 5        83.834 5        32.140               
E21  27947422.419 6 147463059.866 6     -2056.948 6        38.276               
E27  25637181.256 6 134722951.931 6      -410.073 6        41.735               
E30  28065186.893 6 146698748.441 6      2721.829 6        37.740               
E34  27673277.298 6 145422694.809 6     -2511.905 6        38.689               
> 2025 01 08 17 44 32.0000000  0  6                                             
E13  27960665.277 6 147508634.114 6     -2463.471 6        36.944               
E15  25589496.195 5 134473193.684 5        88.512 5        32.220               
E21  27947032.374 6 147465117.110 6     -2057.062 6        38.308               
E27  25637263.060 6 134723362.408 6      -411.190 6        41.637               
E30  28065704.826 6 146696027.190 6      2720.678 6        37.624               
E34  27673756.438 6 145425207.823 6     -2512.980 6        38.703               
> 2025 01 08 17 44 33.0000000  0  6                                             
E13  27960198.020 6 147511098.098 6     -2464.949 6        37.076               
E15  25589481.489 5 134473108.624 5        83.622 5        32.140               
E21  27946648.101 6 147467173.994 6     -2056.480 6        38.679               
E27  25637342.845 6 134723773.449 6      -411.037 6        41.674               
E30  28066225.333 6 146693305.519 6      2719.325 6        37.749               
E34  27674234.506 6 145427721.257 6     -2513.538 6        38.775               
> 2025 01 08 17 44 34.0000000  0  6                                             
E13  27959735.659 6 147513562.059 6     -2462.714 6        36.691               
E15  25589468.445 5 134473023.768 5        82.465 5        31.845               
E21  27946256.966 6 147469230.941 6     -2056.298 6        38.490               
E27  25637421.540 6 134724184.642 6      -412.139 6        41.781               
E30  28066748.091 6 146690583.820 6      2723.724 6        37.690               
E34  27674718.935 6 145430234.720 6     -2514.622 6        38.669               
> 2025 01 08 17 44 35.0000000  0  6                                             
E13  27959265.543 6 147516024.745 6     -2464.184 6        36.949               
E15  25589457.652 5 134472940.383 5        81.835 5        31.822               
E21  27945860.363 6 147471286.639 6     -2055.660 6        38.254               
E27  25637501.075 6 134724597.272 6      -414.403 6        41.833               
E30  28067263.952 6 146687860.876 6      2723.219 6        37.546               
E34  27675198.004 6 145432749.479 6     -2515.191 6        38.848               
> 2025 01 08 17 44 36.0000000  0  6                                             
E13  27958799.340 6 147518487.447 6     -2463.834 6        37.049               
E15  25589439.765 5 134472857.195 5        85.722 5        31.608               
E21  27945479.324 6 147473342.395 6     -2056.519 6        37.965               
E27  25637581.861 6 134725010.058 6      -412.035 6        41.681               
E30  28067783.244 6 146685137.922 6      2721.109 6        37.786               
E34  27675680.271 6 145435264.228 6     -2514.265 6        38.691               
> 2025 01 08 17 44 37.0000000  0  6                                             
E13  27958335.460 6 147520950.624 6     -2462.415 6        36.949               
E15  25589425.434 5 134472773.726 5        87.284 5        31.506               
E21  27945083.453 6 147475398.709 6     -2056.321 6        38.201               
E27  25637661.932 6 134725422.489 6      -412.778 6        41.843               
E30  28068301.106 6 146682415.458 6      2724.066 6        37.728               
E34  27676158.660 6 145437778.471 6     -2515.359 6        39.034               
> 2025 01 08 17 44 38.0000000  0  6                                             
E13  27957866.774 6 147523413.579 6     -2464.452 6        36.899               
E15  25589413.926 5 134472690.735 5        82.489 5        31.320               
E21  27944700.181 6 147477454.808 6     -2056.494 6        38.589               
E27  25637743.075 6 134725835.332 6      -411.890 6        41.705               
E30  28068818.736 6 146679692.749 6      2725.573 6        37.783               
E34  27676636.710 6 145440292.996 6     -2514.128 6        38.866               
> 2025 01 08 17 44 39.0000000  0  6                                             
E13  27957396.533 6 147525876.223 6     -2464.164 6        36.698               
E15  25589400.793 5 134472608.179 5        80.591 5        31.177               
E21  27944305.758 6 147479510.687 6     -2056.783 6        38.550               
E27  25637824.147 6 134726248.593 6      -413.462 6        41.724               
E30  28069343.317 6 146676969.755 6      2721.913 6        37.648               
E34  27677116.815 6 145442807.797 6     -2515.276 6        38.880               
> 2025 01 08 17 44 40.0000000  0  6                                             
E13  27956926.953 6 147528338.916 6     -2464.636 6        36.620               
E15  25589384.228 5 134472525.782 5        80.277 5        31.194               
E21  27943917.321 6 147481566.676 6     -2056.465 6        38.244               
E27  25637903.897 6 134726661.966 6      -413.609 6        41.638               
E30  28069861.715 6 146674246.832 6      2722.905 6        37.475               
E34  27677598.546 6 145445322.554 6     -2512.703 6        38.651               
> 2025 01 08 17 44 41.0000000  0  6                                             
E13  27956463.913 6 147530801.809 6     -2461.843 6        36.411               
E15  25589369.021 5 134472443.400 5        80.825 5        31.319               
E21  27943527.437 6 147483622.885 6     -2055.502 6        38.197               
E27  25637984.236 6 134727075.280 6      -412.317 6        41.542               
E30  28070381.811 6 146671524.122 6      2721.857 6        37.557               
E34  27678075.453 6 145447837.113 6     -2512.367 6        38.551               
> 2025 01 08 17 44 42.0000000  0  6                                             
E13  27955996.852 6 147533264.183 6     -2461.660 6        36.620               
E15  25589356.728 5 134472361.738 5        82.419 5        31.173               
E21  27943139.286 6 147485678.654 6     -2054.547 6        38.424               
E27  25638064.771 6 134727489.283 6      -414.218 6        41.435               
E30  28070902.389 6 146668800.846 6      2723.075 6        37.242               
E34  27678556.951 6 145450352.207 6     -2515.691 6        38.658               
> 2025 01 08 17 44 43.0000000  0  6                                             
E13  27955529.416 6 147535726.196 6     -2462.351 6        36.590               
E15  25589344.273 5 134472280.636 5        78.771 5        30.941               
E21  27942750.938 6 147487734.102 6     -2054.325 6        38.345               
E27  25638145.218 6 134727903.772 6      -415.176 6        41.434               
E30  28071422.574 6 146666077.280 6      2723.628 6        37.384               
E34  27679041.452 6 145452867.650 6     -2514.958 6        38.749               
> 2025 01 08 17 44 44.0000000  0  6                                             
E13  27955059.229 6 147538188.160 6     -2461.794 6        36.732               
E15  25589328.441 5 134472199.812 5        78.539 5        31.016               
E21  27942360.643 6 147489789.523 6     -2056.934 6        38.415               
E27  25638227.129 6 134728318.522 6      -414.524 6        41.545               
E30  28071943.831 6 146663353.564 6      2722.887 6        37.436               
E34  27679519.448 6 145455383.196 6     -2514.483 6        38.995               
> 2025 01 08 17 44 45.0000000  0  6                                             
E13  27954595.617 6 147540649.578 6     -2461.007 6        36.790               
E15  25589319.471 5 134472119.687 5        81.581 5        30.894               
E21  27941973.439 6 147491844.505 6     -2056.433 6        38.598               
E27  25638306.950 6 134728733.894 6      -415.846 6        41.568               
E30  28072463.623 6 146660629.402 6      2722.493 6        37.171               
E34  27679998.642 6 145457899.239 6     -2516.657 6        38.548               
> 2025 01 08 17 44 46.0000000  0  6                                             
E13  27954132.791 6 147543110.647 6     -2460.659 6        36.912               
E15  25589304.371 5 134472040.153 5        79.906 5        30.850               
E21  27941585.110 6 147493899.137 6     -2053.676 6        38.574               
E27  25638387.897 6 134729149.817 6      -416.541 6        41.430               
E30  28072986.292 6 146657904.816 6      2725.564 6        37.493               
E34  27680481.749 6 145460415.646 6     -2516.551 6        38.200               
> 2025 01 08 17 44 47.0000000  0  6                                             
E13  27953665.105 6 147545571.322 6     -2460.793 6        36.969               
E15  25589288.736 5 134471961.164 5        77.196 5        30.734               
E21  27941191.670 6 147495953.498 6     -2054.329 6        38.620               
E27  25638467.789 6 134729566.220 6      -416.493 6        41.265               
E30  28073505.888 6 146655179.922 6      2724.271 6        37.653               
E34  27680957.333 6 145462932.444 6     -2515.809 6        38.537               
> 2025 01 08 17 44 48.0000000  0  6                                             
E13  27953196.240 6 147548032.101 6     -2460.766 6        36.672               
E15  25589279.515 5 134471882.324 5        77.367 5        30.684               
E21  27940806.324 6 147498007.963 6     -2053.191 6        38.620               
E27  25638550.469 6 134729982.730 6      -418.435 6        41.025               
E30  28074026.931 6 146652455.093 6      2724.424 6        37.532               
E34  27681437.831 6 145465449.166 6     -2515.924 6        38.511               
> 2025 01 08 17 44 49.0000000  0  6                                             
E13  27952729.305 6 147550492.495 6     -2459.738 6        36.252               
E15  25589262.093 5 134471804.011 5        79.216 5        30.763               
E21  27940416.029 6 147500062.120 6     -2053.946 6        38.392               
E27  25638628.039 6 134730399.738 6      -418.087 6        41.003               
E30  28074545.883 6 146649729.906 6      2725.998 6        37.537               
E34  27681924.387 6 145467966.264 6     -2517.532 6        38.615               
> 2025 01 08 17 44 50.0000000  0  6                                             
E13  27952259.617 6 147552952.449 6     -2458.997 6        36.224               
E15  25589250.210 5 134471726.375 5        74.517 5        30.673               
E21  27940030.112 6 147502115.878 6     -2053.261 6        38.211               
E27  25638711.434 6 134730817.344 6      -419.344 6        40.986               
E30  28075070.160 6 146647004.246 6      2725.950 6        37.507               
E34  27682400.971 6 145470483.797 6     -2519.356 6        38.765               
> 2025 01 08 17 44 51.0000000  0  6                                             
E13  27951800.276 6 147555412.140 6     -2459.478 6        36.245               
E15  25589238.167 5 134471649.213 5        77.360 5        30.532               
E21  27939640.478 6 147504169.401 6     -2051.669 6        38.177               
E27  25638794.685 6 134731235.397 6      -418.425 6        41.234               
E30  28075586.879 6 146644278.351 6      2727.030 6        37.540               
E34  27682881.880 6 145473001.628 6     -2518.478 6        38.908               
> 2025 01 08 17 44 52.0000000  0  6                                             
E13  27951330.249 6 147557871.712 6     -2459.113 6        36.415               
E15  25589225.104 5 134471572.355 5        78.286 5        30.448               
E21  27939249.771 6 147506222.876 6     -2052.549 6        38.363               
E27  25638873.684 6 134731653.708 6      -419.265 6        41.290               
E30  28076108.618 6 146641552.325 6      2725.885 6        37.277               
E34  27683360.216 6 145475519.569 6     -2520.147 6        39.083               
> 2025 01 08 17 44 53.0000000  0  6                                             
E13  27950864.029 6 147560330.864 6     -2461.060 6        36.475               
E15  25589212.936 5 134471496.082 5        78.144 5        30.290               
E21  27938858.154 6 147508276.010 6     -2053.564 6        38.405               
E27  25638955.435 6 134732072.536 6      -418.527 6        41.340               
E30  28076625.247 6 146638825.926 6      2725.879 6        37.117               
E34  27683847.469 6 145478037.887 6     -2518.723 6        38.891               
> 2025 01 08 17 44 54.0000000  0  6                                             
E13  27950396.950 6 147562789.925 6     -2459.293 6        36.402               
E15  25589201.053 5 134471420.156 5        79.223 5        30.161               
E21  27938474.041 6 147510329.055 6     -2053.474 6        38.420               
E27  25639036.221 6 134732491.662 6      -419.275 6        41.552               
E30  28077150.507 6 146636099.381 6      2725.481 6        37.349               
E34  27684321.891 6 145480556.342 6     -2517.145 6        38.894               
> 2025 01 08 17 44 55.0000000  0  6                                             
E13  27949932.606 6 147565248.809 6     -2459.195 6        36.485               
E15  25589189.545 5 134471344.601 5        73.680 5        30.120               
E21  27938081.888 6 147512382.004 6     -2051.481 6        38.104               
E27  25639119.973 6 134732911.087 6      -420.166 6        41.485               
E30  28077671.193 6 146633372.704 6      2726.628 6        37.324               
E34  27684803.783 6 145483074.974 6     -2515.963 6        38.917               
> 2025 01 08 17 44 56.0000000  0  6                                             
E13  27949465.170 6 147567707.256 6     -2457.264 6        36.488               
E15  25589174.142 4 134471269.637 4        72.263 4        29.918               
E21  27937695.220 6 147514434.567 6     -2052.125 6        38.098               
E27  25639201.599 6 134733331.109 6      -419.636 6        41.454               
E30  28078193.612 6 146630645.604 6      2726.817 6        37.548               
E34  27685289.678 6 145485594.058 6     -2518.809 6        38.761               
> 2025 01 08 17 44 57.0000000  0  6                                             
E13  27948999.646 6 147570165.188 6     -2459.129 6        36.452               
E15  25589160.883 4 134471195.417 4        76.157 4        29.920               
E21  27937301.154 6 147516486.688 6     -2052.298 6        38.093               
E27  25639282.420 6 134733751.791 6      -421.011 6        41.373               
E30  28078709.633 6 146627917.966 6      2729.215 6        37.650               
E34  27685772.999 6 145488113.641 6     -2519.792 6        38.652               
> 2025 01 08 17 44 58.0000000  0  6                                             
E13  27948533.569 6 147572623.101 6     -2458.684 6        36.668               
E15  25589148.571 4 134471121.439 4        72.561 4        29.892               
E21  27936919.597 6 147518538.793 6     -2051.115 6        37.973               
E27  25639366.583 6 134734172.655 6      -419.804 6        41.283               
E30  28079230.748 6 146625190.316 6      2725.366 6        37.656               
E34  27686247.421 6 145490633.262 6     -2520.126 6        38.932               
> 2025 01 08 17 44 59.0000000  0  6                                             
E13  27948069.850 6 147575081.163 6     -2454.434 6        36.867               
E15  25589136.813 4 134471047.458 4        71.638 4        29.888               
E21  27936526.890 6 147520591.151 6     -2052.428 6        38.029               
E27  25639446.011 6 134734593.503 6      -421.444 6        41.237               
E30  28079747.752 6 146622462.831 6      2727.749 6        37.587               
E34  27686727.848 6 145493152.692 6     -2519.471 6        38.749               
> 2025 01 08 17 45 00.0000000  0  6                                             
E13  27947601.538 6 147577539.023 6     -2457.162 6        36.556               
E15  25589127.807 4 134470973.958 4        70.715 4        29.942               
E21  27936139.150 6 147522643.298 6     -2052.352 6        37.620               
E27  25639528.244 6 134735014.729 6      -420.633 6        41.279               
E30  28080273.101 6 146619735.111 6      2728.743 6        37.494               
E34  27687214.582 6 145495672.401 6     -2521.443 6        39.306               
> 2025 01 08 17 45 01.0000000  0  6                                             
E13  27947134.424 6 147579996.505 6     -2456.404 6        36.565               
E15  25589112.708 4 134470900.918 4        76.047 4        29.905               
E21  27935753.465 6 147524695.178 6     -2050.154 6        37.831               
E27  25639608.584 6 134735436.423 6      -422.074 6        41.605               
E30  28080794.680 6 146617007.070 6      2728.567 6        37.563               
E34  27687694.151 6 145498192.411 6     -2520.204 6        39.266               
> 2025 01 08 17 45 02.0000000  0  6                                             
E13  27946672.385 6 147582453.939 6     -2457.767 6        36.695               
E15  25589100.504 4 134470828.241 4        69.100 4        29.990               
E21  27935364.117 6 147526747.024 6     -2050.451 6        38.093               
E27  25639693.211 6 134735858.393 6      -422.309 6        41.699               
E30  28081313.025 6 146614278.952 6      2727.174 6        37.582               
E34  27688176.275 6 145500712.557 6     -2521.312 6        39.434               
> 2025 01 08 17 45 03.0000000  0  6                                             
E13  27946209.148 6 147584910.906 6     -2456.961 6        36.435               
E15  25589089.800 4 134470756.166 4        75.503 4        29.867               
E21  27934970.641 6 147528798.486 6     -2050.180 6        37.748               
E27  25639775.337 6 134736280.918 6      -422.978 6        41.802               
E30  28081834.479 6 146611550.421 6      2729.261 6        37.888               
E34  27688657.988 6 145503233.080 6     -2520.839 6        38.892               
> 2025 01 08 17 45 04.0000000  0  6                                             
E13  27945739.586 6 147587367.457 6     -2454.124 6        36.351               
E15  25589079.043 5 134470684.718 5        72.784 5        30.023               
E21  27934582.633 6 147530849.554 6     -2050.977 6        37.860               
E27  25639858.428 6 134736704.038 6      -423.043 6        41.649               
E30  28082358.023 6 146608821.425 6      2728.454 6        37.743               
E34  27689143.168 6 145505754.093 6     -2522.415 6        38.602               
> 2025 01 08 17 45 05.0000000  0  6                                             
E13  27945272.508 6 147589823.275 6     -2454.258 6        36.605               
E15  25589067.035 4 134470614.212 4        68.994 4        29.725               
E21  27934195.947 6 147532899.960 6     -2050.305 6        37.908               
E27  25639940.644 6 134737128.030 6      -425.266 6        41.336               
E30  28082879.280 6 146606091.727 6      2729.775 6        37.716               
E34  27689617.930 6 145508275.810 6     -2524.465 6        38.525               
> 2025 01 08 17 45 06.0000000  0  5                                             
E13  27944806.019 6 147592278.796 6     -2456.282 6        36.691               
E21  27933808.297 6 147534950.105 6     -2050.207 6        37.996               
E27  25640022.627 6 134737552.457 6      -424.157 6        41.507               
E30  28083403.164 6 146603361.735 6      2727.351 6        38.044               
E34  27690100.644 6 145510797.832 6     -2522.610 6        38.584               
> 2025 01 08 17 45 07.0000000  0  5                                             
E13  27944346.606 6 147594734.760 6     -2456.725 6        37.000               
E21  27933418.752 6 147537000.740 6     -2051.344 6        37.991               
E27  25640105.432 6 134737976.626 6      -423.161 6        41.276               
E30  28083919.258 6 146600632.175 6      2730.246 6        38.093               
E34  27690581.482 6 145513319.424 6     -2520.522 6        38.167               
> 2025 01 08 17 45 08.0000000  0  5                                             
E13  27943881.172 6 147597190.525 6     -2454.837 6        37.159               
E21  27933031.369 6 147539051.286 6     -2051.633 6        38.027               
E27  25640186.611 6 134738401.097 6      -424.546 6        41.207               
E30  28084446.912 6 146597902.443 6      2729.888 6        37.689               
E34  27691059.406 6 145515841.167 6     -2520.460 6        38.313               
> 2025 01 08 17 45 09.0000000  0  5                                             
E13  27943416.113 6 147599646.005 6     -2456.003 6        36.897               
E21  27932640.270 6 147541101.556 6     -2051.275 6        38.098               
E27  25640270.202 6 134738826.042 6      -425.259 6        41.253               
E30  28084964.738 6 146595172.426 6      2729.529 6        38.062               
E34  27691540.369 6 145518363.241 6     -2522.585 6        38.302               
> 2025 01 08 17 45 10.0000000  0  5                                             
E13  27942951.590 6 147602101.130 6     -2452.905 6        36.718               
E21  27932249.171 6 147543151.529 6     -2049.731 6        38.227               
E27  25640355.366 6 134739251.459 6      -424.213 6        40.810               
E30  28085482.922 6 146592442.075 6      2731.206 6        37.972               
E34  27692021.082 6 145520885.672 6     -2523.492 6        38.150               
> 2025 01 08 17 45 11.0000000  0  5                                             
E13  27942483.475 6 147604555.956 6     -2458.103 6        36.776               
E21  27931867.613 6 147545201.222 6     -2050.902 6        38.073               
E27  25640433.829 6 134739677.347 6      -426.374 6        40.674               
E30  28086006.145 6 146589711.389 6      2730.995 6        38.198               
E34  27692509.585 6 145523408.418 6     -2521.183 6        38.364               
> 2025 01 08 17 45 12.0000000  0  5                                             
E13  27942021.525 6 147607010.534 6     -2454.875 6        36.845               
E21  27931483.144 6 147547250.702 6     -2048.406 6        38.165               
E27  25640518.528 6 134740103.664 6      -426.115 6        41.149               
E30  28086523.954 6 146586980.441 6      2731.226 6        38.202               
E34  27692988.385 6 145525931.406 6     -2521.206 6        38.265               
> 2025 01 08 17 45 13.0000000  0  5                                             
E13  27941554.947 6 147609464.953 6     -2453.704 6        37.256               
E21  27931090.775 6 147549300.143 6     -2049.999 6        37.984               
E27  25640600.922 6 134740530.244 6      -426.143 6        41.187               
E30  28087054.002 6 146584249.402 6      2730.519 6        37.927               
E34  27693473.440 6 145528454.547 6     -2525.635 6        38.129               
> 2025 01 08 17 45 14.0000000  0  5                                             
E13  27941091.907 6 147611919.304 6     -2454.836 6        37.180               
E21  27930699.962 6 147551349.547 6     -2049.318 6        37.621               
E27  25640684.352 6 134740957.047 6      -426.472 6        41.239               
E30  28087569.166 6 146581518.290 6      2731.772 6        37.978               
E34  27693951.579 6 145530977.745 6     -2523.828 6        38.085               
> 2025 01 08 17 45 15.0000000  0  5                                             
E13  27940624.882 6 147614373.633 6     -2453.345 6        37.136               
E21  27930307.183 6 147553399.011 6     -2050.389 6        37.707               
E27  25640767.586 6 134741383.992 6      -426.165 6        41.143               
E30  28088094.909 6 146578787.176 6      2731.208 6        37.906               
E34  27694432.774 6 145533500.932 6     -2520.726 6        38.234               
> 2025 01 08 17 45 16.0000000  0  5                                             
E13  27940157.500 6 147616827.839 6     -2454.567 6        37.114               
E21  27929922.606 6 147555448.327 6     -2047.715 6        37.886               
E27  25640851.374 6 134741811.273 6      -427.612 6        40.903               
E30  28088615.666 6 146576055.902 6      2730.782 6        38.204               
E34  27694920.706 6 145536024.320 6     -2523.568 6        37.966               
> 2025 01 08 17 45 17.0000000  0  5                                             
E13  27939696.640 6 147619281.696 6     -2454.274 6        36.950               
E21  27929538.029 6 147557497.393 6     -2049.131 6        37.991               
E27  25640933.572 6 134742239.019 6      -428.783 6        41.079               
E30  28089135.350 6 146573324.287 6      2731.531 6        38.027               
E34  27695397.987 6 145538548.033 6     -2524.652 6        37.733               
> 2025 01 08 17 45 18.0000000  0  5                                             
E13  27939230.205 6 147621735.462 6     -2453.113 6        37.127               
E21  27929148.198 6 147559546.423 6     -2048.547 6        38.155               
E27  25641018.324 6 134742666.971 6      -427.682 6        41.254               
E30  28089659.663 6 146570592.635 6      2732.020 6        38.093               
E34  27695882.452 6 145541071.785 6     -2524.575 6        37.926               
> 2025 01 08 17 45 19.0000000  0  5                                             
E13  27938765.163 6 147624189.167 6     -2453.234 6        37.024               
E21  27928759.208 6 147561595.435 6     -2048.187 6        38.129               
E27  25641099.700 6 134743095.195 6      -428.670 6        41.244               
E30  28090179.688 6 146567860.895 6      2732.040 6        38.381               
E34  27696365.005 6 145543595.675 6     -2525.814 6        37.809               
> 2025 01 08 17 45 20.0000000  0  5                                             
E13  27938300.015 6 147626642.484 6     -2452.967 6        37.057               
E21  27928370.681 6 147563644.135 6     -2050.883 6        38.031               
E27  25641182.362 6 134743523.935 6      -429.345 6        41.237               
E30  28090700.784 6 146565128.755 6      2731.498 6        38.453               
E34  27696845.610 6 145546119.917 6     -2524.525 6        37.994               
> 2025 01 08 17 45 21.0000000  0  5                                             
E13  27937834.991 6 147629095.542 6     -2452.091 6        36.840               
E21  27927986.033 6 147565692.561 6     -2047.904 6        37.898               
E27  25641269.295 6 134743953.087 6      -428.621 6        41.172               
E30  28091223.382 6 146562396.351 6      2733.730 6        38.396               
E34  27697323.160 6 145548644.446 6     -2525.453 6        37.887               
> 2025 01 08 17 45 22.0000000  0  5                                             
E13  27937366.180 6 147631548.438 6     -2454.080 6        36.721               
E21  27927599.276 6 147567740.947 6     -2046.683 6        38.214               
E27  25641350.617 6 134744382.525 6      -430.289 6        41.278               
E30  28091748.999 6 146559663.845 6      2734.068 6        38.027               
E34  27697811.360 6 145551169.097 6     -2526.568 6        37.784               
> 2025 01 08 17 45 23.0000000  0  5                                             
E13  27936904.140 6 147634001.110 6     -2453.168 6        36.859               
E21  27927206.747 6 147569789.144 6     -2049.984 6        38.238               
E27  25641435.191 6 134744812.347 6      -429.474 6        41.072               
E30  28092269.327 6 146556931.094 6      2733.074 6        38.139               
E34  27698289.410 6 145553693.975 6     -2525.370 6        37.913               
> 2025 01 08 17 45 24.0000000  0  5                                             
E13  27936436.973 6 147636453.349 6     -2450.184 6        36.611               
E21  27926820.758 6 147571836.950 6     -2048.812 6        38.081               
E27  25641517.799 6 134745242.754 6      -431.000 6        40.900               
E30  28092789.458 6 146554197.923 6      2732.811 6        37.786               
E34  27698775.536 6 145556219.295 6     -2524.161 6        38.051               
> 2025 01 08 17 45 25.0000000  0  5                                             
E13  27935977.953 6 147638905.340 6     -2453.324 6        37.043               
E21  27926428.408 6 147573884.577 6     -2048.394 6        38.034               
E27  25641603.070 6 134745673.560 6      -431.841 6        40.954               
E30  28093314.236 6 146551464.521 6      2733.812 6        37.896               
E34  27699260.109 6 145558744.875 6     -2526.800 6        38.001               
> 2025 01 08 17 45 26.0000000  0  5                                             
E13  27935507.676 6 147641357.272 6     -2452.653 6        36.927               
E21  27926044.081 6 147575932.148 6     -2046.811 6        37.713               
E27  25641686.268 6 134746104.597 6      -431.783 6        41.089               
E30  28093836.530 6 146548731.027 6      2732.530 6        37.938               
E34  27699739.945 6 145561270.526 6     -2527.252 6        37.837               
> 2025 01 08 17 45 27.0000000  0  5                                             
E13  27935039.454 6 147643808.906 6     -2451.434 6        36.906               
E21  27925659.861 6 147577979.528 6     -2048.134 6        37.569               
E27  25641771.397 6 134746536.049 6      -432.524 6        40.797               
E30  28094355.428 6 146545997.294 6      2733.709 6        38.187               
E34  27700222.731 6 145563796.452 6     -2528.185 6        37.969               
> 2025 01 08 17 45 28.0000000  0  5                                             
E13  27934577.308 6 147646259.727 6     -2449.480 6        37.229               
E21  27925270.013 6 147580026.141 6     -2046.933 6        37.927               
E27  25641854.934 6 134746968.452 6      -433.450 6        41.080               
E30  28094881.635 6 146543262.723 6      2734.673 6        38.299               
E34  27700703.157 6 145566323.192 6     -2528.781 6        37.687               
> 2025 01 08 17 45 29.0000000  0  5                                             
E13  27934115.644 6 147648709.970 6     -2450.584 6        37.413               
E21  27924878.663 6 147582072.189 6     -2045.795 6        38.105               
E27  25641940.974 6 134747401.605 6      -431.539 6        41.202               
E30  28095401.927 6 146540527.594 6      2735.624 6        38.047               
E34  27701185.800 6 145568850.515 6     -2526.550 6        38.014               
> 2025 01 08 17 45 30.0000000  0  5                                             
E13  27933650.102 6 147651161.177 6     -2451.048 6        37.489               
E21  27924490.405 6 147584119.279 6     -2046.188 6        38.406               
E27  25642022.724 6 134747833.952 6      -433.416 6        41.223               
E30  28095920.433 6 146537793.419 6      2735.198 6        38.221               
E34  27701669.014 6 145571376.877 6     -2527.741 6        37.952               
> 2025 01 08 17 45 31.0000000  0  5                                             
E13  27933183.327 6 147653612.050 6     -2450.614 6        37.204               
E21  27924105.346 6 147586166.087 6     -2046.531 6        38.267               
E27  25642105.654 6 134748266.787 6      -431.999 6        40.959               
E30  28096443.173 6 146535058.924 6      2733.232 6        38.483               
E34  27702143.561 6 145573903.589 6     -2528.034 6        37.941               
> 2025 01 08 17 45 32.0000000  0  5                                             
E13  27932719.698 6 147656062.575 6     -2449.157 6        37.369               
E21  27923715.068 6 147588212.572 6     -2046.097 6        38.248               
E27  25642192.623 6 134748700.096 6      -434.423 6        40.652               
E30  28096972.740 6 146532324.092 6      2737.350 6        38.413               
E34  27702634.924 6 145576430.620 6     -2525.367 6        37.664               
> 2025 01 08 17 45 33.0000000  0  5                                             
E13  27932254.192 6 147658512.284 6     -2446.682 6        37.269               
E21  27923329.794 6 147590258.340 6     -2044.957 6        38.401               
E27  25642276.125 6 134749134.369 6      -435.047 6        40.953               
E30  28097491.263 6 146529588.469 6      2736.279 6        38.333               
E34  27703115.851 6 145578958.469 6     -2528.697 6        37.840               
> 2025 01 08 17 45 34.0000000  0  5                                             
E13  27931788.632 6 147660961.513 6     -2447.763 6        37.126               
E21  27922942.340 6 147592303.661 6     -2046.549 6        38.568               
E27  25642360.074 6 134749569.267 6      -435.817 6        41.047               
E30  28098013.843 6 146526852.359 6      2736.647 6        38.590               
E34  27703602.049 6 145581486.806 6     -2530.370 6        37.901               
> 2025 01 08 17 45 35.0000000  0  5                                             
E13  27931325.253 6 147663410.899 6     -2450.460 6        37.071               
E21  27922557.852 6 147594349.170 6     -2045.248 6        38.498               
E27  25642446.703 6 134750004.175 6      -434.117 6        40.989               
E30  28098534.653 6 146524116.397 6      2735.670 6        38.418               
E34  27704083.512 6 145584014.988 6     -2528.999 6        38.058               
> 2025 01 08 17 45 36.0000000  0  5                                             
E13  27930865.072 6 147665860.085 6     -2448.003 6        37.217               
E21  27922168.433 6 147596394.564 6     -2044.331 6        38.502               
E27  25642529.150 6 134750439.410 6      -436.299 6        41.251               
E30  28099058.573 6 146521380.269 6      2737.084 6        38.665               
E34  27704571.032 6 145586543.335 6     -2528.450 6        38.096               
> 2025 01 08 17 45 37.0000000  0  5                                             
E13  27930400.263 6 147668309.012 6     -2448.721 6        37.341               
E21  27921781.765 6 147598439.704 6     -2046.226 6        38.424               
E27  25642610.973 6 134750875.101 6      -436.674 6        41.369               
E30  28099580.223 6 146518643.848 6      2736.521 6        38.289               
E34  27705051.548 6 145589072.001 6     -2527.306 6        38.227               
> 2025 01 08 17 45 38.0000000  0  5                                             
E13  27929934.864 6 147670757.763 6     -2450.425 6        37.558               
E21  27921393.024 6 147600484.737 6     -2043.822 6        38.468               
E27  25642695.922 6 134751311.071 6      -436.788 6        41.432               
E30  28100101.766 6 146515907.277 6      2735.361 6        38.092               
E34  27705531.868 6 145591600.821 6     -2528.557 6        38.264               
> 2025 01 08 17 45 39.0000000  0  5                                             
E13  27929471.610 6 147673206.383 6     -2448.511 6        37.524               
E21  27921007.071 6 147602529.711 6     -2045.013 6        38.428               
E27  25642783.998 6 134751747.337 6      -438.180 6        41.135               
E30  28100625.025 6 146513170.601 6      2737.293 6        38.380               
E34  27706019.227 6 145594129.732 6     -2531.465 6        38.420               
> 2025 01 08 17 45 40.0000000  0  5                                             
E13  27929007.283 6 147675654.750 6     -2447.868 6        37.554               
E21  27920618.938 6 147604574.464 6     -2044.410 6        38.661               
E27  25642868.251 6 134752184.015 6      -436.597 6        41.432               
E30  28101150.285 6 146510433.662 6      2736.398 6        38.467               
E34  27706501.226 6 145596658.941 6     -2528.555 6        38.560               
> 2025 01 08 17 45 41.0000000  0  5                                             
E13  27928542.867 6 147678102.622 6     -2449.074 6        37.611               
E21  27920233.003 6 147606618.779 6     -2046.131 6        38.624               
E27  25642952.271 6 134752621.327 6      -437.290 6        41.226               
E30  28101671.399 6 146507696.191 6      2740.449 6        38.450               
E34  27706984.726 6 145599188.626 6     -2529.310 6        38.751               
> 2025 01 08 17 45 42.0000000  0  5                                             
E13  27928079.345 6 147680550.621 6     -2448.643 6        37.848               
E21  27919845.424 6 147608663.284 6     -2044.638 6        38.554               
E27  25643038.596 6 134753058.649 6      -438.147 6        41.110               
E30  28102195.319 6 146504958.929 6      2736.424 6        38.536               
E34  27707466.493 6 145601718.177 6     -2528.864 6        38.759               
> 2025 01 08 17 45 43.0000000  0  5                                             
E13  27927613.660 6 147682999.258 6     -2447.671 6        37.938               
E21  27919456.791 6 147610708.475 6     -2045.326 6        38.496               
E27  25643122.724 6 134753495.488 6      -437.253 6        41.347               
E30  28102713.396 6 146502222.294 6      2735.940 6        38.323               
E34  27707950.476 6 145604247.082 6     -2528.621 6        38.502               
> 2025 01 08 17 45 44.0000000  0  5                                             
E13  27927148.583 6 147685447.271 6     -2447.543 6        37.813               
E21  27919072.357 6 147612753.080 6     -2045.116 6        38.519               
E27  25643208.137 6 134753933.108 6      -438.027 6        40.822               
E30  28103239.209 6 146499485.025 6      2739.272 6        38.276               
E34  27708429.830 6 145606776.646 6     -2529.669 6        38.134               
> 2025 01 08 17 45 45.0000000  0  5                                             
E13  27926685.775 6 147687894.792 6     -2447.866 6        37.891               
E21  27918682.991 6 147614797.241 6     -2042.354 6        38.661               
E27  25643291.925 6 134754371.373 6      -438.750 6        41.091               
E30  28103762.843 6 146496747.282 6      2737.804 6        38.197               
E34  27708914.456 6 145609306.664 6     -2528.614 6        38.278               
> 2025 01 08 17 45 46.0000000  0  5                                             
E13  27926222.539 6 147690342.135 6     -2449.847 6        38.193               
E21  27918298.020 6 147616841.300 6     -2043.061 6        38.702               
E27  25643379.626 6 134754809.941 6      -437.738 6        41.068               
E30  28104284.923 6 146494009.376 6      2735.851 6        38.086               
E34  27709399.421 6 145611836.884 6     -2529.600 6        38.108               
> 2025 01 08 17 45 47.0000000  0  5                                             
E13  27925757.837 6 147692789.241 6     -2447.392 6        38.274               
E21  27917906.313 6 147618885.183 6     -2043.212 6        38.730               
E27  25643462.432 6 134755248.909 6      -439.422 6        41.447               
E30  28104806.555 6 146491271.227 6      2739.515 6        38.252               
E34  27709882.331 6 145614367.309 6     -2530.016 6        37.940               
> 2025 01 08 17 45 48.0000000  0  5                                             
E13  27925293.850 6 147695236.112 6     -2445.975 6        37.910               
E21  27917523.470 6 147620928.819 6     -2043.792 6        38.853               
E27  25643547.810 6 134755688.283 6      -439.577 6        41.108               
E30  28105330.689 6 146488532.837 6      2739.584 6        38.221               
E34  27710364.259 6 145616897.995 6     -2530.594 6        37.992               
> 2025 01 08 17 45 49.0000000  0  5                                             
E13  27924827.272 6 147697682.879 6     -2446.754 6        37.777               
E21  27917136.534 6 147622972.443 6     -2043.693 6        38.578               
E27  25643636.708 6 134756127.889 6      -440.767 6        40.902               
E30  28105849.373 6 146485794.386 6      2739.271 6        38.051               
E34  27710850.261 6 145619428.778 6     -2530.866 6        38.370               
> 2025 01 08 17 45 50.0000000  0  5                                             
E13  27924368.074 6 147700129.255 6     -2445.162 6        37.607               
E21  27916751.778 6 147625015.748 6     -2042.321 6        38.548               
E27  25643719.513 6 134756568.012 6      -440.438 6        40.729               
E30  28106373.347 6 146483055.552 6      2739.811 6        37.986               
E34  27711328.525 6 145621959.933 6     -2530.434 6        38.559               
> 2025 01 08 17 45 51.0000000  0  5                                             
E13  27923903.854 6 147702575.670 6     -2446.999 6        37.490               
E21  27916363.609 6 147627059.102 6     -2042.006 6        38.714               
E27  25643804.570 6 134757008.287 6      -440.398 6        40.821               
E30  28106899.536 6 146480316.743 6      2739.184 6        37.878               
E34  27711817.529 6 145624491.068 6     -2529.277 6        38.709               
> 2025 01 08 17 45 52.0000000  0  5                                             
E13  27923434.435 6 147705021.991 6     -2446.190 6        37.483               
E21  27915979.032 6 147629102.448 6     -2042.399 6        38.688               
E27  25643890.555 6 134757448.764 6      -441.121 6        40.937               
E30  28107421.383 6 146477577.855 6      2739.747 6        37.896               
E34  27712299.438 6 145627022.266 6     -2531.780 6        38.512               
> 2025 01 08 17 45 53.0000000  0  5                                             
E13  27922978.114 6 147707466.915 6     -2447.198 6        37.908               
E21  27915586.146 6 147631144.439 6     -2041.727 6        38.911               
E27  25643976.631 6 134757890.810 6      -440.925 6        40.804               
E30  28107940.800 6 146474837.580 6      2742.211 6        38.040               
E34  27712785.154 6 145629554.882 6     -2533.708 6        38.669               
> 2025 01 08 17 45 54.0000000  0  5                                             
E13  27922512.018 6 147709911.459 6     -2444.717 6        37.463               
E21  27915203.213 6 147633186.050 6     -2040.619 6        38.994               
E27  25644062.152 6 134758333.419 6      -442.950 6        40.891               
E30  28108469.615 6 146472096.890 6      2742.468 6        37.953               
E34  27713269.208 6 145632087.904 6     -2533.419 6        38.813               
> 2025 01 08 17 45 55.0000000  0  5                                             
E13  27922050.622 6 147712355.934 6     -2443.938 6        37.581               
E21  27914817.260 6 147635227.749 6     -2040.871 6        38.855               
E27  25644146.368 6 134758776.147 6      -442.809 6        41.019               
E30  28108990.515 6 146469356.225 6      2741.769 6        38.120               
E34  27713753.852 6 145634620.908 6     -2530.944 6        38.702               
> 2025 01 08 17 45 56.0000000  0  5                                             
E13  27921584.813 6 147714800.891 6     -2447.160 6        37.514               
E21  27914429.573 6 147637269.886 6     -2041.258 6        38.609               
E27  25644233.980 6 134759218.623 6      -442.675 6        41.082               
E30  28109511.808 6 146466616.001 6      2740.280 6        38.188               
E34  27714236.512 6 145637153.504 6     -2532.402 6        38.728               
> 2025 01 08 17 45 57.0000000  0  5                                             
E13  27921121.951 6 147717246.481 6     -2444.386 6        37.663               
E21  27914044.514 6 147639312.772 6     -2043.737 6        38.911               
E27  25644320.842 6 134759660.603 6      -442.423 6        41.178               
E30  28110035.335 6 146463876.428 6      2741.406 6        38.345               
E34  27714722.460 6 145639685.417 6     -2532.850 6        38.636               
> 2025 01 08 17 45 58.0000000  0  5                                             
E13  27920658.143 6 147719691.012 6     -2443.978 6        37.881               
E21  27913659.830 6 147641354.585 6     -2040.861 6        38.695               
E27  25644407.095 6 134760103.794 6      -443.546 6        41.194               
E30  28110563.811 6 146461135.784 6      2740.109 6        38.236               
E34  27715197.365 6 145642218.407 6     -2530.583 6        38.650               
> 2025 01 08 17 45 59.0000000  0  5                                             
E13  27920197.104 6 147722134.993 6     -2444.983 6        37.665               
E21  27913269.963 6 147643395.948 6     -2042.730 6        38.834               
E27  25644491.562 6 134760547.673 6      -444.257 6        40.937               
E30  28111083.996 6 146458394.618 6      2740.832 6        37.983               
E34  27715687.155 6 145644751.966 6     -2531.792 6        38.752               
> 2025 01 08 17 46 00.0000000  0  5                                             
E13  27919732.635 6 147724578.860 6     -2442.176 6        37.720               
E21  27912882.491 6 147645437.242 6     -2040.564 6        38.914               
E27  25644578.263 6 134760991.798 6      -444.137 6        40.977               
E30  28111606.969 6 146455653.352 6      2741.478 6        38.213               
E34  27716166.420 6 145647285.596 6     -2532.951 6        38.834               
> 2025 01 08 17 46 01.0000000  0  5                                             
E13  27919272.168 6 147727022.479 6     -2442.064 6        37.727               
E21  27912493.947 6 147647478.334 6     -2039.042 6        38.791               
E27  25644664.302 6 134761436.319 6      -445.047 6        41.254               
E30  28112129.495 6 146452911.848 6      2741.835 6        38.034               
E34  27716652.297 6 145649819.468 6     -2533.827 6        38.773               
> 2025 01 08 17 46 02.0000000  0  5                                             
E13  27918808.449 6 147729465.914 6     -2440.819 6        37.866               
E21  27912110.532 6 147649519.300 6     -2041.958 6        38.806               
E27  25644751.521 6 134761881.188 6      -445.222 6        41.264               
E30  28112653.022 6 146450170.158 6      2741.070 6        38.136               
E34  27717136.905 6 145652353.532 6     -2532.956 6        38.850               
> 2025 01 08 17 46 03.0000000  0  5                                             
E13  27918342.550 6 147731909.192 6     -2443.711 6        37.830               
E21  27911722.381 6 147651560.159 6     -2040.729 6        39.030               
E27  25644837.578 6 134762326.361 6      -445.710 6        41.197               
E30  28113174.601 6 146447428.321 6      2743.550 6        38.368               
E34  27717622.317 6 145654887.776 6     -2535.551 6        38.672               
> 2025 01 08 17 46 04.0000000  0  5                                             
E13  27917880.153 6 147734352.281 6     -2444.214 6        37.997               
E21  27911333.515 6 147653600.858 6     -2042.897 6        39.082               
E27  25644926.852 6 134762771.882 6      -445.510 6        41.411               
E30  28113702.612 6 146444686.280 6      2744.709 6        38.333               
E34  27718105.513 6 145657422.198 6     -2534.743 6        38.904               
> 2025 01 08 17 46 05.0000000  0  5                                             
E13  27917420.365 6 147736795.087 6     -2443.040 6        38.258               
E21  27910949.867 6 147655641.315 6     -2040.715 6        39.250               
E27  25645010.479 6 134763217.831 6      -446.280 6        41.369               
E30  28114222.101 6 146441943.999 6      2741.768 6        38.386               
E34  27718594.356 6 145659956.913 6     -2533.514 6        38.781               
> 2025 01 08 17 46 06.0000000  0  5                                             
E13  27916957.665 6 147739237.616 6     -2442.288 6        38.308               
E21  27910561.091 6 147657681.608 6     -2042.244 6        39.044               
E27  25645097.090 6 134763664.158 6      -446.124 6        40.985               
E30  28114743.787 6 146439201.444 6      2741.992 6        38.035               
E34  27719075.015 6 145662491.847 6     -2533.773 6        38.894               
> 2025 01 08 17 46 07.0000000  0  5                                             
E13  27916489.407 6 147741679.929 6     -2445.148 6        38.454               
E21  27910176.585 6 147659721.671 6     -2040.170 6        39.378               
E27  25645185.184 6 134764110.927 6      -447.095 6        41.236               
E30  28115268.779 6 146436458.652 6      2742.694 6        37.919               
E34  27719560.212 6 145665027.060 6     -2535.374 6        38.991               
> 2025 01 08 17 46 08.0000000  0  5                                             
E13  27916028.476 6 147744122.148 6     -2442.926 6        38.464               
E21  27909787.719 6 147661761.722 6     -2039.067 6        39.055               
E27  25645272.081 6 134764557.903 6      -447.561 6        41.152               
E30  28115796.111 6 146433715.794 6      2741.423 6        37.577               
E34  27720043.301 6 145667562.308 6     -2535.779 6        38.724               
