     3.02           OBSERVATION DATA    G                   RINEX VERSION / TYPE
G = GPS  R = GLONASS  E = GALILEO  S = GEO  M = MIXED       COMMENT             
GNSS-SDR            jmfriedt            20250108 184123 UTC PGM / RUN BY / DATE 
GPS OBSERVATION DATA FILE GENERATED BY GNSS-SDR             COMMENT             
GNSS-SDR VERSION 0.0.19.git-main-87fcfd237                  COMMENT             
See https://gnss-sdr.org                                    COMMENT             
DEFAULT MARKER NAME                                         MARKER NAME         
jmfriedt            CTTC                                    OBSERVER / AGENCY   
GNSS-SDR            Software Receiver   0.0.19.gi           REC # / TYPE / VERS 
Antenna number      Antenna type                            ANT # / TYPE        
        0.0000        0.0000        0.0000                  APPROX POSITION XYZ 
        0.0000        0.0000        0.0000                  ANTENNA: DELTA H/E/N
G    4 C1C L1C D1C S1C                                      SYS / # / OBS TYPES 
DBHZ                                                        SIGNAL STRENGTH UNIT
  2025    01    08    17    42   12.1000000     GPS         TIME OF FIRST OBS   
    18    18   137     7                                    LEAP SECONDS        
                                                            END OF HEADER       
> 2025 01 08 17 42 13.0000000  0  4                                             
G23  25148237.881 6 132154839.674 6      2658.365 6        40.340               
G27  24510700.929 6 128804560.459 6      2544.681 6        40.673               
G29  25745624.353 6 135294177.605 6     -3191.693 6        40.148               
G16  22807958.979 7 119858747.646 7     -1173.331 7        42.839               
> 2025 01 08 17 42 14.0000000  0  4                                             
G23  25147732.759 6 132152177.870 6      2662.380 6        40.343               
G27  24510217.715 6 128802014.597 6      2546.904 6        40.579               
G29  25746230.989 6 135297368.994 6     -3188.523 6        40.629               
G16  22807736.528 7 119859918.091 7     -1168.427 7        42.508               
> 2025 01 08 17 42 15.0000000  0  4                                             
G23  25147228.460 6 132149515.520 6      2662.065 6        40.810               
G27  24509727.764 6 128799468.100 6      2542.843 6        40.210               
G29  25746838.821 6 135300559.651 6     -3190.339 6        41.099               
G16  22807517.578 7 119861088.894 7     -1171.989 7        42.916               
> 2025 01 08 17 42 16.0000000  0  4                                             
G23  25146725.858 6 132146853.730 6      2662.088 6        40.940               
G27  24509253.735 6 128796922.064 6      2546.076 6        39.863               
G29  25747455.160 6 135303750.663 6     -3192.527 6        40.435               
G16  22807298.111 7 119862258.904 7     -1171.202 7        42.886               
> 2025 01 08 17 42 17.0000000  0  4                                             
G23  25146216.769 6 132144192.373 6      2661.876 6        40.381               
G27  24508767.930 6 128794376.347 6      2547.147 6        39.784               
G29  25748058.257 6 135306941.911 6     -3186.899 6        39.917               
G16  22807078.358 7 119863428.281 7     -1169.850 7        42.541               
> 2025 01 08 17 42 18.0000000  0  5                                             
G23  25145707.681 6 132141531.557 6      2660.982 6        40.727               
G27  24508289.933 6 128791831.071 6      2544.683 6        40.386               
G29  25748667.073 6 135310133.457 6     -3188.824 6        40.442               
G16  22806851.850 7 119864596.929 7     -1166.296 7        42.676               
G18  23036382.166 7 121056480.045 7      1197.203 7        42.928               
> 2025 01 08 17 42 19.0000000  0  5                                             
G23  25145206.437 6 132138871.310 6      2660.466 6        41.023               
G27  24507799.893 6 128789286.266 6      2543.245 6        40.164               
G29  25749278.854 6 135313325.373 6     -3189.649 6        40.221               
G16  22806633.777 7 119865764.783 7     -1164.886 7        43.039               
G18  23036602.438 7 121055286.731 7      1192.540 7        42.872               
> 2025 01 08 17 42 20.0000000  0  5                                             
G23  25144710.178 6 132136211.505 6      2660.012 6        41.139               
G27  24507324.113 6 128786741.815 6      2543.268 6        40.387               
G29  25749888.277 6 135316517.542 6     -3189.002 6        40.237               
G16  22806412.665 7 119866931.991 7     -1166.394 7        42.433               
G18  23036832.466 7 121054092.756 7      1195.580 7        42.861               
> 2025 01 08 17 42 21.0000000  0  5                                             
G23  25144199.196 6 132133552.526 6      2664.282 6        41.190               
G27  24506839.326 6 128784198.094 6      2543.603 6        40.685               
G29  25750493.501 6 135319710.317 6     -3189.847 6        40.146               
G16  22806194.985 7 119868098.165 7     -1165.583 7        42.772               
G18  23037061.457 7 121052897.726 7      1197.694 7        42.863               
> 2025 01 08 17 42 22.0000000  0  5                                             
G23  25143696.683 6 132130893.872 6      2661.718 6        40.594               
G27  24506359.275 6 128781654.575 6      2544.565 6        41.021               
G29  25751111.448 6 135322903.213 6     -3193.084 6        40.136               
G16  22805973.766 7 119869263.820 7     -1165.707 7        42.247               
G18  23037292.968 7 121051702.159 7      1192.970 7        42.749               
> 2025 01 08 17 42 23.0000000  0  5                                             
G23  25143188.953 6 132128235.555 6      2661.227 6        40.932               
G27  24505872.576 6 128779111.327 6      2541.985 6        40.580               
G29  25751716.797 6 135326096.231 6     -3189.628 6        40.411               
G16  22805756.515 7 119870428.902 7     -1168.037 7        42.229               
G18  23037522.228 7 121050505.995 7      1196.718 7        42.471               
> 2025 01 08 17 42 24.0000000  0  5                                             
G23  25142683.117 6 132125576.013 6      2655.952 6        40.645               
G27  24505397.439 6 128776566.725 6      2545.510 6        40.661               
G29  25752321.270 6 135329287.845 6     -3193.911 6        40.450               
G16  22805530.543 7 119871595.024 7     -1166.343 7        42.389               
G18  23037750.040 7 121049310.860 7      1193.491 7        43.047               
> 2025 01 08 17 42 25.0000000  0  5                                             
G23  25142181.908 6 132122917.320 6      2656.965 6        41.278               
G27  24504917.763 6 128774022.886 6      2537.292 6        40.344               
G29  25752934.481 6 135332480.070 6     -3193.665 6        41.090               
G16  22805309.753 7 119872760.065 7     -1165.909 7        42.639               
G18  23037981.229 7 121048114.646 7      1197.031 7        43.028               
> 2025 01 08 17 42 26.0000000  0  5                                             
G23  25141670.801 6 132120259.366 6      2653.244 6        40.875               
G27  24504428.759 6 128771479.688 6      2544.137 6        40.872               
G29  25753542.493 6 135335672.824 6     -3190.350 6        41.062               
G16  22805094.307 7 119873924.152 7     -1164.534 7        42.613               
G18  23038209.327 7 121046917.474 7      1193.808 7        42.684               
> 2025 01 08 17 42 27.0000000  0  5                                             
G23  25141176.454 6 132117602.092 6      2656.710 6        40.974               
G27  24503945.777 6 128768937.086 6      2538.049 6        40.910               
G29  25754154.935 6 135338866.094 6     -3191.165 6        40.909               
G16  22804870.247 7 119875087.341 7     -1159.768 7        42.258               
G18  23038442.482 7 121045719.390 7      1199.373 7        42.704               
> 2025 01 08 17 42 28.0000000  0  5                                             
G23  25140668.956 6 132114944.468 6      2660.616 6        40.639               
G27  24503465.887 6 128766393.988 6      2544.563 6        40.632               
G29  25754763.268 6 135342058.762 6     -3192.531 6        40.769               
G16  22804655.086 7 119876250.695 7     -1166.168 7        42.288               
G18  23038671.510 7 121044521.432 7      1199.632 7        42.778               
> 2025 01 08 17 42 29.0000000  0  5                                             
G23  25140162.173 6 132112287.065 6      2661.049 6        40.948               
G27  24502982.816 6 128763851.045 6      2547.055 6        41.091               
G29  25755375.497 6 135345251.455 6     -3197.330 6        40.430               
G16  22804432.099 7 119877413.610 7     -1160.002 7        42.376               
G18  23038897.499 7 121043323.038 7      1199.861 7        42.245               
> 2025 01 08 17 42 30.0000000  0  5                                             
G23  25139667.487 6 132109630.683 6      2657.149 6        40.894               
G27  24502503.908 6 128761309.039 6      2539.501 6        41.551               
G29  25755983.633 6 135348444.973 6     -3193.657 6        40.759               
G16  22804218.206 7 119878575.290 7     -1163.535 7        42.144               
G18  23039127.170 7 121042123.392 7      1199.977 7        42.522               
> 2025 01 08 17 42 31.0000000  0  5                                             
G23  25139154.824 6 132106974.622 6      2657.843 6        40.784               
G27  24502018.728 6 128758767.205 6      2544.451 6        40.690               
G29  25756589.107 6 135351638.580 6     -3190.470 6        40.436               
G16  22803995.344 7 119879736.476 7     -1162.866 7        42.034               
G18  23039361.379 7 121040923.217 7      1200.316 7        42.687               
> 2025 01 08 17 42 32.0000000  0  5                                             
G23  25138655.099 6 132104319.039 6      2655.236 6        40.208               
G27  24501533.156 6 128756225.802 6      2541.491 6        40.925               
G29  25757201.246 6 135354832.464 6     -3191.637 6        40.965               
G16  22803779.575 7 119880896.943 7     -1158.752 7        42.197               
G18  23039590.960 7 121039722.323 7      1200.019 7        42.155               
> 2025 01 08 17 42 33.0000000  0  5                                             
G23  25138152.283 6 132101663.924 6      2654.562 6        40.118               
G27  24501049.924 6 128753684.714 6      2538.781 6        41.010               
G29  25757805.738 6 135358026.603 6     -3195.038 6        39.952               
G16  22803562.824 7 119882056.767 7     -1158.638 7        42.698               
G18  23039817.307 7 121038520.761 7      1198.189 7        42.715               
> 2025 01 08 17 42 34.0000000  0  5                                             
G23  25137653.862 6 132099008.873 6      2653.404 6        40.324               
G27  24500580.772 6 128751143.635 6      2541.775 6        41.226               
G29  25758427.365 6 135361220.611 6     -3194.095 6        40.307               
G16  22803343.250 7 119883216.292 7     -1156.331 7        42.748               
G18  23040047.835 7 121037318.885 7      1200.357 7        42.385               
> 2025 01 08 17 42 35.0000000  0  5                                             
G23  25137141.111 6 132096353.956 6      2655.840 6        40.388               
G27  24500095.843 6 128748602.570 6      2544.601 6        41.546               
G29  25759030.427 6 135364414.526 6     -3193.952 6        40.368               
G16  22803123.532 7 119884375.490 7     -1158.640 7        42.167               
G18  23040282.956 7 121036116.674 7      1200.807 7        43.017               
> 2025 01 08 17 42 36.0000000  0  5                                             
G23  25136645.156 6 132093699.420 6      2654.696 6        40.417               
G27  24499621.206 6 128746061.782 6      2542.651 6        41.711               
G29  25759642.888 6 135367608.602 6     -3195.600 6        40.141               
G16  22802900.384 7 119885534.115 7     -1158.509 7        42.295               
G18  23040510.679 7 121034913.857 7      1203.243 7        42.278               
> 2025 01 08 17 42 37.0000000  0  5                                             
G23  25136138.283 6 132091045.416 6      2650.910 6        40.588               
G27  24499135.562 6 128743521.423 6      2536.662 6        41.347               
G29  25760243.376 6 135370803.019 6     -3198.050 6        39.561               
G16  22802687.617 7 119886691.991 7     -1155.818 7        43.034               
G18  23040743.298 7 121033710.301 7      1200.282 7        42.539               
> 2025 01 08 17 42 38.0000000  0  5                                             
G23  25135637.414 6 132088391.673 6      2660.513 6        40.089               
G27  24498651.561 6 128740981.218 6      2540.583 6        41.111               
G29  25760856.552 6 135373997.468 6     -3193.311 6        40.148               
G16  22802469.776 7 119887849.407 7     -1157.938 7        42.927               
G18  23040974.684 7 121032506.245 7      1204.696 7        42.841               
> 2025 01 08 17 42 39.0000000  0  5                                             
G23  25135130.899 6 132085738.264 6      2651.522 6        40.226               
G27  24498167.972 6 128738441.263 6      2542.016 6        40.977               
G29  25761463.991 6 135377192.070 6     -3195.756 6        40.051               
G16  22802248.933 7 119889006.264 7     -1155.083 7        43.392               
G18  23041207.410 7 121031301.627 7      1203.893 7        42.896               
> 2025 01 08 17 42 40.0000000  0  5                                             
G23  25134632.157 6 132083085.335 6      2650.397 6        40.377               
G27  24497681.398 6 128735901.667 6      2539.912 6        41.101               
G29  25762079.204 6 135380386.896 6     -3191.351 6        40.160               
G16  22802027.232 7 119890162.470 7     -1156.047 7        42.931               
G18  23041435.562 7 121030096.323 7      1206.299 7        42.992               
> 2025 01 08 17 42 41.0000000  0  5                                             
G23  25134118.190 6 132080432.708 6      2650.557 6        39.463               
G27  24497208.798 6 128733362.302 6      2540.970 6        40.729               
G29  25762689.342 6 135383581.871 6     -3193.587 6        39.689               
G16  22801813.751 7 119891318.127 7     -1155.347 7        42.898               
G18  23041673.005 7 121028890.482 7      1209.130 7        42.403               
> 2025 01 08 17 42 42.0000000  0  5                                             
G23  25133619.752 6 132077780.361 6      2654.316 6        40.070               
G27  24496722.725 6 128730823.105 6      2543.534 6        40.863               
G29  25763295.352 6 135386776.889 6     -3197.320 6        39.974               
G16  22801596.302 7 119892473.314 7     -1156.441 7        42.966               
G18  23041904.713 7 121027684.126 7      1209.994 7        42.796               
> 2025 01 08 17 42 43.0000000  0  5                                             
G23  25133116.077 6 132075128.411 6      2650.470 6        40.109               
G27  24496239.922 6 128728284.201 6      2537.528 6        40.918               
G29  25763904.310 6 135389972.090 6     -3194.339 6        40.180               
G16  22801378.157 7 119893627.901 7     -1155.940 7        43.647               
G18  23042128.576 7 121026477.160 7      1210.113 7        42.819               
> 2025 01 08 17 42 44.0000000  0  5                                             
G23  25132618.818 6 132072476.986 6      2645.578 6        39.935               
G27  24495755.868 6 128725745.708 6      2540.295 6        40.751               
G29  25764517.432 6 135393167.608 6     -3195.514 6        39.490               
G16  22801161.460 7 119894781.745 7     -1151.697 7        43.100               
G18  23042365.055 7 121025269.472 7      1206.366 7        42.592               
> 2025 01 08 17 42 45.0000000  0  5                                             
G23  25132108.783 6 132069826.327 6      2650.193 6        39.554               
G27  24495282.768 6 128723207.896 6      2538.437 6        40.697               
G29  25765128.088 6 135396363.694 6     -3193.553 6        39.301               
G16  22800942.350 7 119895934.637 7     -1153.114 7        42.905               
G18  23042597.423 7 121024060.775 7      1210.382 7        42.822               
> 2025 01 08 17 42 46.0000000  0  5                                             
G23  25131611.970 6 132067175.963 6      2650.327 6        39.785               
G27  24494794.014 6 128720670.274 6      2540.488 6        41.258               
G29  25765730.739 6 135399559.833 6     -3196.499 6        39.334               
G16  22800720.881 7 119897087.036 7     -1150.752 7        42.661               
G18  23042824.932 7 121022851.593 7      1209.806 7        42.700               
> 2025 01 08 17 42 47.0000000  0  5                                             
G23  25131102.471 6 132064525.690 6      2649.833 6        39.907               
G27  24494315.875 6 128718132.639 6      2536.108 6        41.284               
G29  25766349.614 6 135402755.906 6     -3199.465 6        39.337               
G16  22800507.596 7 119898239.103 7     -1150.211 7        42.819               
G18  23043058.426 7 121021642.081 7      1211.111 7        42.385               
> 2025 01 08 17 42 48.0000000  0  6                                             
G23  25130607.910 6 132061875.851 6      2648.511 6        39.996               
G27  24493837.075 6 128715595.342 6      2538.009 6        41.528               
G29  25766954.570 6 135405952.176 6     -3196.585 6        39.466               
G26  22635114.261 7 118948314.677 7     -1138.622 7        43.784               
G16  22800286.164 7 119899390.537 7     -1152.757 7        43.276               
G18  23043295.352 7 121020431.899 7      1209.753 7        42.595               
> 2025 01 08 17 42 49.0000000  0  6                                             
G23  25130105.147 6 132059226.194 6      2648.644 6        40.105               
G27  24493348.410 6 128713058.120 6      2544.069 6        40.704               
G29  25767563.582 6 135409148.404 6     -3193.756 6        39.042               
G26  22635331.316 7 118949451.942 7     -1137.127 7        43.893               
G16  22800074.576 7 119900541.602 7     -1152.229 7        43.307               
G18  23043527.149 7 121019221.336 7      1213.224 7        42.070               
> 2025 01 08 17 42 50.0000000  0  6                                             
G23  25129604.600 6 132056576.401 6      2650.813 6        40.102               
G27  24492869.199 6 128710520.665 6      2535.451 6        40.738               
G29  25768169.860 6 135412344.290 6     -3195.951 6        39.493               
G26  22635547.710 7 118950589.341 7     -1139.324 7        43.901               
G16  22799855.288 7 119901692.583 7     -1148.552 7        42.720               
G18  23043755.711 7 121018010.696 7      1212.115 7        42.763               
> 2025 01 08 17 42 51.0000000  0  6                                             
G23  25129099.121 6 132053926.611 6      2647.146 6        40.394               
G27  24492395.098 6 128707983.098 6      2541.776 6        40.655               
G29  25768783.590 6 135415539.984 6     -3195.797 6        39.195               
G26  22635769.518 7 118951726.976 7     -1140.203 7        44.207               
G16  22799638.251 7 119902843.380 7     -1150.309 7        42.797               
G18  23043990.081 7 121016799.827 7      1210.402 7        42.379               
> 2025 01 08 17 42 52.0000000  0  6                                             
G23  25128600.432 6 132051277.129 6      2658.533 6        40.082               
G27  24491909.740 6 128705445.774 6      2539.881 6        41.251               
G29  25769385.240 6 135418735.779 6     -3196.219 6        39.406               
G26  22635986.805 7 118952865.209 7     -1140.165 7        44.093               
G16  22799423.536 7 119903993.611 7     -1148.757 7        43.178               
G18  23044214.534 7 121015588.401 7      1208.460 7        42.009               
> 2025 01 08 17 42 53.0000000  0  6                                             
G23  25128094.114 6 132048628.433 6      2648.257 6        40.694               
G27  24491427.848 6 128702909.102 6      2536.071 6        41.254               
G29  25770004.509 6 135421932.134 6     -3199.149 6        39.646               
G26  22636199.947 7 118954004.442 7     -1137.752 7        43.993               
G16  22799199.387 7 119905142.884 7     -1148.429 7        43.223               
G18  23044451.620 6 121014375.995 6      1213.475 6        41.997               
> 2025 01 08 17 42 54.0000000  0  6                                             
G23  25127589.778 6 132045980.570 6      2646.058 6        40.292               
G27  24490948.333 6 128700373.155 6      2539.536 6        40.762               
G29  25770610.662 6 135425129.083 6     -3196.131 6        38.921               
G26  22636423.631 7 118955144.760 7     -1143.600 7        44.134               
G16  22798986.978 7 119906291.127 7     -1148.765 7        42.790               
G18  23044684.829 6 121013162.540 6      1216.316 6        41.814               
> 2025 01 08 17 42 55.0000000  0  6                                             
G23  25127091.215 6 132043333.063 6      2646.505 6        40.682               
G27  24490459.865 6 128697837.467 6      2532.446 6        40.374               
G29  25771217.672 6 135428326.188 6     -3201.980 6        38.978               
G26  22636640.776 7 118956285.687 7     -1141.089 7        44.006               
G16  22798771.067 7 119907438.804 7     -1149.360 7        43.028               
G18  23044917.662 7 121011948.513 7      1215.906 7        42.498               
> 2025 01 08 17 42 56.0000000  0  6                                             
G23  25126591.043 6 132040685.653 6      2645.967 6        40.205               
G27  24489978.813 6 128695301.786 6      2535.616 6        40.770               
G29  25771830.419 6 135431523.200 6     -3194.939 6        39.356               
G26  22636863.531 7 118957426.985 7     -1144.238 7        43.712               
G16  22798550.349 7 119908586.169 7     -1146.117 7        42.341               
G18  23045152.694 7 121010734.157 7      1215.852 7        42.166               
> 2025 01 08 17 42 58.0000000  0  6                                             
G23  25125592.933 6 132035392.078 6      2644.563 6        39.959               
G27  24489017.460 6 128690231.349 6      2530.264 6        40.098               
G29  25773055.144 6 135437917.804 6     -3200.667 6        39.369               
G26  22637294.228 7 118959711.536 7     -1144.198 7        44.155               
G16  22798118.365 7 119910879.045 7     -1150.721 7        42.764               
G18  23045619.683 7 121008303.570 7      1213.355 7        42.443               
> 2025 01 08 17 42 59.0000000  0  6                                             
G23  25125082.647 6 132032745.732 6      2647.550 6        40.656               
G27  24488544.002 6 128687696.422 6      2535.200 6        40.365               
G29  25773675.360 6 135441115.220 6     -3201.462 6        39.050               
G26  22637512.212 7 118960854.632 7     -1138.842 7        44.191               
G16  22797902.418 7 119912024.723 7     -1148.258 7        42.590               
G18  23045853.695 7 121007087.508 7      1213.805 7        42.444               
> 2025 01 08 17 43 00.0000000  0  6                                             
G23  25124584.995 6 132030099.708 6      2648.172 6        40.497               
G27  24488059.358 6 128685161.706 6      2534.140 6        40.188               
G29  25774278.797 6 135444312.736 6     -3201.226 6        39.452               
G26  22637733.770 7 118961998.317 7     -1142.119 7        44.079               
G16  22797691.170 7 119913169.874 7     -1148.800 7        42.870               
G18  23046086.797 7 121005870.890 7      1215.368 7        42.585               
> 2025 01 08 17 43 01.0000000  0  6                                             
G23  25124082.768 6 132027454.209 6      2645.952 6        40.620               
G27  24487578.235 6 128682627.414 6      2535.671 6        40.147               
G29  25774890.436 6 135447510.588 6     -3195.741 6        40.062               
G26  22637960.778 7 118963142.767 7     -1144.033 7        43.496               
G16  22797456.675 7 119914314.297 7     -1143.463 7        42.938               
G18  23046316.628 7 121004653.543 7      1217.536 7        42.974               
> 2025 01 08 17 43 02.0000000  0  6                                             
G23  25123583.668 6 132024808.993 6      2645.214 6        41.068               
G27  24487099.774 6 128680093.302 6      2534.179 6        41.034               
G29  25775500.841 6 135450708.488 6     -3196.611 6        38.825               
G26  22638178.548 7 118964287.735 7     -1145.327 7        43.961               
G16  22797256.149 7 119915458.247 7     -1142.570 7        42.806               
G18  23046554.894 7 121003435.705 7      1218.921 7        42.359               
> 2025 01 08 17 43 03.0000000  0  6                                             
G23  25123074.223 6 132022163.634 6      2646.783 6        40.731               
G27  24486622.296 6 128677558.942 6      2536.797 6        39.975               
G29  25776109.889 6 135453906.032 6     -3197.946 6        39.173               
G26  22638395.156 7 118965432.841 7     -1145.848 7        44.006               
G16  22797041.381 7 119916602.128 7     -1147.119 7        42.545               
G18  23046786.333 7 121002217.769 7      1218.483 7        42.694               
> 2025 01 08 17 43 04.0000000  0  6                                             
G23  25122578.125 6 132019518.596 6      2643.982 6        40.622               
G27  24486137.134 6 128675024.813 6      2533.809 6        40.598               
G29  25776716.596 6 135457103.704 6     -3197.612 6        39.034               
G26  22638617.769 7 118966578.498 7     -1147.446 7        44.346               
G16  22796830.527 7 119917745.483 7     -1142.629 7        42.914               
G18  23047019.881 7 121000999.304 7      1217.878 7        42.519               
> 2025 01 08 17 43 05.0000000  0  6                                             
G23  25122080.508 6 132016873.836 6      2644.204 6        40.605               
G27  24485656.332 6 128672490.856 6      2533.966 6        39.886               
G29  25777330.540 6 135460301.434 6     -3190.494 6        38.965               
G26  22638836.718 7 118967724.670 7     -1146.280 7        44.011               
G16  22796604.448 7 119918888.349 7     -1147.068 7        43.039               
G18  23047253.751 7 120999780.357 7      1215.869 7        42.956               
> 2025 01 08 17 43 06.0000000  0  6                                             
G23  25121578.693 6 132014228.345 6      2643.094 6        40.337               
G27  24485179.729 6 128669956.069 6      2530.068 6        40.169               
G29  25777940.678 6 135463498.233 6     -3197.066 6        38.768               
G26  22639050.574 7 118968870.397 7     -1144.268 7        43.817               
G16  22796393.218 7 119920031.744 7     -1140.278 7        42.157               
G18  23047488.979 7 120998561.903 7      1220.495 7        42.109               
> 2025 01 08 17 43 07.0000000  0  6                                             
G23  25121080.147 6 132011583.725 6      2638.754 6        40.635               
G27  24484697.820 6 128667422.035 6      2539.410 6        39.838               
G29  25778544.812 6 135466695.674 6     -3203.318 6        39.044               
G26  22639273.544 7 118970017.211 7     -1146.617 7        43.824               
G16  22796178.969 7 119921174.064 7     -1136.982 7        42.505               
G18  23047717.488 7 120997342.373 7      1218.652 7        42.680               
> 2025 01 08 17 43 08.0000000  0  6                                             
G23  25120573.631 6 132008939.996 6      2642.782 6        40.852               
G27  24484218.394 6 128664888.804 6      2528.726 6        40.760               
G29  25779158.452 6 135469893.783 6     -3198.042 6        39.840               
G26  22639496.656 7 118971165.198 7     -1147.881 7        43.754               
G16  22795962.432 7 119922315.284 7     -1140.908 7        42.197               
G18  23047953.323 7 120996121.731 7      1219.295 7        42.697               
> 2025 01 08 17 43 09.0000000  0  6                                             
G23  25120073.853 6 132006296.738 6      2642.926 6        40.581               
G27  24483743.364 6 128662355.932 6      2530.092 6        40.531               
G29  25779776.827 6 135473092.161 6     -3199.802 6        39.587               
G26  22639712.639 7 118972313.871 7     -1149.679 7        44.238               
G16  22795743.804 7 119923455.848 7     -1141.030 7        42.206               
G18  23048190.517 7 120994900.409 7      1219.082 7        42.616               
> 2025 01 08 17 43 10.0000000  0  6                                             
G23  25119575.289 6 132003653.683 6      2642.304 6        40.187               
G27  24483260.436 6 128659823.177 6      2529.919 6        40.697               
G29  25780373.295 6 135476290.521 6     -3196.321 6        39.394               
G26  22639934.698 7 118973463.021 7     -1150.652 7        44.012               
G16  22795533.325 7 119924595.971 7     -1137.660 7        42.636               
G18  23048425.048 7 120993678.657 7      1224.753 7        42.485               
> 2025 01 08 17 43 11.0000000  0  6                                             
G23  25119069.757 6 132001010.903 6      2643.018 6        41.421               
G27  24482771.164 6 128657290.570 6      2530.441 6        40.553               
G29  25780989.669 6 135479488.948 6     -3198.947 6        39.539               
G26  22640158.257 7 118974612.689 7     -1151.304 7        43.920               
G16  22795314.465 7 119925735.624 7     -1138.997 7        42.838               
G18  23048655.433 7 120992456.424 7      1224.358 7        42.237               
> 2025 01 08 17 43 12.0000000  0  6                                             
G23  25118570.014 6 131998368.077 6      2643.411 6        41.268               
G27  24482293.221 6 128654757.830 6      2532.030 6        40.908               
G29  25781603.917 6 135482687.113 6     -3196.017 6        38.614               
G26  22640373.239 7 118975762.555 7     -1148.350 7        43.965               
G16  22795101.109 7 119926875.116 7     -1144.783 7        42.894               
G18  23048888.409 7 120991233.998 7      1223.591 7        42.331               
> 2025 01 08 17 43 13.0000000  0  6                                             
G23  25118068.752 6 131995725.835 6      2643.800 6        40.539               
G27  24481821.568 6 128652225.584 6      2533.175 6        40.774               
G29  25782213.662 6 135485885.631 6     -3199.097 6        38.970               
G26  22640601.981 7 118976913.253 7     -1149.964 7        43.952               
G16  22794886.270 7 119928013.823 7     -1136.947 7        43.220               
G18  23049123.834 7 120990010.807 7      1223.059 7        42.400               
> 2025 01 08 17 43 14.0000000  0  6                                             
G23  25117572.279 6 131993083.363 6      2643.343 6        40.525               
G27  24481339.659 6 128649692.970 6      2531.253 6        40.151               
G29  25782823.853 6 135489083.727 6     -3201.183 6        39.010               
G26  22640820.161 7 118978063.987 7     -1154.158 7        43.961               
G16  22794671.538 7 119929152.544 7     -1137.367 7        43.233               
G18  23049362.564 7 120988787.611 7      1227.011 7        42.237               
> 2025 01 08 17 43 15.0000000  0  6                                             
G23  25117063.655 6 131990442.507 6      2642.245 6        40.415               
G27  24480859.393 6 128647161.891 6      2530.401 6        40.721               
G29  25783436.046 6 135492283.217 6     -3202.647 6        39.472               
G26  22641040.129 7 118979216.563 7     -1152.889 7        44.053               
G16  22794453.786 7 119930289.462 7     -1139.292 7        43.215               
G18  23049593.003 7 120987562.581 7      1225.063 7        42.610               
> 2025 01 08 17 43 16.0000000  0  6                                             
G23  25116564.502 6 131987801.247 6      2642.519 6        40.157               
G27  24480374.660 6 128644630.269 6      2530.219 6        41.081               
G29  25784038.804 6 135495482.073 6     -3198.532 6        39.170               
G26  22641260.883 7 118980368.987 7     -1151.225 7        43.948               
G16  22794244.289 7 119931426.579 7     -1137.262 7        43.004               
G18  23049831.340 7 120986337.766 7      1225.275 7        42.295               
> 2025 01 08 17 43 17.0000000  0  6                                             
G23  25116056.968 6 131985160.480 6      2644.357 6        40.679               
G27  24479897.932 6 128642099.078 6      2536.190 6        41.153               
G29  25784653.158 6 135498681.201 6     -3200.051 6        39.120               
G26  22641480.726 7 118981522.170 7     -1155.264 7        43.423               
G16  22794026.377 7 119932562.994 7     -1136.607 7        42.706               
G18  23050066.746 7 120985112.219 7      1224.082 7        42.359               
> 2025 01 08 17 43 18.0000000  0  6                                             
G23  25115556.760 6 131982520.173 6      2638.650 6        40.804               
G27  24479421.705 6 128639568.251 6      2530.834 6        40.670               
G29  25785271.212 6 135501880.614 6     -3200.590 6        38.996               
G26  22641703.695 7 118982676.069 7     -1154.364 7        43.585               
G16  22793817.399 7 119933698.716 7     -1133.815 7        42.642               
G18  23050299.151 7 120983885.962 7      1228.028 7        42.562               
> 2025 01 08 17 43 19.0000000  0  6                                             
G23  25115058.429 6 131979879.896 6      2637.728 6        40.099               
G27  24478935.971 6 128637037.332 6      2529.009 6        41.464               
G29  25785872.755 6 135505079.803 6     -3200.582 6        38.909               
G26  22641923.216 7 118983830.219 7     -1154.059 7        43.628               
G16  22793601.648 7 119934834.242 7     -1134.878 7        42.833               
G18  23050536.416 7 120982659.518 7      1226.219 7        42.360               
> 2025 01 08 17 43 20.0000000  0  6                                             
G23  25114560.955 6 131977239.882 6      2636.950 6        40.133               
G27  24478457.367 6 128634506.544 6      2530.847 6        41.159               
G29  25786481.052 6 135508279.040 6     -3198.772 6        39.348               
G26  22642148.009 7 118984984.881 7     -1151.858 7        43.977               
G16  22793388.488 7 119935969.287 7     -1131.968 7        43.219               
G18  23050774.217 7 120981432.573 7      1224.930 7        42.288               
> 2025 01 08 17 43 21.0000000  0  6                                             
G23  25114052.903 6 131974600.370 6      2638.012 6        40.599               
G27  24477983.570 6 128631976.193 6      2529.964 6        40.892               
G29  25787095.729 6 135511478.584 6     -3201.034 6        39.317               
G26  22642370.728 7 118986140.307 7     -1157.786 7        44.167               
G16  22793170.504 7 119937103.623 7     -1134.935 7        42.832               
G18  23051005.174 7 120980204.915 7      1227.746 7        42.695               
> 2025 01 08 17 43 22.0000000  0  6                                             
G23  25113561.559 6 131971961.261 6      2640.676 6        40.117               
G27  24477499.230 6 128629446.156 6      2528.448 6        40.883               
G29  25787713.050 6 135514678.307 6     -3201.661 6        38.962               
G26  22642591.357 7 118987296.388 7     -1157.723 7        43.837               
G16  22792962.098 7 119938237.342 7     -1135.143 7        42.393               
G18  23051240.402 7 120978976.612 7      1229.629 7        42.051               
> 2025 01 08 17 43 23.0000000  0  6                                             
G23  25113055.562 6 131969322.598 6      2641.253 6        40.714               
G27  24477017.285 6 128626916.408 6      2527.914 6        40.665               
G29  25788321.186 6 135517878.258 6     -3197.380 6        39.389               
G26  22642816.096 7 118988453.154 7     -1156.210 7        43.608               
G16  22792748.313 7 119939370.421 7     -1134.260 7        42.853               
G18  23051479.847 7 120977747.689 7      1230.630 7        42.437               
> 2025 01 08 17 43 24.0000000  0  6                                             
G23  25112553.889 6 131966684.982 6      2635.506 6        40.246               
G27  24476541.469 6 128624387.624 6      2528.605 6        40.750               
G29  25788930.073 6 135521079.037 6     -3200.348 6        39.481               
G26  22643036.742 7 118989611.215 7     -1160.735 7        44.065               
G16  22792539.781 7 119940502.260 7     -1132.080 7        43.077               
G18  23051712.787 7 120976517.502 7      1230.741 7        42.964               
> 2025 01 08 17 43 25.0000000  0  6                                             
G23  25112055.522 6 131964047.956 6      2633.900 6        40.376               
G27  24476063.687 6 128621859.322 6      2529.584 6        40.784               
G29  25789539.407 6 135524280.184 6     -3204.950 6        39.301               
G26  22643258.693 7 118990770.099 7     -1156.511 7        43.975               
G16  22792317.955 7 119941633.287 7     -1133.117 7        42.327               
G18  23051948.408 7 120975286.492 7      1233.031 7        42.924               
> 2025 01 08 17 43 26.0000000  0  6                                             
G23  25111555.261 6 131961410.195 6      2636.012 6        40.777               
G27  24475585.655 6 128619330.198 6      2528.518 6        40.641               
G29  25790156.764 6 135527480.387 6     -3203.959 6        38.850               
G26  22643480.645 7 118991928.521 7     -1160.098 7        43.685               
G16  22792108.352 7 119942764.843 7     -1130.367 7        42.835               
G18  23052185.494 7 120974056.002 7      1232.933 7        42.585               
> 2025 01 08 17 43 27.0000000  0  6                                             
G23  25111058.627 6 131958773.453 6      2637.309 6        40.349               
G27  24475101.011 6 128616801.973 6      2530.396 6        41.058               
G29  25790763.078 6 135530681.401 6     -3206.428 6        39.566               
G26  22643698.629 7 118993088.193 7     -1159.599 7        43.519               
G16  22791895.228 7 119943895.192 7     -1129.940 7        42.823               
G18  23052422.080 7 120972824.304 7      1231.662 7        42.722               
> 2025 01 08 17 43 28.0000000  0  6                                             
G23  25110559.795 6 131956137.375 6      2634.384 6        40.649               
G27  24474618.243 6 128614274.316 6      2525.408 6        41.093               
G29  25791378.934 6 135533882.819 6     -3199.455 6        39.324               
G26  22643924.886 7 118994248.786 7     -1159.342 7        43.950               
G16  22791679.245 7 119945024.669 7     -1130.359 7        43.132               
G18  23052658.827 7 120971591.718 7      1233.005 7        42.442               
> 2025 01 08 17 43 29.0000000  0  6                                             
G23  25110056.889 6 131953500.923 6      2635.168 6        40.115               
G27  24474141.837 6 128611746.174 6      2524.769 6        41.300               
G29  25791986.927 6 135537083.686 6     -3203.343 6        39.869               
G26  22644148.160 7 118995409.255 7     -1160.589 7        43.934               
G16  22791467.265 7 119946154.296 7     -1128.481 7        43.172               
G18  23052898.879 7 120970359.271 7      1235.669 7        42.004               
> 2025 01 08 17 43 30.0000000  0  6                                             
G23  25109558.612 6 131950864.752 6      2635.656 6        40.800               
G27  24473661.411 6 128609218.222 6      2526.066 6        40.903               
G29  25792600.120 6 135540284.596 6     -3202.060 6        39.419               
G26  22644370.164 7 118996570.228 7     -1162.618 7        43.816               
G16  22791254.981 7 119947283.469 7     -1124.779 7        42.739               
G18  23053132.356 7 120969126.363 7      1235.431 7        42.313               
> 2025 01 08 17 43 31.0000000  0  6                                             
G23  25109056.921 6 131948228.936 6      2634.787 6        40.667               
G27  24473175.731 6 128606690.497 6      2525.960 6        40.354               
G29  25793206.774 6 135543485.654 6     -3200.227 6        39.268               
G26  22644593.259 7 118997731.826 7     -1163.225 7        43.859               
G16  22791042.500 7 119948412.065 7     -1128.373 7        42.550               
G18  23053363.706 7 120967892.857 7      1233.071 7        42.714               
> 2025 01 08 17 43 32.0000000  0  6                                             
G23  25108556.303 6 131945593.604 6      2636.099 6        40.269               
G27  24472708.045 6 128604163.161 6      2518.795 6        40.289               
G29  25793812.462 6 135546686.978 6     -3206.235 6        39.216               
G26  22644813.656 7 118998894.143 7     -1164.210 7        43.808               
G16  22790823.533 7 119949540.002 7     -1125.736 7        43.118               
G18  23053605.117 7 120966658.684 7      1233.999 7        42.670               
> 2025 01 08 17 43 33.0000000  0  6                                             
G23  25108059.704 6 131942958.659 6      2635.537 6        40.304               
G27  24472228.190 6 128601636.102 6      2531.641 6        40.724               
G29  25794429.962 6 135549888.461 6     -3202.841 6        39.666               
G26  22645037.769 7 119000057.084 7     -1162.532 7        44.349               
G16  22790616.002 7 119950667.336 7     -1126.992 7        42.703               
G18  23053842.131 7 120965423.909 7      1236.882 7        42.633               
> 2025 01 08 17 43 34.0000000  0  6                                             
G23  25107564.786 6 131940324.254 6      2636.232 6        40.785               
G27  24471743.672 6 128599109.498 6      2522.257 6        40.416               
G29  25795037.759 6 135553090.275 6     -3203.609 6        39.104               
G26  22645261.168 7 119001220.839 7     -1165.505 7        44.289               
G16  22790400.591 7 119951793.912 7     -1126.425 7        42.512               
G18  23054076.877 7 120964188.355 7      1237.306 7        42.267               
> 2025 01 08 17 43 35.0000000  0  6                                             
G23  25107057.824 6 131937690.331 6      2634.893 6        40.672               
G27  24471262.477 6 128596583.250 6      2528.631 6        40.199               
G29  25795651.542 6 135556292.340 6     -3198.442 6        39.289               
G26  22645485.281 7 119002385.299 7     -1163.746 7        44.173               
G16  22790189.308 7 119952919.823 7     -1127.421 7        42.561               
G18  23054315.178 7 120962952.142 7      1237.441 7        42.647               
> 2025 01 08 17 43 36.0000000  0  6                                             
G23  25106556.151 6 131935056.496 6      2629.431 6        39.821               
G27  24470788.340 6 128594056.987 6      2527.921 6        39.761               
G29  25796261.716 6 135559494.314 6     -3203.712 6        39.699               
G26  22645709.805 7 119003550.113 7     -1166.555 7        43.589               
G16  22789976.935 7 119954045.415 7     -1123.671 7        42.828               
G18  23054556.213 7 120961715.585 7      1235.573 7        42.719               
> 2025 01 08 17 43 37.0000000  0  6                                             
G23  25106056.927 6 131932422.981 6      2637.114 6        40.826               
G27  24470308.664 6 128591530.965 6      2525.426 6        40.020               
G29  25796867.136 6 135562696.360 6     -3206.079 6        39.652               
G26  22645935.062 7 119004715.491 7     -1165.219 7        43.438               
G16  22789765.741 7 119955170.492 7     -1122.879 7        42.921               
G18  23054791.709 7 120960478.527 7      1236.235 7        42.570               
> 2025 01 08 17 43 38.0000000  0  6                                             
G23  25105560.990 6 131929790.046 6      2631.946 6        40.858               
G27  24469827.898 6 128589005.397 6      2531.242 6        40.601               
G29  25797482.563 6 135565898.775 6     -3200.077 6        39.347               
G26  22646156.066 7 119005881.685 7     -1165.909 7        43.796               
G16  22789554.243 7 119956294.785 7     -1121.498 7        42.859               
G18  23055028.295 7 120959240.677 7      1238.654 7        43.220               
> 2025 01 08 17 43 39.0000000  0  6                                             
G23  25105066.482 6 131927157.987 6      2627.910 6        40.582               
G27  24469347.811 6 128586480.594 6      2526.380 6        40.456               
G29  25798093.433 6 135569101.849 6     -3201.222 6        39.778               
G26  22646382.288 7 119007049.009 7     -1167.368 7        44.031               
G16  22789339.957 7 119957417.992 7     -1125.277 7        43.180               
G18  23055266.596 7 120958001.716 7      1238.348 7        42.800               
> 2025 01 08 17 43 40.0000000  0  6                                             
G23  25104565.757 6 131924526.308 6      2626.181 6        40.440               
G27  24468873.603 6 128583956.069 6      2524.548 6        40.664               
G29  25798704.447 6 135572305.069 6     -3198.998 6        39.546               
G26  22646600.987 7 119008216.932 7     -1169.799 7        43.633               
G16  22789127.620 7 119958540.632 7     -1124.912 7        42.297               
G18  23055502.843 7 120956762.197 7      1240.811 7        42.581               
> 2025 01 08 17 43 41.0000000  0  6                                             
G23  25104067.139 6 131921894.269 6      2631.898 6        40.705               
G27  24468396.607 6 128581431.078 6      2525.880 6        40.334               
G29  25799316.639 6 135575507.716 6     -3203.828 6        39.949               
G26  22646826.351 7 119009384.751 7     -1166.275 7        44.100               
G16  22788914.299 7 119959663.433 7     -1124.543 7        42.674               
G18  23055741.627 7 120955522.824 7      1237.075 7        42.832               
> 2025 01 08 17 43 42.0000000  0  6                                             
G23  25103570.023 6 131919262.216 6      2630.048 6        40.743               
G27  24467920.862 6 128578905.949 6      2528.006 6        40.795               
G29  25799923.650 6 135578710.138 6     -3205.460 6        39.764               
G26  22647050.214 7 119010552.795 7     -1167.843 7        43.852               
G16  22788703.856 7 119960786.048 7     -1122.265 7        43.155               
G18  23055978.891 7 120954283.255 7      1241.044 7        42.699               
> 2025 01 08 17 43 43.0000000  0  6                                             
G23  25103068.386 6 131916630.630 6      2628.343 6        40.413               
G27  24467444.688 6 128576381.225 6      2521.162 6        40.891               
G29  25800544.634 6 135581912.818 6     -3205.490 6        39.435               
G26  22647276.043 7 119011721.577 7     -1166.962 7        43.458               
G16  22788494.663 7 119961907.957 7     -1123.050 7        42.527               
G18  23056219.105 7 120953042.985 7      1240.977 7        42.504               
> 2025 01 08 17 43 44.0000000  0  6                                             
G23  25102567.982 6 131913999.347 6      2628.625 6        40.809               
G27  24466958.955 6 128573856.669 6      2522.901 6        40.751               
G29  25801152.056 6 135585115.568 6     -3201.407 6        39.928               
G26  22647500.371 7 119012890.900 7     -1171.556 7        43.911               
G16  22788282.629 7 119963029.385 7     -1119.536 7        43.017               
G18  23056455.744 7 120951802.200 7      1239.619 7        42.762               
> 2025 01 08 17 43 46.0000000  0  6                                             
G23  25101565.297 6 131908737.444 6      2631.956 6        40.494               
G27  24466001.425 6 128568807.921 6      2520.297 6        40.597               
G29  25802371.599 6 135591521.106 6     -3204.703 6        39.010               
G26  22647950.170 7 119015230.958 7     -1171.176 7        43.901               
G16  22787858.079 7 119965270.933 7     -1122.047 7        43.655               
G18  23056928.916 7 120949319.347 7      1240.201 7        42.850               
> 2025 01 08 17 43 47.0000000  0  6                                             
G23  25101063.982 6 131906106.977 6      2624.232 6        40.573               
G27  24465523.518 6 128566283.859 6      2523.495 6        40.883               
G29  25802983.452 6 135594723.999 6     -3202.507 6        39.623               
G26  22648171.388 7 119016401.809 7     -1172.162 7        43.643               
G16  22787646.546 7 119966390.940 7     -1122.142 7        43.086               
G18  23057168.450 7 120948077.141 7      1240.724 7        42.756               
> 2025 01 08 17 43 48.0000000  0  6                                             
G23  25100574.943 6 131903476.978 6      2630.155 6        40.014               
G27  24465038.249 6 128563760.170 6      2524.622 6        41.038               
G29  25803598.826 6 135597927.179 6     -3199.795 6        39.423               
G26  22648398.646 7 119017573.395 7     -1172.521 7        43.528               
G16  22787437.925 7 119967510.255 7     -1119.702 7        42.912               
G18  23057404.393 7 120946834.245 7      1240.775 7        42.787               
> 2025 01 08 17 43 49.0000000  0  6                                             
G23  25100076.593 6 131900847.478 6      2630.099 6        39.571               
G27  24464562.219 6 128561236.888 6      2523.190 6        40.439               
G29  25804204.300 6 135601130.617 6     -3203.992 6        39.633               
G26  22648625.065 7 119018745.725 7     -1170.898 7        43.691               
G16  22787224.980 7 119968628.863 7     -1118.762 7        43.253               
G18  23057644.910 7 120945590.611 7      1247.718 7        42.566               
> 2025 01 08 17 43 50.0000000  0  6                                             
G23  25099572.848 6 131898218.570 6      2631.453 6        40.054               
G27  24464092.674 6 128558714.057 6      2523.391 6        40.472               
G29  25804811.543 6 135604334.412 6     -3205.030 6        39.391               
G26  22648849.267 7 119019918.877 7     -1172.062 7        43.677               
G16  22787015.037 7 119969746.696 7     -1118.635 7        42.873               
G18  23057885.212 7 120944346.236 7      1242.715 7        42.151               
> 2025 01 08 17 43 51.0000000  0  6                                             
G23  25099074.624 6 131895590.196 6      2623.553 6        40.509               
G27  24463614.535 6 128556191.695 6      2523.719 6        40.744               
G29  25805432.974 6 135607538.558 6     -3204.915 6        39.587               
G26  22649072.005 7 119021092.818 7     -1175.688 7        43.815               
G16  22786804.147 7 119970863.782 7     -1117.192 7        43.627               
G18  23058116.598 7 120943101.054 7      1247.138 7        42.677               
> 2025 01 08 17 43 52.0000000  0  6                                             
G23  25098575.220 6 131892962.271 6      2623.987 6        40.060               
G27  24463134.412 6 128553669.658 6      2521.622 6        41.277               
G29  25806036.375 6 135610742.883 6     -3199.814 6        39.338               
G26  22649301.336 7 119022267.441 7     -1174.899 7        43.689               
G16  22786591.666 7 119971980.218 7     -1114.187 7        43.112               
G18  23058357.526 6 120941855.261 6      1247.494 6        41.925               
> 2025 01 08 17 43 53.0000000  0  6                                             
G23  25098080.838 6 131890334.579 6      2629.850 6        39.865               
G27  24462654.933 6 128551147.765 6      2519.137 6        41.163               
G29  25806657.038 6 135613947.281 6     -3206.376 6        40.000               
G26  22649521.446 7 119023442.576 7     -1175.085 7        43.839               
G16  22786381.955 7 119973096.193 7     -1118.979 7        43.431               
G18  23058598.437 7 120940608.982 7      1248.557 7        42.393               
> 2025 01 08 17 43 54.0000000  0  6                                             
G23  25097581.363 6 131887707.019 6      2624.116 6        40.317               
G27  24462184.388 6 128548625.837 6      2524.118 6        40.635               
G29  25807260.117 6 135617151.544 6     -3206.707 6        39.453               
G26  22649749.955 7 119024618.050 7     -1177.043 7        43.855               
G16  22786169.117 7 119974211.864 7     -1116.551 7        43.408               
G18  23058839.883 7 120939362.405 7      1246.211 7        42.502               
> 2025 01 08 17 43 55.0000000  0  6                                             
G23  25097088.821 6 131885079.021 6      2624.677 6        40.178               
G27  24461698.064 6 128546103.430 6      2524.906 6        40.413               
G29  25807873.168 6 135620355.171 6     -3200.354 6        39.388               
G26  22649975.320 7 119025793.329 7     -1176.152 7        43.604               
G16  22785961.461 7 119975327.760 7     -1114.232 7        43.104               
G18  23059083.581 7 120938116.032 7      1245.386 7        43.081               
> 2025 01 08 17 43 56.0000000  0  6                                             
G23  25096587.899 6 131882451.965 6      2626.081 6        39.946               
G27  24461226.143 6 128543581.821 6      2519.617 6        41.227               
G29  25808483.984 6 135623559.505 6     -3206.115 6        38.981               
G26  22650197.985 7 119026969.825 7     -1179.487 7        44.127               
G16  22785752.090 7 119976442.495 7     -1113.995 7        42.925               
G18  23059315.395 7 120936868.511 7      1246.057 7        43.055               
> 2025 01 08 17 43 57.0000000  0  6                                             
G23  25096086.298 6 131879826.066 6      2622.414 6        40.399               
G27  24460745.288 6 128541061.278 6      2523.564 6        40.991               
G29  25809091.549 6 135626764.769 6     -3203.940 6        39.188               
G26  22650427.906 7 119028147.687 7     -1173.958 7        43.891               
G16  22785537.501 7 119977555.881 7     -1115.349 7        43.158               
G18  23059559.844 7 120935619.639 7      1247.678 7        42.613               
> 2025 01 08 17 43 58.0000000  0  6                                             
G23  25095586.858 6 131877199.581 6      2627.976 6        40.442               
G27  24460258.661 6 128538540.048 6      2517.597 6        40.874               
G29  25809703.706 6 135629969.245 6     -3203.693 6        39.273               
G26  22650652.448 7 119029325.233 7     -1175.341 7        43.651               
G16  22785329.630 7 119978669.639 7     -1117.750 7        43.004               
G18  23059798.824 7 120934371.130 7      1248.732 7        42.368               
> 2025 01 08 17 43 59.0000000  0  6                                             
G23  25095096.211 6 131874573.477 6      2631.692 6        39.928               
G27  24459778.931 6 128536019.067 6      2516.127 6        41.328               
G29  25810320.545 6 135633173.875 6     -3207.471 6        38.642               
G26  22650877.348 7 119030503.394 7     -1175.289 7        43.490               
G16  22785117.329 7 119979782.834 7     -1110.943 7        43.121               
G18  23060034.802 7 120933122.039 7      1253.470 7        43.322               
> 2025 01 08 17 44 00.0000000  0  6                                             
G23  25094601.543 6 131871948.252 6      2624.242 6        39.699               
G27  24459310.691 6 128533498.882 6      2524.845 6        41.158               
G29  25810933.113 6 135636379.173 6     -3202.935 6        38.707               
G26  22651103.034 7 119031682.675 7     -1182.639 7        43.633               
G16  22784904.026 7 119980894.921 7     -1113.407 7        42.815               
G18  23060272.442 7 120931871.869 7      1247.320 7        42.387               
> 2025 01 08 17 44 01.0000000  0  6                                             
G23  25094104.462 6 131869321.737 6      2624.437 6        39.708               
G27  24458834.535 6 128530977.266 6      2522.388 6        41.234               
G29  25811551.720 6 135639582.899 6     -3207.674 6        39.152               
G26  22651329.970 7 119032860.893 7     -1181.728 7        43.408               
G16  22784700.069 7 119982008.118 7     -1111.114 7        43.506               
G18  23060513.906 7 120930622.771 7      1251.032 7        42.937               
> 2025 01 08 17 44 02.0000000  0  6                                             
G23  25093598.769 6 131866696.885 6      2621.216 6        39.952               
G27  24458353.358 6 128528457.242 6      2520.584 6        40.740               
G29  25812152.209 6 135642788.111 6     -3208.064 6        38.642               
G26  22651560.373 7 119034041.032 7     -1180.503 7        43.510               
G16  22784488.303 7 119983119.447 7     -1110.016 7        43.337               
G18  23060753.048 7 120929371.802 7      1252.754 7        42.866               
> 2025 01 08 17 44 03.0000000  0  6                                             
G23  25093100.527 6 131864071.410 6      2624.719 6        40.044               
G27  24457878.364 6 128525936.476 6      2522.903 6        41.221               
G29  25812758.255 6 135645992.489 6     -3204.862 6        38.664               
G26  22651783.182 7 119035220.801 7     -1178.775 7        43.217               
G16  22784285.847 7 119984231.179 7     -1111.104 7        43.058               
G18  23060996.406 7 120928121.244 7      1248.392 7        42.673               
> 2025 01 08 17 44 04.0000000  0  6                                             
G23  25092606.323 6 131861446.173 6      2624.177 6        39.947               
G27  24457400.761 6 128523415.850 6      2522.043 6        40.878               
G29  25813382.295 6 135649196.878 6     -3198.463 6        38.374               
G26  22652009.261 7 119036401.044 7     -1183.328 7        43.629               
G16  22784072.831 7 119985342.484 7     -1110.379 7        42.909               
G18  23061234.922 7 120926870.243 7      1249.300 7        42.748               
> 2025 01 08 17 44 05.0000000  0  6                                             
G23  25092104.704 6 131858821.306 6      2626.205 6        40.261               
G27  24456919.012 6 128520895.483 6      2518.038 6        40.518               
G29  25813974.563 6 135652401.408 6     -3205.982 6        37.787               
G26  22652239.932 7 119037581.905 7     -1179.720 7        43.677               
G16  22783859.206 7 119986453.208 7     -1108.446 7        42.790               
G18  23061472.329 7 120925618.654 7      1251.067 7        42.531               
> 2025 01 08 17 44 06.0000000  0  6                                             
G23  25091604.693 6 131856196.908 6      2624.811 6        40.265               
G27  24456446.394 6 128518375.493 6      2518.343 6        40.571               
G29  25814603.821 6 135655606.188 6     -3206.220 6        38.448               
G26  22652461.562 7 119038763.448 7     -1182.713 7        43.169               
G16  22783648.888 7 119987563.260 7     -1107.100 7        43.286               
G18  23061721.352 7 120924366.420 7      1255.025 7        43.143               
> 2025 01 08 17 44 07.0000000  0  6                                             
G23  25091109.006 6 131853573.334 6      2622.571 6        39.891               
G27  24455961.125 6 128515856.158 6      2520.311 6        41.227               
G29  25815213.030 6 135658811.557 6     -3209.857 6        38.173               
G26  22652690.821 7 119039946.089 7     -1184.528 7        43.164               
G16  22783438.713 7 119988672.287 7     -1106.528 7        42.940               
G18  23061956.294 7 120923113.134 7      1251.296 7        43.162               
> 2025 01 08 17 44 08.0000000  0  6                                             
G23  25090609.281 6 131850950.814 6      2620.926 6        39.972               
G27  24455492.153 6 128513337.829 6      2524.362 6        40.338               
G29  25815828.063 6 135662017.774 6     -3203.112 6        38.847               
G26  22652917.276 7 119041130.014 7     -1182.367 7        43.372               
G16  22783232.790 7 119989780.059 7     -1107.452 7        42.972               
G18  23062199.670 7 120921858.587 7      1252.279 7        43.349               
> 2025 01 08 17 44 09.0000000  0  6                                             
G23  25090116.078 6 131848328.174 6      2625.689 6        40.259               
G27  24455011.619 6 128510819.250 6      2518.757 6        41.117               
G29  25816436.111 6 135665223.638 6     -3204.068 6        38.078               
G26  22653144.141 7 119042314.055 7     -1183.576 7        43.377               
G16  22783023.990 7 119990887.757 7     -1109.017 7        42.936               
G18  23062435.005 7 120920603.972 7      1251.072 7        43.225               
> 2025 01 08 17 44 10.0000000  0  6                                             
G23  25089626.985 6 131845705.030 6      2620.435 6        40.135               
G27  24454525.188 6 128508300.071 6      2520.040 6        40.636               
G29  25817045.998 6 135668428.779 6     -3208.311 6        38.452               
G26  22653371.381 7 119043497.838 7     -1185.572 7        43.384               
G16  22782819.319 7 119991995.750 7     -1109.791 7        42.953               
G18  23062675.826 7 120919349.644 7      1254.280 7        42.976               
> 2025 01 08 17 44 11.0000000  0  6                                             
G23  25089112.036 6 131843081.664 6      2623.570 6        40.190               
G27  24454048.568 6 128505780.539 6      2519.213 6        40.293               
G29  25817663.266 6 135671633.491 6     -3210.519 6        37.313               
G26  22653599.211 7 119044681.653 7     -1184.982 7        43.725               
G16  22782605.909 7 119993103.756 7     -1108.255 7        42.656               
G18  23062918.201 7 120918095.322 7      1253.617 7        43.261               
> 2025 01 08 17 44 12.0000000  0  6                                             
G23  25088628.983 6 131840459.675 6      2625.007 6        40.374               
G27  24453578.916 6 128503262.309 6      2515.885 6        40.568               
G29  25818269.883 6 135674839.324 6     -3203.198 6        38.436               
G26  22653822.770 7 119045867.079 7     -1188.875 7        43.361               
G16  22782399.397 7 119994210.194 7     -1108.689 7        42.900               
G18  23063157.593 7 120916839.435 7      1257.709 7        43.071               
> 2025 01 08 17 44 13.0000000  0  6                                             
G23  25088125.559 6 131837838.676 6      2618.175 6        39.856               
G27  24453101.259 6 128500744.943 6      2517.049 6        40.036               
G29  25818883.041 6 135678045.950 6     -3205.684 6        37.979               
G26  22654051.065 7 119047053.742 7     -1187.862 7        43.150               
G16  22782193.009 7 119995315.429 7     -1104.992 7        42.681               
G18  23063397.288 7 120915582.322 7      1256.097 7        42.857               
> 2025 01 08 17 44 14.0000000  0  6                                             
G23  25087626.316 6 131835217.839 6      2618.571 6        39.644               
G27  24452614.972 6 128498227.615 6      2513.709 6        41.392               
G29  25819491.696 6 135681252.499 6     -3208.531 6        38.250               
G26  22654280.414 7 119048240.777 7     -1186.698 7        43.650               
G16  22781981.119 7 119996420.330 7     -1106.059 7        43.122               
G18  23063643.451 7 120914324.880 7      1260.279 7        43.207               
> 2025 01 08 17 44 15.0000000  0  6                                             
G23  25087140.582 6 131832596.856 6      2623.817 6        40.121               
G27  24452142.283 6 128495710.072 6      2518.072 6        41.008               
G29  25820116.700 6 135684458.663 6     -3207.839 6        37.939               
G26  22654507.422 7 119049427.954 7     -1186.914 7        43.633               
G16  22781772.444 7 119997525.145 7     -1107.756 7        42.951               
G18  23063880.323 7 120913067.343 7      1256.715 7        42.842               
> 2025 01 08 17 44 16.0000000  0  6                                             
G23  25086640.714 6 131829975.933 6      2623.678 6        40.400               
G27  24451661.052 6 128493192.443 6      2520.379 6        40.765               
G29  25820711.971 6 135687664.719 6     -3206.281 6        38.522               
G26  22654735.288 7 119050615.413 7     -1190.205 7        43.527               
G16  22781564.413 7 119998629.709 7     -1104.553 7        42.405               
G18  23064117.785 7 120911809.547 7      1259.177 7        42.821               
> 2025 01 08 17 44 17.0000000  0  6                                             
G23  25086148.262 6 131827356.356 6      2618.479 6        39.916               
G27  24451190.471 6 128490676.058 6      2514.894 6        40.459               
G29  25821333.009 6 135690871.838 6     -3210.604 6        38.230               
G26  22654965.477 7 119051804.439 7     -1189.199 7        43.516               
G16  22781353.433 7 119999732.751 7     -1105.390 7        43.065               
G18  23064366.164 7 120910550.228 7      1261.220 7        43.278               
> 2025 01 08 17 44 18.0000000  0  6                                             
G23  25085647.840 6 131824736.864 6      2621.896 6        40.108               
G27  24450709.384 6 128488159.668 6      2516.268 6        40.669               
G29  25821940.520 6 135694078.864 6     -3206.714 6        38.768               
G26  22655189.590 7 119052993.814 7     -1193.911 7        43.061               
G16  22781146.814 7 120000835.467 7     -1100.722 7        43.196               
G18  23064605.037 7 120909290.598 7      1260.364 7        43.764               
> 2025 01 08 17 44 19.0000000  0  6                                             
G23  25085151.063 6 131822118.037 6      2621.093 6        39.954               
G27  24450232.852 6 128485643.826 6      2512.631 6        40.473               
G29  25822559.646 6 135697286.308 6     -3206.531 6        38.294               
G26  22655419.314 7 119054184.087 7     -1189.568 7        43.771               
G16  22780940.462 7 120001937.322 7     -1101.806 7        43.057               
G18  23064850.790 7 120908030.099 7      1260.515 7        43.110               
> 2025 01 08 17 44 20.0000000  0  6                                             
G23  25084653.250 6 131819500.014 6      2619.764 6        39.658               
G27  24449763.719 6 128483128.673 6      2512.875 6        40.991               
G29  25823175.716 6 135700494.329 6     -3205.802 6        37.808               
G26  22655644.910 7 119055375.402 7     -1190.556 7        43.286               
G16  22780731.967 7 120003038.184 7     -1103.028 7        43.299               
G18  23065087.983 7 120906768.616 7      1258.692 7        43.251               
> 2025 01 08 17 44 21.0000000  0  6                                             
G23  25084154.829 6 131816881.110 6      2619.196 6        40.358               
G27  24449286.098 6 128480612.550 6      2514.899 6        41.360               
G29  25823773.489 6 135703701.257 6     -3208.400 6        37.900               
G26  22655875.850 7 119056566.083 7     -1190.436 7        43.054               
G16  22780529.225 7 120004139.693 7     -1102.194 7        43.087               
G18  23065328.679 7 120905507.773 7      1258.753 7        42.894               
> 2025 01 08 17 44 22.0000000  0  6                                             
G23  25083656.963 6 131814261.935 6      2619.208 6        39.856               
G27  24448802.920 6 128478096.010 6      2520.784 6        40.451               
G29  25824395.420 6 135706907.678 6     -3207.787 6        38.539               
G26  22656105.770 7 119057756.728 7     -1193.265 7        43.223               
G16  22780317.084 7 120005241.293 7     -1105.451 7        43.207               
G18  23065573.020 7 120904247.003 7      1259.735 7        43.061               
> 2025 01 08 17 44 23.0000000  0  6                                             
G23  25083162.723 6 131811643.481 6      2621.639 6        39.915               
G27  24448333.214 6 128475580.108 6      2515.853 6        40.856               
G29  25824991.334 6 135710114.627 6     -3216.821 6        38.505               
G26  22656328.829 7 119058948.339 7     -1194.025 7        43.053               
G16  22780106.765 7 120006341.978 7     -1101.164 7        43.252               
G18  23065811.625 7 120902985.329 7      1261.797 7        43.220               
> 2025 01 08 17 44 24.0000000  0  6                                             
G23  25082660.443 6 131809026.096 6      2619.004 6        39.415               
G27  24447852.395 6 128473065.197 6      2514.959 6        40.838               
G29  25825623.093 6 135713322.391 6     -3209.700 6        38.327               
G26  22656560.537 7 119060141.278 7     -1192.571 7        43.311               
G16  22779905.614 7 120007441.352 7     -1095.541 7        43.024               
G18  23066055.716 7 120901722.339 7      1261.429 7        43.427               
> 2025 01 08 17 44 25.0000000  0  6                                             
G23  25082163.237 6 131806409.184 6      2618.293 6        39.706               
G27  24447379.866 6 128470550.619 6      2511.305 6        40.282               
G29  25826227.888 6 135716530.393 6     -3207.292 6        37.898               
G26  22656791.083 7 119061334.912 7     -1192.754 7        43.363               
G16  22779693.633 7 120008540.079 7     -1096.620 7        43.178               
G18  23066299.557 7 120900458.710 7      1260.499 7        42.960               
> 2025 01 08 17 44 26.0000000  0  6                                             
G23  25081666.747 6 131803792.999 6      2614.975 6        39.654               
G27  24446904.086 6 128468036.640 6      2514.025 6        40.961               
G29  25826847.211 6 135719738.897 6     -3207.140 6        37.708               
G26  22657020.468 7 119062529.483 7     -1194.134 7        43.171               
G16  22779486.371 7 120009637.897 7     -1097.818 7        43.159               
G18  23066543.040 7 120899194.144 7      1266.252 7        43.022               
> 2025 01 08 17 44 27.0000000  0  6                                             
G23  25081177.296 6 131801177.297 6      2616.698 6        39.940               
G27  24446426.125 6 128465523.062 6      2516.414 6        41.133               
G29  25827456.688 6 135722947.670 6     -3209.965 6        37.877               
G26  22657251.461 7 119063724.816 7     -1196.101 7        43.277               
G16  22779279.447 7 120010735.016 7     -1095.704 7        42.754               
G18  23066784.504 7 120897928.892 7      1261.360 7        42.887               
> 2025 01 08 17 44 28.0000000  0  6                                             
G23  25080676.642 6 131798561.591 6      2613.931 6        39.769               
G27  24445950.559 6 128463009.357 6      2518.028 6        41.211               
G29  25828072.937 6 135726156.232 6     -3206.654 6        37.818               
G26  22657479.898 7 119064920.371 7     -1197.390 7        42.881               
G16  22779073.418 7 120011831.927 7     -1094.466 7        43.454               
G18  23067027.630 7 120896663.433 7      1261.041 7        42.867               
> 2025 01 08 17 44 29.0000000  0  6                                             
G23  25080181.062 6 131795945.748 6      2610.427 6        39.835               
G27  24445472.652 6 128460495.410 6      2509.407 6        41.007               
G29  25828681.931 6 135729364.413 6     -3212.291 6        38.570               
G26  22657707.103 7 119066116.039 7     -1196.755 7        42.821               
G16  22778865.029 7 120012928.781 7     -1099.688 7        43.333               
G18  23067266.110 7 120895397.917 7      1266.090 7        43.371               
> 2025 01 08 17 44 30.0000000  0  6                                             
G23  25079689.289 6 131793329.822 6      2614.143 6        39.417               
G27  24445001.321 6 128457981.296 6      2511.577 6        41.344               
G29  25829296.160 6 135732572.292 6     -3208.342 6        38.351               
G26  22657937.917 7 119067311.860 7     -1195.104 7        43.381               
G16  22778654.049 7 120014025.513 7     -1094.541 7        43.412               
G18  23067513.971 7 120894132.273 7      1264.366 7        43.257               
> 2025 01 08 17 44 31.0000000  0  6                                             
G23  25079193.978 6 131790714.717 6      2614.311 6        40.125               
G27  24444521.663 6 128455467.841 6      2512.450 6        41.249               
G29  25829904.476 6 135735780.761 6     -3206.596 6        38.650               
G26  22658162.406 7 119068508.711 7     -1201.659 7        42.930               
G16  22778452.469 7 120015121.222 7     -1094.872 7        43.273               
G18  23067759.617 7 120892865.604 7      1268.427 7        42.998               
> 2025 01 08 17 44 32.0000000  0  6                                             
G23  25078697.612 6 131788100.264 6      2610.432 6        39.412               
G27  24444041.307 6 128452954.964 6      2509.536 6        41.040               
G29  25830524.191 6 135738989.634 6     -3208.458 6        37.794               
G26  22658397.598 7 119069706.483 7     -1197.967 7        42.672               
G16  22778243.491 7 120016216.080 7     -1093.799 7        43.590               
G18  23067996.506 7 120891598.085 7      1267.495 7        42.734               
> 2025 01 08 17 44 33.0000000  0  6                                             
G23  25078208.197 6 131785486.360 6      2611.082 6        39.628               
G27  24443574.211 6 128450442.523 6      2513.467 6        40.878               
G29  25831133.989 6 135742198.865 6     -3213.386 6        38.335               
G26  22658621.586 7 119070905.046 7     -1199.329 7        42.908               
G16  22778037.193 7 120017310.183 7     -1091.399 7        43.226               
G18  23068244.046 7 120890329.813 7      1268.708 7        42.674               
> 2025 01 08 17 44 34.0000000  0  6                                             
G23  25077709.330 6 131782872.590 6      2609.140 6        39.555               
G27  24443084.850 6 128447930.092 6      2515.956 6        41.003               
G29  25831738.945 6 135745407.980 6     -3210.030 6        37.886               
G26  22658855.366 7 119072103.952 7     -1200.472 7        42.824               
G16  22777832.807 7 120018403.972 7     -1091.626 7        43.152               
G18  23068481.900 7 120889061.220 7      1268.204 7        42.686               
> 2025 01 08 17 44 35.0000000  0  6                                             
G23  25077215.501 6 131780260.194 6      2610.569 6        40.266               
G27  24442611.339 6 128445418.939 6      2507.778 6        40.864               
G29  25832362.199 6 135748618.260 6     -3213.625 6        38.341               
G26  22659086.109 7 119073304.497 7     -1198.503 7        42.386               
G16  22777629.618 7 120019496.166 7     -1092.488 7        43.318               
G18  23068727.456 7 120887791.029 7      1269.121 7        42.655               
> 2025 01 08 17 44 36.0000000  0  6                                             
G23  25076722.906 6 131777647.935 6      2611.828 6        40.021               
G27  24442143.421 6 128442907.810 6      2507.038 6        40.396               
G29  25832975.178 6 135751828.447 6     -3211.106 6        38.588               
G26  22659316.780 7 119074505.409 7     -1201.079 7        42.886               
G16  22777420.158 7 120020588.033 7     -1091.095 7        43.470               
G18  23068969.439 7 120886520.516 7      1270.347 7        42.508               
> 2025 01 08 17 44 37.0000000  0  6                                             
G23  25076220.161 6 131775035.282 6      2609.785 6        39.617               
G27  24441667.408 6 128440396.172 6      2510.738 6        40.873               
G29  25833574.541 6 135755038.004 6     -3212.710 6        37.447               
G26  22659540.340 7 119075706.173 7     -1199.341 7        42.545               
G16  22777214.557 7 120021680.079 7     -1090.028 7        43.032               
G18  23069206.918 7 120885250.167 7      1273.547 7        42.792               
> 2025 01 08 17 44 38.0000000  0  6                                             
G23  25075729.406 6 131772423.030 6      2610.902 6        39.441               
G27  24441183.783 6 128437884.844 6      2510.194 6        40.895               
G29  25834193.595 6 135758247.762 6     -3209.215 6        38.371               
G26  22659772.190 7 119076907.565 7     -1201.764 7        42.735               
G16  22777011.475 7 120022771.535 7     -1090.839 7        43.157               
G18  23069459.675 7 120883979.239 7      1271.192 7        42.425               
> 2025 01 08 17 44 39.0000000  0  6                                             
G23  25075230.342 6 131769811.121 6      2611.143 6        39.245               
G27  24440710.468 6 128435373.751 6      2516.333 6        40.842               
G29  25834802.375 6 135761457.646 6     -3210.889 6        38.603               
G26  22660005.238 7 119078109.573 7     -1202.569 7        43.252               
G16  22776805.070 7 120023862.414 7     -1089.948 7        43.333               
G18  23069701.872 7 120882707.742 7      1271.765 7        42.409               
> 2025 01 08 17 44 40.0000000  0  6                                             
G23  25074731.689 6 131767199.339 6      2614.725 6        39.727               
G27  24440234.687 6 128432862.647 6      2509.144 6        40.627               
G29  25835416.265 6 135764667.367 6     -3208.798 6        38.343               
G26  22660234.658 7 119079311.907 7     -1203.335 7        43.253               
G16  22776603.204 7 120024953.012 7     -1091.382 7        43.313               
G18  23069947.428 7 120881435.938 7      1271.517 7        42.480               
> 2025 01 08 17 44 41.0000000  0  6                                             
G23  25074227.479 6 131764587.471 6      2612.937 6        39.758               
G27  24439755.279 6 128430351.379 6      2514.500 6        40.851               
G29  25836028.458 6 135767876.808 6     -3209.943 6        38.872               
G26  22660469.386 7 119080514.405 7     -1205.595 7        42.841               
G16  22776393.171 7 120026043.468 7     -1092.525 7        43.755               
G18  23070187.552 7 120880164.020 7      1272.465 7        42.473               
> 2025 01 08 17 44 42.0000000  0  6                                             
G23  25073739.780 6 131761976.228 6      2610.133 6        39.576               
G27  24439280.624 6 128427840.595 6      2505.114 6        40.370               
G29  25836644.189 6 135771086.649 6     -3211.571 6        38.760               
G26  22660701.004 7 119081717.771 7     -1204.766 7        43.318               
G16  22776191.055 7 120027133.099 7     -1089.885 7        43.569               
G18  23070435.556 7 120878891.260 7      1275.013 7        43.001               
> 2025 01 08 17 44 43.0000000  0  6                                             
G23  25073248.007 6 131759365.460 6      2612.380 6        39.321               
G27  24438802.575 6 128425330.191 6      2506.798 6        40.620               
G29  25837259.937 6 135774296.726 6     -3202.528 6        38.748               
G26  22660933.373 7 119082921.850 7     -1201.266 7        43.509               
G16  22775987.026 7 120028222.067 7     -1091.032 7        43.345               
G18  23070681.130 7 120877617.819 7      1275.020 7        42.393               
> 2025 01 08 17 44 44.0000000  0  6                                             
G23  25072748.532 6 131756754.920 6      2613.113 6        39.931               
G27  24438336.533 6 128422819.891 6      2509.083 6        40.437               
G29  25837872.970 6 135777506.803 6     -3215.099 6        38.424               
G26  22661164.437 7 119084126.386 7     -1202.776 7        43.269               
G16  22775778.602 7 120029310.606 7     -1088.381 7        43.667               
G18  23070919.986 7 120876343.992 7      1274.955 7        42.918               
> 2025 01 08 17 44 45.0000000  0  6                                             
G23  25072253.595 6 131754144.967 6      2610.967 6        39.722               
G27  24437855.945 6 128420310.079 6      2511.967 6        41.021               
G29  25838480.392 6 135780717.255 6     -3212.436 6        38.948               
G26  22661395.502 7 119085331.756 7     -1203.076 7        43.322               
G16  22775571.822 7 120030398.348 7     -1088.421 7        43.581               
G18  23071168.705 7 120875069.335 7      1273.105 7        42.489               
> 2025 01 08 17 44 46.0000000  0  6                                             
G23  25071766.736 6 131751535.519 6      2614.283 6        39.796               
G27  24437375.018 6 128417800.687 6      2508.943 6        40.874               
G29  25839094.264 6 135783927.971 6     -3211.835 6        39.368               
G26  22661623.850 7 119086537.868 7     -1206.462 7        43.485               
G16  22775367.132 7 120031485.373 7     -1085.493 7        43.608               
G18  23071408.417 7 120873793.980 7      1272.725 7        42.949               
> 2025 01 08 17 44 47.0000000  0  6                                             
G23  25071257.326 6 131748926.566 6      2607.688 6        39.232               
G27  24436894.645 6 128415291.650 6      2506.230 6        40.517               
G29  25839704.723 6 135787138.948 6     -3210.559 6        39.208               
G26  22661855.236 7 119087744.691 7     -1207.913 7        43.409               
G16  22775162.800 7 120032571.735 7     -1086.075 7        43.741               
G18  23071656.100 7 120872517.942 7      1277.112 7        42.898               
> 2025 01 08 17 44 48.0000000  0  6                                             
G23  25070776.077 6 131746317.668 6      2610.120 6        39.107               
G27  24436417.346 6 128412782.575 6      2509.227 6        40.675               
G29  25840316.023 6 135790349.753 6     -3211.204 6        38.428               
G26  22662087.533 7 119088951.826 7     -1206.796 7        43.325               
G16  22774957.931 7 120033657.826 7     -1082.512 7        43.631               
G18  23071899.244 7 120871241.646 7      1275.879 7        42.403               
> 2025 01 08 17 44 49.0000000  0  6                                             
G23  25070279.211 6 131743709.234 6      2611.823 6        39.082               
G27  24435945.103 6 128410273.826 6      2506.061 6        40.362               
G29  25840929.180 6 135793560.794 6     -3214.956 6        39.116               
G26  22662321.921 7 119090159.660 7     -1207.086 7        43.440               
G16  22774752.491 7 120034743.248 7     -1085.822 7        43.641               
G18  23072144.371 7 120869964.677 7      1278.708 7        42.996               
> 2025 01 08 17 44 50.0000000  0  6                                             
G23  25069784.096 6 131741101.368 6      2608.336 6        39.888               
G27  24435463.354 6 128407765.557 6      2506.392 6        40.495               
G29  25841544.536 6 135796772.194 6     -3214.846 6        38.818               
G26  22662550.984 7 119091368.297 7     -1210.535 7        43.496               
G16  22774548.713 7 120035827.906 7     -1085.988 7        43.019               
G18  23072390.142 7 120868686.949 7      1275.542 7        42.926               
> 2025 01 08 17 44 51.0000000  0  6                                             
G23  25069292.234 6 131738493.925 6      2607.206 6        39.237               
G27  24434983.303 6 128405257.578 6      2509.141 6        39.993               
G29  25842159.069 6 135799983.770 6     -3206.413 6        38.699               
G26  22662784.675 7 119092577.574 7     -1209.906 7        43.427               
G16  22774341.146 7 120036911.959 7     -1086.503 7        43.208               
G18  23072634.929 7 120867408.604 7      1276.732 7        43.112               
> 2025 01 08 17 44 52.0000000  0  6                                             
G23  25068809.002 6 131735886.677 6      2610.532 6        39.480               
G27  24434519.459 6 128402749.705 6      2510.204 6        39.722               
G29  25842777.481 6 135803195.325 6     -3207.029 6        38.916               
G26  22663014.917 7 119093787.319 7     -1211.077 7        43.644               
G16  22774137.493 7 120037995.585 7     -1084.199 7        43.091               
G18  23072881.379 7 120866129.846 7      1279.938 7        42.709               
> 2025 01 08 17 44 53.0000000  0  6                                             
G23  25068302.969 6 131733279.950 6      2606.389 6        40.107               
G27  24434039.140 6 128400242.239 6      2510.110 6        39.979               
G29  25843398.769 6 135806407.168 6     -3212.823 6        39.200               
G26  22663246.071 7 119094997.813 7     -1213.240 7        43.934               
G16  22773933.375 7 120039078.509 7     -1082.907 7        43.642               
G18  23073126.613 7 120864850.380 7      1278.605 7        42.916               
> 2025 01 08 17 44 54.0000000  0  6                                             
G23  25067810.910 6 131730673.476 6      2609.399 6        39.892               
G27  24433562.198 6 128397734.930 6      2506.413 6        39.821               
G29  25844004.743 6 135809619.062 6     -3213.762 6        39.260               
G26  22663478.815 7 119096208.791 7     -1210.701 7        43.734               
G16  22773729.579 7 120040160.966 7     -1082.244 7        43.814               
G18  23073367.935 7 120863570.451 7      1278.546 7        42.500               
> 2025 01 08 17 44 55.0000000  0  6                                             
G23  25067317.564 6 131728067.286 6      2610.319 6        39.790               
G27  24433087.168 6 128395227.765 6      2507.003 6        39.850               
G29  25844616.918 6 135812830.968 6     -3212.589 6        39.199               
G26  22663713.811 7 119097420.284 7     -1208.948 7        43.489               
G16  22773526.676 7 120041242.952 7     -1083.540 7        43.606               
G18  23073623.229 7 120862290.051 7      1279.560 7        42.865               
> 2025 01 08 17 44 56.0000000  0  6                                             
G23  25066821.806 6 131725461.685 6      2604.720 6        39.399               
G27  24432620.036 6 128392721.073 6      2506.130 6        40.279               
G29  25845216.263 6 135816043.226 6     -3213.104 6        39.239               
G26  22663946.072 7 119098632.590 7     -1213.917 7        43.714               
G16  22773318.645 7 120042324.180 7     -1079.910 7        44.004               
G18  23073863.049 7 120861008.885 7      1281.421 7        42.694               
> 2025 01 08 17 44 57.0000000  0  6                                             
G23  25066328.638 6 131722856.682 6      2600.167 6        38.902               
G27  24432136.589 6 128390214.886 6      2504.986 6        40.517               
G29  25845844.287 6 135819255.892 6     -3213.604 6        38.916               
G26  22664177.208 7 119099845.747 7     -1214.149 7        43.277               
G16  22773120.674 7 120043404.573 7     -1083.402 7        43.775               
G18  23074106.372 7 120859726.884 7      1281.885 7        42.702               
> 2025 01 08 17 44 58.0000000  0  6                                             
G23  25065830.486 6 131720251.846 6      2602.974 6        39.713               
G27  24431665.901 6 128387708.750 6      2505.678 6        39.393               
G29  25846472.241 6 135822468.482 6     -3210.343 6        39.561               
G26  22664409.773 7 119101059.310 7     -1214.299 7        43.939               
G16  22772913.465 7 120044484.589 7     -1078.446 7        43.749               
G18  23074356.020 7 120858444.524 7      1285.246 7        42.755               
> 2025 01 08 17 44 59.0000000  0  6                                             
G23  25065334.853 6 131717646.946 6      2606.280 6        39.506               
G27  24431197.215 6 128385202.447 6      2505.626 6        39.675               
G29  25847073.962 6 135825680.784 6     -3214.219 6        38.929               
G26  22664643.214 7 119102273.041 7     -1214.223 7        44.176               
G16  22772711.259 7 120045564.489 7     -1079.871 7        43.731               
G18  23074604.185 7 120857162.033 7      1278.584 7        42.682               
> 2025 01 08 17 45 00.0000000  0  6                                             
G23  25064832.072 6 131715042.403 6      2605.082 6        39.882               
G27  24430713.196 6 128382696.395 6      2508.552 6        40.418               
G29  25847683.778 6 135828893.209 6     -3210.496 6        39.430               
G26  22664876.530 7 119103487.369 7     -1215.117 7        43.929               
G16  22772505.837 7 120046643.817 7     -1080.866 7        44.048               
G18  23074847.025 7 120855878.986 7      1282.693 7        42.659               
> 2025 01 08 17 45 01.0000000  0  6                                             
G23  25064344.391 6 131712438.317 6      2605.601 6        39.383               
G27  24430231.162 6 128380190.652 6      2506.132 6        39.984               
G29  25848292.701 6 135832105.847 6     -3212.136 6        39.291               
G26  22665107.452 7 119104702.371 7     -1214.422 7        43.649               
G16  22772305.972 7 120047722.511 7     -1079.509 7        43.255               
G18  23075093.171 7 120854595.297 7      1283.301 7        42.386               
> 2025 01 08 17 45 02.0000000  0  6                                             
G23  25063848.865 6 131709834.452 6      2601.068 6        39.771               
G27  24429766.996 6 128377685.071 6      2506.166 6        39.654               
G29  25848906.180 6 135835318.484 6     -3210.910 6        39.127               
G26  22665343.448 7 119105917.849 7     -1216.969 7        43.482               
G16  22772101.068 7 120048800.773 7     -1077.809 7        43.416               
G18  23075335.511 7 120853311.190 7      1283.859 7        42.466               
> 2025 01 08 17 45 03.0000000  0  6                                             
G23  25063351.838 6 131707231.131 6      2601.499 6        39.692               
G27  24429292.252 6 128375179.873 6      2500.705 6        39.689               
G29  25849518.980 6 135838531.434 6     -3213.111 6        38.673               
G26  22665574.995 7 119107134.085 7     -1215.290 7        44.083               
G16  22771896.342 7 120049878.299 7     -1076.594 7        43.901               
G18  23075588.107 7 120852026.340 7      1284.253 7        42.720               
> 2025 01 08 17 45 04.0000000  0  6                                             
G23  25062865.139 6 131704628.365 6      2605.573 6        39.633               
G27  24428812.826 6 128372675.137 6      2502.167 6        39.921               
G29  25850124.544 6 135841744.710 6     -3215.006 6        38.667               
G26  22665810.901 7 119108351.137 7     -1217.654 7        43.430               
G16  22771693.440 7 120050955.051 7     -1076.381 7        43.097               
G18  23075833.395 7 120850740.717 7      1288.045 7        42.739               
> 2025 01 08 17 45 05.0000000  0  6                                             
G23  25062371.007 6 131702026.465 6      2602.006 6        40.753               
G27  24428345.318 6 128370171.183 6      2505.364 6        40.403               
G29  25850747.958 6 135844958.633 6     -3217.959 6        38.383               
G26  22666038.177 7 119109569.276 7     -1219.249 7        42.975               
G16  22771489.786 7 120052030.750 7     -1072.749 7        43.357               
G18  23076079.452 7 120849454.049 7      1283.958 7        42.638               
> 2025 01 08 17 45 06.0000000  0  6                                             
G23  25061880.395 6 131699424.956 6      2601.102 6        40.334               
G27  24427873.308 6 128367667.469 6      2506.571 6        40.458               
G29  25851356.952 6 135848172.700 6     -3214.165 6        38.469               
G26  22666272.780 7 119110788.038 7     -1217.097 7        43.394               
G16  22771284.739 7 120053105.873 7     -1078.353 7        43.204               
G18  23076328.653 7 120848166.805 7      1286.700 7        42.701               
> 2025 01 08 17 45 07.0000000  0  6                                             
G23  25061394.769 6 131696823.160 6      2604.907 6        40.225               
G27  24427396.992 6 128365163.370 6      2502.100 6        40.798               
G29  25851969.681 6 135851386.266 6     -3215.825 6        38.377               
G26  22666505.631 7 119112006.741 7     -1216.646 7        43.906               
G16  22771084.535 7 120054181.068 7     -1076.528 7        43.811               
G18  23076566.525 7 120846879.642 7      1287.083 7        42.755               
> 2025 01 08 17 45 08.0000000  0  6                                             
G23  25060899.868 6 131694221.659 6      2601.238 6        40.529               
G27  24426922.891 6 128362659.444 6      2505.506 6        40.389               
G29  25852585.394 6 135854599.868 6     -3212.096 6        38.295               
G26  22666744.236 7 119113225.975 7     -1221.239 7        43.561               
G16  22770878.880 7 120055255.783 7     -1075.853 7        43.473               
G18  23076813.189 7 120845591.990 7      1288.395 7        42.701               
> 2025 01 08 17 45 09.0000000  0  6                                             
G23  25060406.022 6 131691620.598 6      2602.650 6        40.599               
G27  24426443.751 6 128360155.853 6      2504.239 6        40.360               
G29  25853196.961 6 135857813.701 6     -3213.409 6        38.589               
G26  22666977.087 7 119114445.884 7     -1218.411 7        43.868               
G16  22770679.265 7 120056329.851 7     -1073.647 7        43.294               
G18  23077061.086 7 120844303.701 7      1288.998 7        43.083               
> 2025 01 08 17 45 10.0000000  0  6                                             
G23  25059903.706 6 131689019.945 6      2599.726 6        40.910               
G27  24425960.179 6 128357652.572 6      2498.744 6        39.511               
G29  25853817.267 6 135861027.723 6     -3211.760 6        37.839               
G26  22667209.349 7 119115666.454 7     -1220.346 7        43.640               
G16  22770476.738 7 120057403.296 7     -1072.749 7        43.166               
G18  23077312.664 7 120843014.790 7      1291.450 7        43.444               
> 2025 01 08 17 45 11.0000000  0  6                                             
G23  25059417.276 6 131686419.773 6      2602.675 6        40.836               
G27  24425493.047 6 128355149.640 6      2503.611 6        40.079               
G29  25854430.103 6 135864241.986 6     -3219.018 6        38.252               
G26  22667444.255 7 119116887.733 7     -1220.385 7        43.400               
G16  22770270.261 7 120058476.071 7     -1073.214 7        43.145               
G18  23077554.128 7 120841725.210 7      1286.978 7        42.650               
> 2025 01 08 17 45 12.0000000  0  6                                             
G23  25058928.701 6 131683819.983 6      2598.453 6        40.417               
G27  24425020.572 6 128352646.998 6      2502.066 6        40.225               
G29  25855044.333 6 135867456.406 6     -3211.226 6        37.344               
G26  22667677.035 7 119118109.624 7     -1220.232 7        43.479               
G16  22770071.754 7 120059548.249 7     -1072.008 7        43.981               
G18  23077803.062 7 120840435.045 7      1292.167 7        42.938               
> 2025 01 08 17 45 13.0000000  0  6                                             
G23  25058426.974 6 131681220.440 6      2598.111 6        40.601               
G27  24424541.933 6 128350144.455 6      2499.210 6        40.176               
G29  25855659.760 6 135870670.807 6     -3212.261 6        38.098               
G26  22667912.477 7 119119331.987 7     -1226.033 7        43.607               
G16  22769871.585 7 120060620.017 7     -1072.936 7        43.480               
G18  23078050.351 7 120839144.466 7      1290.124 7        43.122               
> 2025 01 08 17 45 14.0000000  0  6                                             
G23  25057941.723 6 131678621.064 6      2598.543 6        40.524               
G27  24424062.685 6 128347642.009 6      2503.292 6        40.116               
G29  25856265.412 6 135873885.194 6     -3213.944 6        37.946               
G26  22668146.043 7 119120554.782 7     -1221.901 7        43.733               
G16  22769668.522 7 120061691.388 7     -1069.301 7        43.694               
G18  23078297.444 7 120837853.486 7      1289.885 7        43.019               
> 2025 01 08 17 45 15.0000000  0  6                                             
G23  25057442.999 6 131676021.833 6      2601.441 6        40.708               
G27  24423595.643 6 128345139.580 6      2505.549 6        39.610               
G29  25856877.248 6 135877099.471 6     -3217.496 6        37.594               
G26  22668381.074 7 119121777.932 7     -1220.855 7        43.651               
G16  22769465.244 7 120062762.437 7     -1068.670 7        43.961               
G18  23078548.718 7 120836562.179 7      1292.435 7        42.505               
> 2025 01 08 17 45 16.0000000  0  6                                             
G23  25056952.583 6 131673422.900 6      2598.312 6        40.845               
G27  24423116.271 6 128342637.329 6      2498.250 6        40.375               
G29  25857493.354 6 135880313.788 6     -3210.266 6        37.849               
G26  22668616.892 7 119123001.610 7     -1223.215 7        43.534               
G16  22769262.502 7 120063832.973 7     -1069.199 7        43.480               
G18  23078794.507 7 120835270.394 7      1291.692 7        43.170               
> 2025 01 08 17 45 17.0000000  0  6                                             
G23  25056459.345 6 131670824.409 6      2595.474 6        40.615               
G27  24422641.884 6 128340135.411 6      2502.886 6        40.246               
G29  25858107.351 6 135883528.364 6     -3210.837 6        37.317               
G26  22668851.030 7 119124225.977 7     -1224.340 7        43.598               
G16  22769060.653 7 120064902.860 7     -1072.300 7        43.208               
G18  23079043.226 7 120833977.946 7      1291.942 7        42.816               
> 2025 01 08 17 45 18.0000000  0  6                                             
G23  25055957.726 6 131668226.120 6      2602.529 6        40.490               
G27  24422171.392 6 128337633.582 6      2503.243 6        40.843               
G29  25858723.118 6 135886742.881 6     -3214.098 6        36.640               
G26  22669086.240 7 119125450.766 7     -1222.659 7        42.891               
G16  22768860.663 7 120065972.378 7     -1070.625 7        43.005               
G18  23079290.890 7 120832685.118 7      1294.695 7        42.891               
> 2025 01 08 17 45 19.0000000  0  6                                             
G23  25055469.151 6 131665628.032 6      2595.914 6        40.430               
G27  24421689.125 6 128335131.839 6      2501.464 6        40.957               
G29  25859320.318 6 135889957.384 6     -3211.456 6        37.170               
G26  22669322.557 7 119126675.995 7     -1225.092 7        43.640               
G16  22768657.260 7 120067041.477 7     -1065.914 7        42.880               
G18  23079539.037 7 120831391.899 7      1295.013 7        43.113               
> 2025 01 08 17 45 20.0000000  0  6                                             
G23  25054980.790 6 131663030.458 6      2595.664 6        41.074               
G27  24421226.282 6 128332630.482 6      2499.808 6        40.323               
G29  25859946.753 6 135893172.145 6     -3216.572 6        37.786               
G26  22669555.480 7 119127901.971 7     -1225.234 7        43.975               
G16  22768461.183 7 120068109.866 7     -1067.930 7        43.286               
G18  23079787.417 7 120830097.970 7      1294.817 7        43.409               
> 2025 01 08 17 45 21.0000000  0  6                                             
G23  25054486.944 6 131660433.271 6      2594.011 6        40.536               
G27  24420752.181 6 128330129.446 6      2499.609 6        40.687               
G29  25860560.607 6 135896387.058 6     -3219.129 6        37.506               
G26  22669791.351 7 119129128.573 7     -1224.577 7        43.944               
G16  22768258.799 7 120069177.658 7     -1064.653 7        43.053               
G18  23080039.209 7 120828803.448 7      1293.984 7        42.993               
> 2025 01 08 17 45 22.0000000  0  6                                             
G23  25053989.685 6 131657836.356 6      2598.753 6        40.476               
G27  24420277.705 6 128327628.524 6      2498.433 6        39.979               
G29  25861182.556 6 135899602.010 6     -3218.197 6        37.204               
G26  22670027.169 7 119130355.655 7     -1227.116 7        43.610               
G16  22768055.378 7 120070245.002 7     -1067.722 7        42.664               
G18  23080281.084 7 120827508.480 7      1295.310 7        43.121               
> 2025 01 08 17 45 23.0000000  0  6                                             
G23  25053508.025 6 131655239.766 6      2594.438 6        40.194               
G27  24419796.760 6 128325127.838 6      2494.096 6        40.504               
G29  25861782.562 6 135902817.082 6     -3215.406 6        37.553               
G26  22670261.950 7 119131583.316 7     -1227.601 7        43.662               
G16  22767854.369 7 120071311.804 7     -1065.950 7        42.780               
G18  23080530.965 7 120826212.968 7      1297.140 7        43.168               
> 2025 01 08 17 45 24.0000000  0  6                                             
G23  25053008.997 6 131652643.746 6      2595.962 6        40.909               
G27  24419334.292 6 128322627.589 6      2496.819 6        40.310               
G29  25862403.475 6 135906032.458 6     -3212.982 6        36.754               
G26  22670496.963 7 119132811.775 7     -1230.514 7        43.790               
G16  22767652.914 7 120072377.851 7     -1064.316 7        43.210               
G18  23080776.557 7 120824916.704 7      1293.694 7        43.200               
> 2025 01 08 17 45 25.0000000  0  6                                             
G23  25052517.277 6 131650048.099 6      2598.006 6        40.119               
G27  24418865.301 6 128320127.615 6      2500.797 6        40.731               
G29  25863012.594 6 135909248.012 6     -3213.856 6        37.127               
G26  22670734.586 7 119134040.847 7     -1231.845 7        43.850               
G16  22767452.495 7 120073443.302 7     -1067.281 7        43.616               
G18  23081032.780 7 120823619.871 7      1296.815 7        42.952               
> 2025 01 08 17 45 26.0000000  0  6                                             
G23  25052033.206 6 131647452.656 6      2594.560 6        40.790               
G27  24418375.601 6 128317627.733 6      2495.786 6        39.963               
G29  25863629.844 6 135912463.508 6     -3221.060 6        36.367               
G26  22670971.296 7 119135270.348 7     -1230.751 7        43.939               
G16  22767252.183 7 120074508.367 7     -1064.434 7        43.806               
G18  23081276.961 7 120822322.635 7      1300.648 7        43.364               
> 2025 01 08 17 45 27.0000000  0  6                                             
G23  25051539.074 6 131644857.619 6      2596.563 6        40.925               
G27  24417904.020 6 128315128.131 6      2501.017 6        39.995               
G29  25864233.585 6 135915679.169 6     -3218.801 6        36.586               
G26  22671203.683 7 119136500.478 7     -1231.624 7        43.579               
G16  22767050.102 7 120075572.829 7     -1064.215 7        44.172               
G18  23081526.770 7 120821024.816 7      1298.639 7        43.289               
> 2025 01 08 17 45 28.0000000  0  6                                             
G23  25051045.281 6 131642263.480 6      2594.733 6        40.148               
G27  24417435.011 6 128312629.327 6      2498.175 6        40.317               
G29  25864847.243 6 135918895.524 6     -3215.279 6        37.034               
G26  22671438.625 7 119137731.749 7     -1233.395 7        43.813               
G16  22766850.899 7 120076636.192 7     -1062.149 7        43.517               
G18  23081774.827 7 120819725.891 7      1300.107 7        43.370               
> 2025 01 08 17 45 29.0000000  0  6                                             
G23  25050550.059 6 131639670.103 6      2592.367 6        40.346               
G27  24416965.485 6 128310131.167 6      2497.397 6        40.450               
G29  25865476.911 6 135922112.385 6     -3218.178 6        36.922               
G26  22671676.908 7 119138964.022 7     -1229.581 7        43.415               
G16  22766649.533 7 120077698.599 7     -1060.937 7        43.834               
G18  23082023.403 7 120818426.009 7      1299.974 7        43.233               
> 2025 01 08 17 45 30.0000000  0  6                                             
G23  25050059.429 6 131637075.838 6      2592.755 6        39.823               
G27  24416484.093 6 128307632.018 6      2498.728 6        40.228               
G29  25866079.151 6 135925328.151 6     -3213.409 6        37.013               
G26  22671913.351 7 119140195.641 7     -1231.468 7        43.555               
G16  22766452.527 7 120078761.660 7     -1059.877 7        43.665               
G18  23082275.392 7 120817126.805 7      1301.401 7        43.143               
> 2025 01 08 17 45 31.0000000  0  6                                             
G23  25049565.208 6 131634482.077 6      2595.662 6        40.615               
G27  24416008.563 6 128305133.223 6      2496.502 6        40.698               
G29  25866691.558 6 135928544.142 6     -3214.680 6        36.494               
G26  22672148.365 7 119141427.973 7     -1235.602 7        43.383               
G16  22766249.749 7 120079824.076 7     -1061.602 7        43.927               
G18  23082522.860 7 120815826.945 7      1299.354 7        43.216               
> 2025 01 08 17 45 32.0000000  0  6                                             
G23  25049075.293 6 131631888.747 6      2594.006 6        39.716               
G27  24415542.575 6 128302634.772 6      2497.013 6        40.999               
G29  25867314.973 6 135931760.381 6     -3215.452 6        37.079               
G26  22672388.632 7 119142660.985 7     -1232.488 7        43.607               
G16  22766052.278 7 120080885.812 7     -1060.958 7        43.759               
G18  23082773.366 7 120814526.422 7      1302.768 7        43.303               
> 2025 01 08 17 45 33.0000000  0  6                                             
G23  25048580.035 6 131629296.332 6      2589.553 6        39.590               
G27  24415071.422 6 128300137.139 6      2496.842 6        40.801               
G29  25867917.641 6 135934977.271 6     -3217.951 6        37.247               
G26  22672622.394 7 119143895.142 7     -1233.768 7        43.683               
G16  22765848.321 7 120081946.446 7     -1060.598 7        44.111               
G18  23083025.945 7 120813224.817 7      1301.328 7        43.792               
> 2025 01 08 17 45 34.0000000  0  6                                             
G23  25048094.283 6 131626704.572 6      2590.587 6        40.204               
G27  24414591.103 6 128297640.012 6      2492.394 6        40.949               
G29  25868529.691 6 135938194.572 6     -3214.389 6        37.601               
G26  22672859.248 7 119145130.173 7     -1232.940 7        43.512               
G16  22765650.976 7 120083006.236 7     -1059.475 7        43.716               
G18  23083276.701 7 120811922.362 7      1301.097 7        42.884               
> 2025 01 08 17 45 35.0000000  0  6                                             
G23  25047603.886 6 131624112.751 6      2589.104 6        40.081               
G27  24414110.873 6 128295142.740 6      2495.924 6        39.992               
G29  25869147.245 6 135941411.594 6     -3218.267 6        36.944               
G26  22673097.264 7 119146365.395 7     -1236.299 7        43.644               
G16  22765450.610 7 120084065.864 7     -1060.627 7        43.924               
G18  23083524.902 7 120810619.762 7      1304.219 7        42.994               
> 2025 01 08 17 45 36.0000000  0  6                                             
G23  25047116.276 6 131621521.257 6      2591.567 6        40.152               
G27  24413634.270 6 128292645.633 6      2494.831 6        40.246               
G29  25869761.206 6 135944628.684 6     -3214.847 6        37.228               
G26  22673332.348 7 119147601.148 7     -1236.350 7        44.035               
G16  22765248.601 7 120085124.989 7     -1058.385 7        44.045               
G18  23083769.171 7 120809316.665 7      1304.132 7        43.130               
> 2025 01 08 17 45 37.0000000  0  6                                             
G23  25046622.787 6 131618930.172 6      2589.880 6        40.587               
G27  24413169.086 6 128290148.870 6      2497.964 6        39.700               
G29  25870365.358 6 135947845.992 6     -3213.619 6        36.238               
G26  22673571.079 7 119148837.562 7     -1235.195 7        44.053               
G16  22765048.557 7 120086183.491 7     -1060.420 7        43.959               
G18  23084019.498 7 120808012.951 7      1300.966 7        43.549               
> 2025 01 08 17 45 38.0000000  0  6                                             
G23  25046129.924 6 131616339.380 6      2590.912 6        40.840               
G27  24412692.287 6 128287652.232 6      2495.009 6        40.051               
G29  25870986.467 6 135951063.311 6     -3213.280 6        37.039               
G26  22673806.539 7 119150074.478 7     -1238.130 7        43.861               
G16  22764853.839 7 120087241.531 7     -1058.707 7        43.847               
G18  23084265.072 7 120806708.770 7      1301.608 7        42.886               
> 2025 01 08 17 45 39.0000000  0  6                                             
G23  25045634.702 6 131613748.812 6      2592.071 6        40.047               
G27  24412220.330 6 128285155.771 6      2492.992 6        39.834               
G29  25871605.808 6 135954280.646 6     -3216.614 6        36.947               
G26  22674044.858 7 119151311.878 7     -1239.201 7        43.548               
G16  22764648.470 7 120088299.114 7     -1056.885 7        43.837               
G18  23084518.419 7 120805404.132 7      1304.570 7        42.790               
> 2025 01 08 17 45 40.0000000  0  6                                             
G23  25045147.467 6 131611158.668 6      2589.839 6        40.804               
G27  24411741.369 6 128282659.597 6      2495.716 6        39.381               
G29  25872221.914 6 135957498.173 6     -3219.094 6        37.143               
G26  22674283.213 7 119152549.909 7     -1236.968 7        43.705               
G16  22764451.375 7 120089356.098 7     -1054.643 7        43.684               
G18  23084773.732 7 120804098.919 7      1302.067 7        43.053               
> 2025 01 08 17 45 41.0000000  0  6                                             
G23  25044657.391 6 131608569.114 6      2591.884 6        40.435               
G27  24411272.861 6 128280163.878 6      2494.056 6        40.417               
G29  25872837.662 6 135960716.028 6     -3209.043 6        36.740               
G26  22674516.779 7 119153788.761 7     -1240.429 7        43.659               
G16  22764254.655 7 120090412.303 7     -1051.501 7        43.645               
G18  23085017.930 7 120802792.911 7      1303.854 7        43.184               
> 2025 01 08 17 45 42.0000000  0  6                                             
G23  25044158.291 6 131605979.511 6      2594.166 6        40.635               
G27  24410799.707 6 128277668.022 6      2497.447 6        40.267               
G29  25873457.789 6 135963933.661 6     -3217.201 6        36.960               
G26  22674756.974 7 119155027.829 7     -1241.200 7        43.761               
G16  22764054.325 7 120091468.315 7     -1055.720 7        44.101               
G18  23085267.900 7 120801486.735 7      1301.772 7        43.343               
> 2025 01 08 17 45 43.0000000  0  6                                             
G23  25043678.294 6 131603389.483 6      2588.033 6        40.054               
G27  24410327.411 6 128275171.595 6      2496.474 6        40.318               
G29  25874067.980 6 135967150.570 6     -3220.058 6        37.175               
G26  22674994.650 7 119156266.649 7     -1238.015 7        43.606               
G16  22763856.711 7 120092524.626 7     -1058.669 7        43.532               
G18  23085522.408 7 120800180.851 7      1307.145 7        43.218               
> 2025 01 08 17 45 44.0000000  0  6                                             
G23  25043173.726 6 131600800.154 6      2583.709 6        40.016               
G27  24409860.172 6 128272675.756 6      2492.461 6        40.015               
G29  25874678.583 6 135970367.946 6     -3217.288 6        37.118               
G26  22675235.346 7 119157506.418 7     -1239.275 7        44.176               
G16  22763656.614 7 120093580.005 7     -1058.305 7        43.951               
G18  23085774.058 7 120798874.043 7      1307.620 7        43.769               
> 2025 01 08 17 45 45.0000000  0  6                                             
G23  25042687.206 6 131598211.442 6      2588.622 6        39.465               
G27  24409393.486 6 128270180.451 6      2498.899 6        40.171               
G29  25875295.636 6 135973585.755 6     -3218.582 6        37.091               
G26  22675468.822 7 119158747.049 7     -1242.793 7        43.726               
G16  22763457.929 7 120094634.560 7     -1053.037 7        43.995               
G18  23086021.043 7 120797566.422 7      1308.701 7        43.119               
> 2025 01 08 17 45 46.0000000  0  6                                             
G23  25042195.469 6 131595623.034 6      2591.522 6        40.165               
G27  24408913.221 6 128267685.312 6      2495.733 6        40.356               
G29  25875908.079 6 135976803.581 6     -3218.976 6        36.924               
G26  22675706.731 7 119159988.191 7     -1243.158 7        43.970               
G16  22763261.083 7 120095688.635 7     -1056.588 7        43.960               
G18  23086273.479 7 120796258.321 7      1308.294 7        42.924               
> 2025 01 08 17 45 47.0000000  0  6                                             
G23  25041705.768 6 131593034.973 6      2589.692 6        40.252               
G27  24408442.836 6 128265190.431 6      2496.827 6        40.520               
G29  25876523.130 6 135980021.537 6     -3218.663 6        37.659               
G26  22675949.160 7 119161229.935 7     -1244.620 7        43.432               
G16  22763061.308 7 120096742.131 7     -1052.958 7        43.693               
G18  23086528.935 7 120794949.670 7      1307.387 7        43.393               
> 2025 01 08 17 45 48.0000000  0  6                                             
G23  25041222.000 6 131590447.330 6      2587.787 6        39.818               
G27  24407963.679 6 128262695.805 6      2495.955 6        40.053               
G29  25877133.036 6 135983239.656 6     -3217.822 6        37.979               
G26  22676184.870 7 119162472.311 7     -1240.549 7        43.603               
G16  22762866.553 7 120097795.044 7     -1055.276 7        43.683               
G18  23086775.652 7 120793640.419 7      1308.882 7        43.458               
> 2025 01 08 17 45 49.0000000  0  6                                             
G23  25040731.370 6 131587859.870 6      2586.868 6        39.724               
G27  24407498.191 6 128260201.273 6      2498.054 6        39.897               
G29  25877747.159 6 135986457.735 6     -3219.274 6        37.562               
G26  22676425.351 7 119163715.101 7     -1245.580 7        44.091               
G16  22762665.473 7 120098847.566 7     -1050.193 7        43.905               
G18  23087026.837 7 120792330.789 7      1311.282 7        43.178               
> 2025 01 08 17 45 50.0000000  0  6                                             
G23  25040239.007 6 131585272.898 6      2585.083 6        39.817               
G27  24407027.806 6 128257707.135 6      2489.189 6        39.752               
G29  25878367.357 6 135989676.106 6     -3220.460 6        37.430               
G26  22676660.597 7 119164958.628 7     -1243.722 7        43.812               
G16  22762466.966 7 120099899.398 7     -1056.116 7        43.215               
G18  23087274.537 7 120791020.473 7      1312.090 7        43.421               
> 2025 01 08 17 45 51.0000000  0  6                                             
G23  25039749.575 6 131582686.049 6      2586.677 6        40.128               
G27  24406552.490 6 128255212.983 6      2498.880 6        40.163               
G29  25878974.010 6 135992894.293 6     -3219.973 6        37.218               
G26  22676898.773 7 119166202.486 7     -1242.522 7        44.368               
G16  22762267.744 7 120100950.924 7     -1053.753 7        43.734               
G18  23087532.423 7 120789709.866 7      1312.102 7        43.162               
> 2025 01 08 17 45 52.0000000  0  6                                             
G23  25039264.681 6 131580099.421 6      2583.315 6        40.321               
G27  24406077.335 6 128252718.927 6      2490.441 6        40.119               
G29  25879587.328 6 135996112.510 6     -3226.513 6        37.437               
G26  22677138.790 7 119167446.784 7     -1243.840 7        44.166               
G16  22762065.020 7 120102002.038 7     -1051.036 7        43.387               
G18  23087779.784 7 120788398.846 7      1311.200 7        42.574               
> 2025 01 08 17 45 53.0000000  0  6                                             
G23  25038771.585 6 131577514.292 6      2585.460 6        39.969               
G27  24405603.145 6 128250226.276 6      2494.588 6        40.181               
G29  25880196.734 6 135999331.978 6     -3217.187 6        36.868               
G26  22677373.964 7 119168692.837 7     -1243.327 7        43.764               
G16  22761868.425 7 120103051.425 7     -1048.888 7        43.592               
G18  23088031.701 7 120787086.118 7      1315.893 7        43.326               
> 2025 01 08 17 45 54.0000000  0  6                                             
G23  25038279.240 6 131574929.706 6      2582.440 6        39.756               
G27  24405129.312 6 128247734.049 6      2492.489 6        40.716               
G29  25880814.734 6 136002551.738 6     -3219.339 6        37.083               
G26  22677614.874 7 119169939.646 7     -1247.174 7        43.797               
G16  22761669.847 7 120104100.091 7     -1050.022 7        43.904               
G18  23088279.706 7 120785772.674 7      1315.377 7        43.308               
> 2025 01 08 17 45 55.0000000  0  6                                             
G23  25037785.519 6 131572345.221 6      2581.782 6        39.611               
G27  24404671.668 6 128245241.799 6      2491.293 6        40.767               
G29  25881429.482 6 136005771.382 6     -3217.795 6        37.366               
G26  22677855.802 7 119171186.794 7     -1248.349 7        43.902               
G16  22761470.554 7 120105148.449 7     -1052.483 7        44.213               
G18  23088534.464 7 120784458.913 7      1314.802 7        43.067               
> 2025 01 08 17 45 56.0000000  0  6                                             
G23  25037298.570 6 131569760.495 6      2582.205 6        39.732               
G27  24404191.206 6 128242749.199 6      2490.603 6        40.827               
G29  25882040.495 6 136008990.518 6     -3221.486 6        37.109               
G26  22678093.067 7 119172433.914 7     -1245.974 7        44.117               
G16  22761276.407 7 120106196.874 7     -1048.162 7        43.740               
G18  23088785.274 7 120783145.256 7      1312.861 7        42.931               
> 2025 01 08 17 45 57.0000000  0  6                                             
G23  25036808.137 6 131567175.209 6      2588.814 6        39.187               
G27  24403713.567 6 128240255.883 6      2494.031 6        40.251               
G29  25882661.765 6 136012208.857 6     -3220.161 6        36.602               
G26  22678334.549 7 119173680.694 7     -1246.167 7        44.126               
G16  22761079.847 7 120107245.654 7     -1048.482 7        43.942               
G18  23089036.977 7 120781831.952 7      1311.830 7        43.131               
> 2025 01 08 17 45 58.0000000  0  6                                             
G23  25036316.435 6 131564591.095 6      2586.370 6        39.984               
G27  24403242.629 6 128237763.683 6      2496.207 6        40.713               
G29  25883272.475 6 136015428.181 6     -3216.447 6        36.691               
G26  22678573.261 7 119174928.903 7     -1247.405 7        44.241               
G16  22760884.307 7 120108293.030 7     -1045.355 7        44.404               
G18  23089288.358 7 120780517.254 7      1314.595 7        43.059               
> 2025 01 08 17 45 59.0000000  0  6                                             
G23  25035831.916 6 131562007.687 6      2583.938 6        39.875               
G27  24402776.837 6 128235272.063 6      2489.107 6        41.095               
G29  25883880.111 6 136018647.929 6     -3220.776 6        37.030               
G26  22678816.352 7 119176178.050 7     -1249.405 7        43.956               
G16  22760683.977 7 120109339.542 7     -1046.839 7        44.021               
G18  23089542.063 7 120779201.695 7      1315.248 7        43.356               
> 2025 01 08 17 46 00.0000000  0  6                                             
G23  25035330.976 6 131559424.506 6      2585.699 6        39.412               
G27  24402294.249 6 128232780.525 6      2490.962 6        41.227               
G29  25884502.346 6 136021867.674 6     -3217.339 6        37.522               
G26  22679051.204 7 119177427.621 7     -1248.025 7        43.367               
G16  22760488.579 7 120110385.616 7     -1047.589 7        44.141               
G18  23089793.069 7 120777885.701 7      1315.022 7        43.052               
> 2025 01 08 17 46 01.0000000  0  6                                             
G23  25034844.153 6 131556841.685 6      2586.134 6        39.480               
G27  24401819.183 6 128230289.246 6      2491.740 6        41.308               
G29  25885115.021 6 136025087.527 6     -3215.091 6        37.387               
G26  22679293.347 7 119178677.796 7     -1247.759 7        44.686               
G16  22760286.642 7 120111431.129 7     -1045.038 7        43.870               
G18  23090046.773 7 120776569.176 7      1316.114 7        43.044               
> 2025 01 08 17 46 02.0000000  0  6                                             
G23  25034361.439 6 131554259.160 6      2580.811 6        39.537               
G27  24401353.498 6 128227798.155 6      2485.675 6        41.205               
G29  25885746.352 6 136028307.465 6     -3218.104 6        37.115               
G26  22679532.417 7 119179928.497 7     -1251.842 7        44.087               
G16  22760094.013 7 120112476.149 7     -1040.989 7        44.643               
G18  23090296.743 7 120775252.163 7      1317.640 7        42.957               
> 2025 01 08 17 46 03.0000000  0  6                                             
G23  25033868.558 6 131551676.947 6      2583.757 6        38.965               
G27  24400886.652 6 128225307.247 6      2489.934 6        41.520               
G29  25886353.362 6 136031527.463 6     -3225.657 6        37.662               
G26  22679770.361 7 119181179.729 7     -1253.526 7        44.230               
G16  22759902.636 7 120113520.674 7     -1042.938 7        44.249               
G18  23090549.054 7 120773934.657 7      1317.915 7        43.012               
> 2025 01 08 17 46 04.0000000  0  6                                             
G23  25033373.121 6 131549095.084 6      2578.907 6        39.486               
G27  24400411.336 6 128222816.577 6      2490.680 6        41.250               
G29  25886969.397 6 136034747.580 6     -3217.097 6        37.357               
G26  22680014.309 7 119182431.534 7     -1248.982 7        43.867               
G16  22759698.733 7 120114564.656 7     -1044.656 7        44.617               
G18  23090809.334 7 120772616.609 7      1315.469 7        43.162               
> 2025 01 08 17 46 05.0000000  0  6                                             
G23  25032882.724 6 131546513.558 6      2578.560 6        39.193               
G27  24399940.166 6 128220326.147 6      2486.250 6        41.660               
G29  25887586.825 6 136037967.797 6     -3226.548 6        36.748               
G26  22680247.124 7 119183683.933 7     -1253.491 7        44.044               
G16  22759501.566 7 120115608.063 7     -1048.162 7        44.456               
G18  23091058.768 7 120771298.016 7      1319.956 7        43.512               
> 2025 01 08 17 46 06.0000000  0  6                                             
G23  25032391.433 6 131543932.433 6      2583.401 6        39.178               
G27  24399465.296 6 128217835.988 6      2488.666 6        40.978               
G29  25888188.815 6 136041188.162 6     -3224.312 6        37.664               
G26  22680493.770 7 119184936.951 7     -1254.327 7        43.808               
G16  22759308.527 7 120116650.906 7     -1042.110 7        44.077               
G18  23091308.648 7 120769978.846 7      1319.356 7        43.034               
> 2025 01 08 17 46 07.0000000  0  6                                             
G23  25031906.432 6 131541351.745 6      2577.826 6        39.269               
G27  24398995.627 6 128215346.127 6      2490.299 6        41.206               
G29  25888815.303 6 136044408.723 6     -3218.683 6        37.424               
G26  22680731.410 7 119186190.607 7     -1256.169 7        43.655               
G16  22759106.536 7 120117693.128 7     -1041.590 7        43.858               
G18  23091559.922 7 120768659.070 7      1321.799 7        43.133               
> 2025 01 08 17 46 08.0000000  0  6                                             
G23  25031415.337 6 131538771.189 6      2582.370 6        39.376               
G27  24398527.959 6 128212856.310 6      2487.541 6        41.079               
G29  25889430.355 6 136047629.189 6     -3223.327 6        37.881               
G26  22680972.374 7 119187444.634 7     -1254.339 7        43.815               
G16  22758911.531 7 120118735.002 7     -1041.415 7        44.336               
G18  23091813.644 7 120767338.960 7      1323.001 7        43.343               
