     3.02           OBSERVATION DATA    E                   RINEX VERSION / TYPE
G = GPS  R = GLONASS  E = GALILEO  S = GEO  M = MIXED       COMMENT             
GNSS-SDR            jmfriedt            20250108 150151 UTC PGM / RUN BY / DATE 
GALILEO OBSERVATION DATA FILE GENERATED BY GNSS-SDR         COMMENT             
GNSS-SDR VERSION 0.0.19.git-main-87fcfd237                  COMMENT             
See https://gnss-sdr.org                                    COMMENT             
DEFAULT MARKER NAME                                         MARKER NAME         
jmfriedt            CTTC                                    OBSERVER / AGENCY   
GNSS-SDR            Software Receiver   0.0.19.gi           REC # / TYPE / VERS 
Antenna number      Antenna type                            ANT # / TYPE        
        0.0000        0.0000        0.0000                  APPROX POSITION XYZ 
        0.0000        0.0000        0.0000                  ANTENNA: DELTA H/E/N
E    4 C1B L1B D1B S1B                                      SYS / # / OBS TYPES 
DBHZ                                                        SIGNAL STRENGTH UNIT
  2025    01    08    14    20   36.1600000     GAL         TIME OF FIRST OBS   
    18    18   137     7                                    LEAP SECONDS        
                                                            END OF HEADER       
> 2025 01 08 14 20 37.0000000  0  4                                             
E02  27115563.988 6 142489985.900 6      1930.445 6        40.711               
E07  28273782.898 6 148579723.134 6     -2260.926 6        38.511               
E30  26200779.764 6 137686568.998 6      -326.130 6        40.289               
E34  28291874.337 6 148678936.700 6     -2458.518 6        38.975               
> 2025 01 08 14 20 38.0000000  0  4                                             
E02  27115934.217 6 142488056.204 6      1928.814 6        40.879               
E07  28274213.809 6 148581984.333 6     -2262.538 6        38.615               
E30  26200717.419 6 137686894.044 6      -326.385 6        40.051               
E34  28291407.169 6 148681394.827 6     -2458.936 6        38.824               
> 2025 01 08 14 20 39.0000000  0  4                                             
E02  27116300.800 6 142486126.346 6      1930.016 6        40.803               
E07  28274646.347 6 148584245.907 6     -2261.648 6        38.530               
E30  26200659.291 6 137687218.870 6      -324.842 6        39.786               
E34  28290944.504 6 148683852.682 6     -2458.372 6        38.826               
> 2025 01 08 14 20 40.0000000  0  4                                             
E02  27116671.082 6 142484196.098 6      1929.320 6        40.627               
E07  28275076.758 6 148586508.087 6     -2262.230 6        38.603               
E30  26200600.359 6 137687543.244 6      -324.840 6        40.062               
E34  28290475.710 6 148686310.041 6     -2457.219 6        38.820               
> 2025 01 08 14 20 41.0000000  0  4                                             
E02  27117037.736 6 142482265.578 6      1931.312 6        40.380               
E07  28275512.190 6 148588770.706 6     -2262.512 6        38.387               
E30  26200540.408 6 137687867.283 6      -321.929 6        40.120               
E34  28290009.382 6 148688767.026 6     -2458.314 6        39.134               
> 2025 01 08 14 20 42.0000000  0  4                                             
E02  27117409.644 6 142480334.453 6      1930.707 6        40.530               
E07  28275945.604 6 148591034.151 6     -2264.663 6        38.622               
E30  26200482.477 6 137688190.687 6      -324.259 6        39.919               
E34  28289544.663 6 148691223.286 6     -2456.021 6        39.080               
> 2025 01 08 14 20 43.0000000  0  4                                             
E02  27117773.279 6 142478403.275 6      1931.593 6        40.302               
E07  28276376.176 6 148593297.834 6     -2263.897 6        39.126               
E30  26200422.080 6 137688513.936 6      -320.539 6        40.193               
E34  28289079.461 6 148693679.354 6     -2456.170 6        39.016               
> 2025 01 08 14 20 44.0000000  0  4                                             
E02  27118147.349 6 142476471.989 6      1930.058 6        40.858               
E07  28276810.250 6 148595561.826 6     -2263.344 6        39.221               
E30  26200362.201 6 137688837.062 6      -320.739 6        40.262               
E34  28288616.832 6 148696135.236 6     -2455.594 6        39.455               
> 2025 01 08 14 20 45.0000000  0  4                                             
E02  27118517.809 6 142474540.532 6      1931.692 6        40.589               
E07  28277238.785 6 148597826.191 6     -2265.230 6        39.232               
E30  26200299.230 6 137689159.929 6      -324.397 6        40.193               
E34  28288145.876 6 148698590.816 6     -2456.547 6        39.462               
> 2025 01 08 14 20 46.0000000  0  4                                             
E02  27118885.304 6 142472609.001 6      1931.359 6        40.591               
E07  28277670.947 6 148600090.850 6     -2264.885 6        39.402               
E30  26200241.710 6 137689482.663 6      -322.057 6        40.322               
E34  28287681.889 6 148701046.208 6     -2455.216 6        39.295               
> 2025 01 08 14 20 47.0000000  0  4                                             
E02  27119254.799 6 142470677.065 6      1931.575 6        40.704               
E07  28278109.703 6 148602356.094 6     -2263.494 6        39.505               
E30  26200180.741 6 137689804.929 6      -321.039 6        40.211               
E34  28287213.792 6 148703501.098 6     -2455.555 6        39.446               
> 2025 01 08 14 20 48.0000000  0  4                                             
E02  27119627.636 6 142468745.110 6      1932.312 6        40.839               
E07  28278541.079 6 148604621.537 6     -2266.385 6        39.482               
E30  26200121.862 6 137690127.138 6      -322.306 6        40.183               
E34  28286755.183 6 148705955.816 6     -2456.101 6        39.519               
> 2025 01 08 14 20 49.0000000  0  4                                             
E02  27119993.505 6 142466812.751 6      1933.551 6        40.961               
E07  28278968.506 6 148606887.614 6     -2266.555 6        39.052               
E30  26200062.519 6 137690448.872 6      -322.183 6        39.996               
E34  28286288.212 6 148708410.053 6     -2454.020 6        39.649               
> 2025 01 08 14 20 50.0000000  0  4                                             
E02  27120366.020 6 142464879.528 6      1932.559 6        40.847               
E07  28279404.921 6 148609154.747 6     -2267.518 6        38.915               
E30  26200005.124 6 137690769.667 6      -321.077 6        39.782               
E34  28285817.828 6 148710863.306 6     -2453.690 6        39.557               
> 2025 01 08 14 20 51.0000000  0  4                                             
E02  27120735.212 6 142462946.615 6      1934.575 6        40.541               
E07  28279836.458 6 148611421.766 6     -2265.844 6        38.827               
E30  26199943.905 6 137691090.735 6      -321.368 6        39.962               
E34  28285357.164 6 148713316.740 6     -2452.492 6        39.593               
> 2025 01 08 14 20 52.0000000  0  4                                             
E02  27121102.921 6 142461013.661 6      1933.875 6        40.723               
E07  28280269.335 6 148613689.029 6     -2269.436 6        39.078               
E30  26199883.168 6 137691411.704 6      -321.994 6        40.161               
E34  28284891.980 6 148715770.035 6     -2451.723 6        39.367               
> 2025 01 08 14 20 53.0000000  0  4                                             
E02  27121475.204 6 142459080.274 6      1932.553 6        40.362               
E07  28280704.535 6 148615956.914 6     -2268.337 6        39.043               
E30  26199824.897 6 137691732.160 6      -320.477 6        40.086               
E34  28284427.779 6 148718222.761 6     -2452.164 6        39.279               
> 2025 01 08 14 20 54.0000000  0  4                                             
E02  27121840.751 6 142457146.388 6      1933.604 6        40.580               
E07  28281139.718 6 148618225.515 6     -2269.476 6        38.947               
E30  26199767.752 6 137692052.064 6      -319.434 6        40.004               
E34  28283963.738 6 148720674.887 6     -2452.455 6        39.322               
> 2025 01 08 14 20 55.0000000  0  4                                             
E02  27122212.266 6 142455212.472 6      1935.005 6        40.454               
E07  28281572.130 6 148620494.310 6     -2269.389 6        38.987               
E30  26199707.694 6 137692371.902 6      -319.872 6        39.988               
E34  28283496.392 6 148723126.892 6     -2451.841 6        39.076               
> 2025 01 08 14 20 56.0000000  0  5                                             
E02  27122584.156 6 142453278.634 6      1933.732 6        40.208               
E07  28282004.954 6 148622763.239 6     -2270.368 6        39.059               
E29  28998890.374 6 152390253.980 6      -338.992 6        36.577               
E30  26199651.800 6 137692691.727 6      -319.876 6        39.888               
E34  28283027.866 6 148725578.850 6     -2453.358 6        39.107               
> 2025 01 08 14 20 57.0000000  0  5                                             
E02  27122954.027 6 142451344.666 6      1934.622 6        40.194               
E07  28282440.583 6 148625032.505 6     -2269.827 6        38.733               
E29  28998827.725 6 152390592.844 6      -339.123 6        36.566               
E30  26199590.527 6 137693011.408 6      -318.118 6        39.898               
E34  28282566.041 6 148728030.566 6     -2452.522 6        39.153               
> 2025 01 08 14 20 58.0000000  0  5                                             
E02  27123323.326 6 142449410.537 6      1935.426 6        40.323               
E07  28282868.885 6 148627302.108 6     -2268.199 6        38.659               
E29  28998760.752 6 152390931.263 6      -335.752 6        36.502               
E30  26199532.542 6 137693330.824 6      -321.388 6        40.151               
E34  28282100.106 6 148730481.997 6     -2449.719 6        39.513               
> 2025 01 08 14 20 59.0000000  0  5                                             
E02  27123691.302 6 142447476.397 6      1933.648 6        40.468               
E07  28283305.372 6 148629571.971 6     -2271.081 6        38.384               
E29  28998697.764 6 152391269.294 6      -336.812 6        36.458               
E30  26199473.145 6 137693650.182 6      -317.967 6        40.347               
E34  28281634.743 6 148732933.312 6     -2451.569 6        39.320               
> 2025 01 08 14 21 00.0000000  0  5                                             
E02  27124064.086 6 142445541.969 6      1935.495 6        40.533               
E07  28283739.964 6 148631842.268 6     -2270.496 6        38.380               
E29  28998636.312 6 152391606.721 6      -337.974 6        36.423               
E30  26199413.588 6 137693969.189 6      -318.788 6        40.493               
E34  28281174.098 6 148735384.200 6     -2449.637 6        39.648               
> 2025 01 08 14 21 01.0000000  0  5                                             
E02  27124431.723 6 142443607.278 6      1934.186 6        40.417               
E07  28284175.146 6 148634113.030 6     -2270.993 6        38.461               
E29  28998577.380 6 152391943.574 6      -336.416 6        36.709               
E30  26199352.619 6 137694287.888 6      -317.085 6        40.252               
E34  28280708.377 6 148737834.728 6     -2450.094 6        39.399               
> 2025 01 08 14 21 02.0000000  0  5                                             
E02  27124800.701 6 142441672.552 6      1935.503 6        40.612               
E07  28284608.595 6 148636384.048 6     -2271.523 6        38.382               
E29  28998519.699 6 152392280.017 6      -333.951 6        36.721               
E30  26199296.617 6 137694606.468 6      -317.567 6        40.157               
E34  28280246.409 6 148740285.113 6     -2449.534 6        39.188               
> 2025 01 08 14 21 03.0000000  0  5                                             
E02  27125171.769 6 142439737.778 6      1935.184 6        40.484               
E07  28285042.920 6 148638655.324 6     -2271.341 6        38.661               
E29  28998445.953 6 152392616.103 6      -336.309 6        36.213               
E30  26199236.631 6 137694924.953 6      -319.529 6        39.906               
E34  28279780.582 6 148742735.313 6     -2449.719 6        39.482               
> 2025 01 08 14 21 04.0000000  0  5                                             
E02  27125541.372 6 142437802.520 6      1934.848 6        40.415               
E07  28285473.921 6 148640927.245 6     -2271.713 6        38.671               
E29  28998385.771 6 152392951.350 6      -335.569 6        36.078               
E30  26199177.556 6 137695242.883 6      -317.992 6        39.570               
E34  28279314.325 6 148745184.934 6     -2450.111 6        39.612               
> 2025 01 08 14 21 05.0000000  0  5                                             
E02  27125912.493 6 142435867.098 6      1934.633 6        40.587               
E07  28285911.694 6 148643199.545 6     -2272.193 6        38.443               
E29  28998326.571 6 152393286.130 6      -335.806 6        36.076               
E30  26199118.195 6 137695560.632 6      -319.556 6        39.686               
E34  28278853.537 6 148747634.266 6     -2450.030 6        39.635               
> 2025 01 08 14 21 06.0000000  0  5                                             
E02  27126281.167 6 142433931.643 6      1936.040 6        40.345               
E07  28286344.321 6 148645472.081 6     -2272.057 6        38.549               
E29  28998263.350 6 152393620.520 6      -334.319 6        36.049               
E30  26199058.995 6 137695878.241 6      -319.002 6        40.018               
E34  28278388.478 6 148750083.450 6     -2449.767 6        39.590               
> 2025 01 08 14 21 07.0000000  0  5                                             
E02  27126655.559 6 142431995.994 6      1936.693 6        40.340               
E07  28286779.699 6 148647744.998 6     -2273.856 6        38.844               
E29  28998208.278 6 152393954.413 6      -334.920 6        36.283               
E30  26198998.401 6 137696195.631 6      -316.681 6        40.304               
E34  28277921.131 6 148752532.352 6     -2449.337 6        39.727               
> 2025 01 08 14 21 08.0000000  0  5                                             
E02  27127025.680 6 142430060.458 6      1936.739 6        40.611               
E07  28287216.418 6 148650018.019 6     -2272.784 6        38.859               
E29  28998142.216 6 152394288.094 6      -336.059 6        36.187               
E30  26198945.634 6 137696513.066 6      -318.112 6        40.179               
E34  28277458.717 6 148754981.229 6     -2448.873 6        39.371               
> 2025 01 08 14 21 09.0000000  0  5                                             
E02  27127394.961 6 142428124.755 6      1937.254 6        40.654               
E07  28287645.346 6 148652291.377 6     -2273.489 6        38.726               
E29  28998075.439 6 152394621.205 6      -334.955 6        36.011               
E30  26198884.343 6 137696830.246 6      -316.269 6        40.097               
E34  28276995.855 6 148757429.810 6     -2447.661 6        39.829               
> 2025 01 08 14 21 10.0000000  0  5                                             
E02  27127763.009 6 142426188.509 6      1936.618 6        40.801               
E07  28288085.478 6 148654565.463 6     -2273.162 6        38.740               
E29  28998015.721 6 152394953.493 6      -332.081 6        36.032               
E30  26198827.234 6 137697146.856 6      -314.987 6        39.866               
E34  28276529.492 6 148759877.764 6     -2446.872 6        39.627               
> 2025 01 08 14 21 11.0000000  0  5                                             
E02  27128134.042 6 142424252.108 6      1936.145 6        40.652               
E07  28288517.766 6 148656839.953 6     -2274.488 6        38.864               
E29  28997959.845 6 152395285.263 6      -333.018 6        36.188               
E30  26198768.087 6 137697463.218 6      -316.969 6        39.819               
E34  28276068.971 6 148762325.403 6     -2446.603 6        39.543               
> 2025 01 08 14 21 12.0000000  0  5                                             
E02  27128505.861 6 142422315.429 6      1936.038 6        40.763               
E07  28288954.038 6 148659114.887 6     -2275.723 6        39.195               
E29  28997895.355 6 152395616.459 6      -332.278 6        36.346               
E30  26198709.388 6 137697779.264 6      -315.583 6        39.712               
E34  28275600.446 6 148764772.675 6     -2447.148 6        39.113               
> 2025 01 08 14 21 13.0000000  0  5                                             
E02  27128873.373 6 142420378.561 6      1936.643 6        40.625               
E07  28289386.504 6 148661390.223 6     -2276.256 6        39.275               
E29  28997833.511 5 152395947.105 5      -331.658 5        35.828               
E30  26198652.010 6 137698095.050 6      -317.012 6        39.565               
E34  28275138.460 6 148767219.650 6     -2448.187 6        39.062               
> 2025 01 08 14 21 14.0000000  0  5                                             
E02  27129243.279 6 142418441.692 6      1936.647 6        40.647               
E07  28289821.454 6 148663665.732 6     -2275.948 6        39.107               
E29  28997771.577 5 152396277.470 5      -328.787 5        35.882               
E30  26198592.399 6 137698410.791 6      -315.169 6        39.470               
E34  28274669.112 6 148769666.518 6     -2445.565 6        39.027               
> 2025 01 08 14 21 15.0000000  0  5                                             
E02  27129615.634 6 142416504.060 6      1938.273 6        40.526               
E07  28290255.385 6 148665942.199 6     -2277.209 6        38.893               
E29  28997711.680 6 152396606.670 6      -327.042 6        36.096               
E30  26198533.556 6 137698725.706 6      -315.887 6        39.948               
E34  28274210.111 6 148772112.502 6     -2446.618 6        38.813               
> 2025 01 08 14 21 16.0000000  0  5                                             
E02  27129982.163 6 142414566.064 6      1938.429 6        40.535               
E07  28290689.352 6 148668219.272 6     -2276.499 6        39.025               
E29  28997652.605 6 152396935.195 6      -327.394 6        36.014               
E30  26198477.519 6 137699040.172 6      -314.363 6        40.194               
E34  28273740.119 6 148774557.991 6     -2445.580 6        39.074               
> 2025 01 08 14 21 17.0000000  0  5                                             
E02  27130356.359 6 142412628.318 6      1938.455 6        40.555               
E07  28291129.502 6 148670496.237 6     -2277.526 6        39.093               
E29  28997593.833 5 152397263.660 5      -329.486 5        35.884               
E30  26198419.427 6 137699354.872 6      -314.564 6        40.006               
E34  28273279.939 6 148777003.615 6     -2445.118 6        39.278               
> 2025 01 08 14 21 18.0000000  0  5                                             
E02  27130723.388 6 142410690.656 6      1938.920 6        40.682               
E07  28291562.218 6 148672773.364 6     -2277.142 6        39.092               
E29  28997529.148 6 152397591.856 6      -325.846 6        36.067               
E30  26198361.781 6 137699669.566 6      -314.903 6        39.941               
E34  28272821.920 6 148779449.193 6     -2445.861 6        38.836               
> 2025 01 08 14 21 19.0000000  0  5                                             
E02  27131099.907 6 142408752.529 6      1938.139 6        40.758               
E07  28291996.757 6 148675051.100 6     -2276.815 6        38.876               
E29  28997469.251 5 152397919.258 5      -327.040 5        35.774               
E30  26198302.742 6 137699983.751 6      -313.427 6        39.834               
E34  28272354.841 6 148781894.238 6     -2443.532 6        38.779               
> 2025 01 08 14 21 20.0000000  0  5                                             
E02  27131466.865 6 142406814.062 6      1938.967 6        40.575               
E07  28292431.100 6 148677329.403 6     -2277.389 6        38.825               
E29  28997408.353 5 152398246.003 5      -328.080 5        35.659               
E30  26198246.115 6 137700297.522 6      -312.410 6        40.105               
E34  28271893.106 6 148784338.805 6     -2443.815 6        38.947               
> 2025 01 08 14 21 21.0000000  0  5                                             
E02  27131837.433 6 142404875.609 6      1939.497 6        40.913               
E07  28292865.442 6 148679607.881 6     -2277.012 6        38.756               
E29  28997344.721 5 152398572.422 5      -327.127 5        35.600               
E30  26198186.272 6 137700611.264 6      -312.470 6        40.074               
E34  28271428.583 6 148786783.262 6     -2443.137 6        39.327               
> 2025 01 08 14 21 22.0000000  0  5                                             
E02  27132208.090 6 142402936.819 6      1939.930 6        40.296               
E07  28293303.608 6 148681886.912 6     -2279.536 6        38.420               
E29  28997281.554 5 152398898.167 5      -325.495 5        35.578               
E30  26198128.894 6 137700924.591 6      -313.366 6        40.202               
E34  28270965.471 6 148789227.257 6     -2442.776 6        39.253               
> 2025 01 08 14 21 23.0000000  0  5                                             
E02  27132579.962 6 142400997.434 6      1940.153 6        40.337               
E07  28293734.395 6 148684166.733 6     -2279.410 6        39.027               
E29  28997226.214 5 152399222.967 5      -327.299 5        35.486               
E30  26198073.358 6 137701237.256 6      -312.390 6        39.416               
E34  28270501.341 6 148791670.549 6     -2442.774 6        39.076               
> 2025 01 08 14 21 24.0000000  0  5                                             
E02  27132953.353 6 142399058.110 6      1938.753 6        40.428               
E07  28294172.954 6 148686446.691 6     -2280.279 6        39.066               
E29  28997163.351 5 152399547.489 5      -324.044 5        35.361               
E30  26198015.122 6 137701549.931 6      -311.459 6        39.380               
E34  28270039.302 6 148794113.773 6     -2444.336 6        39.094               
> 2025 01 08 14 21 25.0000000  0  5                                             
E02  27133318.650 6 142397118.749 6      1939.470 6        40.634               
E07  28294609.548 6 148688726.858 6     -2280.278 6        38.856               
E29  28997104.687 5 152399871.670 5      -322.665 5        35.655               
E30  26197956.155 6 137701862.524 6      -311.991 6        40.403               
E34  28269573.903 6 148796556.871 6     -2442.963 6        39.212               
> 2025 01 08 14 21 26.0000000  0  5                                             
E02  27133696.025 6 142395179.135 6      1939.335 6        40.234               
E07  28295044.391 6 148691007.483 6     -2280.597 6        38.710               
E29  28997046.863 5 152400195.277 5      -323.047 5        35.732               
E30  26197898.152 6 137702174.818 6      -312.596 6        40.178               
E34  28269116.903 6 148798999.598 6     -2441.488 6        38.850               
> 2025 01 08 14 21 27.0000000  0  5                                             
E02  27134063.645 6 142393239.332 6      1939.281 6        40.269               
E07  28295478.822 6 148693288.500 6     -2280.950 6        38.185               
E29  28996994.363 5 152400518.325 5      -321.109 5        35.683               
E30  26197842.293 6 137702486.830 6      -309.628 6        40.261               
E34  28268653.702 6 148801442.015 6     -2442.754 6        38.818               
> 2025 01 08 14 21 28.0000000  0  5                                             
E02  27134433.891 6 142391299.302 6      1939.470 6        40.557               
E07  28295918.043 6 148695569.934 6     -2281.822 6        38.190               
E29  28996921.529 5 152400840.845 5      -323.031 5        35.530               
E30  26197785.756 6 137702798.572 6      -311.677 6        40.125               
E34  28268190.198 6 148803884.070 6     -2442.488 6        38.872               
> 2025 01 08 14 21 29.0000000  0  5                                             
E02  27134807.228 6 142389358.758 6      1939.490 6        40.647               
E07  28296354.530 6 148697852.103 6     -2282.396 6        38.405               
E29  28996871.210 5 152401162.441 5      -319.982 5        35.935               
E30  26197725.162 6 137703109.726 6      -311.518 6        39.947               
E34  28267729.838 6 148806325.491 6     -2441.611 6        39.305               
> 2025 01 08 14 21 30.0000000  0  5                                             
E02  27135180.352 6 142387417.985 6      1939.693 6        40.737               
E07  28296791.052 6 148700134.653 6     -2282.544 6        38.354               
E29  28996805.774 5 152401483.569 5      -322.318 5        35.866               
E30  26197669.964 6 137703420.603 6      -309.364 6        39.861               
E34  28267263.546 6 148808766.596 6     -2441.034 6        39.193               
> 2025 01 08 14 21 31.0000000  0  5                                             
E02  27135550.365 6 142385477.295 6      1941.315 6        40.727               
E07  28297227.449 6 148702417.362 6     -2282.328 6        38.384               
E29  28996753.078 5 152401804.389 5      -320.667 5        35.812               
E30  26197612.515 6 137703731.493 6      -312.395 6        39.994               
E34  28266802.614 6 148811207.651 6     -2441.420 6        39.255               
> 2025 01 08 14 21 32.0000000  0  5                                             
E02  27135921.648 6 142383536.580 6      1940.933 6        40.741               
E07  28297661.988 6 148704700.279 6     -2283.481 6        38.392               
E29  28996686.569 5 152402124.896 5      -319.967 5        35.695               
E30  26197553.959 6 137704042.310 6      -309.870 6        39.882               
E34  28266336.018 6 148813648.560 6     -2440.522 6        39.432               
> 2025 01 08 14 21 33.0000000  0  5                                             
E02  27136290.232 6 142381595.677 6      1940.785 6        40.631               
E07  28298096.098 6 148706983.582 6     -2284.191 6        38.549               
E29  28996633.713 5 152402444.862 5      -320.238 5        35.720               
E30  26197497.278 6 137704352.869 6      -309.053 6        40.021               
E34  28265877.160 6 148816089.152 6     -2440.112 6        39.308               
> 2025 01 08 14 21 34.0000000  0  5                                             
E02  27136661.676 6 142379654.777 6      1940.346 6        40.566               
E07  28298537.231 6 148709267.059 6     -2283.829 6        38.837               
E29  28996576.997 5 152402764.501 5      -320.590 5        35.692               
E30  26197441.831 6 137704663.365 6      -311.216 6        40.073               
E34  28265413.780 6 148818529.666 6     -2439.472 6        39.148               
> 2025 01 08 14 21 35.0000000  0  5                                             
E02  27137037.211 6 142377713.848 6      1941.153 6        40.533               
E07  28298969.411 6 148711550.772 6     -2285.880 6        38.644               
E29  28996511.364 5 152403083.774 5      -318.130 5        35.550               
E30  26197383.863 6 137704973.787 6      -309.057 6        39.987               
E34  28264949.847 6 148820970.029 6     -2439.884 6        39.128               
> 2025 01 08 14 21 36.0000000  0  5                                             
E02  27137405.170 6 142375772.506 6      1941.958 6        40.285               
E07  28299408.203 6 148713835.125 6     -2284.583 6        38.613               
E29  28996454.880 5 152403402.262 5      -318.354 5        35.732               
E30  26197327.129 6 137705283.717 6      -309.206 6        39.961               
E34  28264490.845 6 148823409.818 6     -2440.819 6        39.124               
> 2025 01 08 14 21 37.0000000  0  5                                             
E02  27137777.650 6 142373830.594 6      1942.222 6        40.223               
E07  28299846.190 6 148716120.190 6     -2286.210 6        38.558               
E29  28996398.628 5 152403719.925 5      -317.097 5        35.950               
E30  26197269.770 6 137705593.041 6      -308.085 6        39.937               
E34  28264024.142 6 148825848.977 6     -2440.457 6        39.414               
> 2025 01 08 14 21 38.0000000  0  5                                             
E02  27138150.130 6 142371888.740 6      1942.018 6        40.329               
E07  28300280.550 6 148718405.377 6     -2285.919 6        38.969               
E29  28996338.856 5 152404037.282 5      -315.741 5        35.924               
E30  26197212.142 6 137705902.370 6      -310.256 6        40.052               
E34  28263561.995 6 148828288.044 6     -2437.337 6        39.709               
> 2025 01 08 14 21 39.0000000  0  5                                             
E02  27138515.623 6 142369946.802 6      1942.231 6        40.528               
E07  28300716.555 6 148720690.921 6     -2286.057 6        38.796               
E29  28996280.603 5 152404354.186 5      -315.502 5        35.637               
E30  26197155.694 6 137706211.523 6      -308.966 6        39.959               
E34  28263101.136 6 148830726.903 6     -2439.295 6        39.711               
> 2025 01 08 14 21 40.0000000  0  5                                             
E02  27138888.460 6 142368005.366 6      1941.184 6        40.888               
E07  28301157.651 6 148722976.112 6     -2285.542 6        38.829               
E29  28996217.954 5 152404671.272 5      -314.901 5        35.569               
E30  26197096.619 6 137706521.127 6      -309.753 6        39.875               
E34  28262643.867 6 148833166.161 6     -2440.063 6        39.301               
> 2025 01 08 14 21 41.0000000  0  5                                             
E02  27139262.065 6 142366062.671 6      1943.753 6        40.686               
E07  28301590.064 6 148725262.753 6     -2288.898 6        38.754               
E29  28996156.038 5 152404986.774 5      -315.987 5        35.551               
E30  26197040.921 6 137706829.420 6      -305.503 6        39.966               
E34  28262174.877 6 148835604.041 6     -2435.459 6        39.383               
> 2025 01 08 14 21 42.0000000  0  5                                             
E02  27139634.027 6 142364118.696 6      1941.964 6        40.875               
E07  28302026.729 6 148727550.873 6     -2285.244 6        38.560               
E29  28996101.270 5 152405300.699 5      -316.057 5        35.476               
E30  26196987.028 6 137707136.356 6      -306.780 6        39.752               
E34  28261715.375 6 148838040.514 6     -2437.343 6        39.258               
> 2025 01 08 14 21 43.0000000  0  5                                             
E02  27140004.184 6 142362175.510 6      1942.235 6        40.990               
E07  28302467.880 6 148729838.423 6     -2287.009 6        38.665               
E29  28996052.702 5 152405615.029 5      -314.113 5        35.665               
E30  26196928.096 6 137707444.036 6      -307.217 6        39.663               
E34  28261253.890 6 148840477.668 6     -2438.191 6        39.537               
> 2025 01 08 14 21 44.0000000  0  5                                             
E02  27140375.627 6 142360233.934 6      1940.025 6        40.767               
E07  28302904.563 6 148732124.516 6     -2285.296 6        38.711               
E29  28995986.050 5 152405930.657 5      -316.975 5        35.474               
E30  26196869.843 6 137707753.276 6      -310.380 6        39.755               
E34  28260789.527 6 148842916.290 6     -2437.706 6        39.641               
> 2025 01 08 14 21 45.0000000  0  5                                             
E02  27140747.732 6 142358291.209 6      1943.951 6        40.643               
E07  28303341.157 6 148734412.004 6     -2290.017 6        38.589               
E29  28995928.816 5 152406244.801 5      -312.501 5        35.394               
E30  26196814.217 6 137708061.282 6      -305.597 6        40.146               
E34  28260324.379 6 148845353.682 6     -2435.585 6        39.763               
> 2025 01 08 14 21 46.0000000  0  5                                             
E02  27141118.871 6 142356348.779 6      1942.146 6        40.354               
E07  28303779.359 6 148736699.348 6     -2286.070 6        38.465               
E29  28995871.867 5 152406558.901 5      -316.846 5        35.168               
E30  26196757.483 6 137708369.545 6      -309.055 6        40.037               
E34  28259864.001 6 148847791.257 6     -2438.937 6        39.846               
> 2025 01 08 14 21 47.0000000  0  5                                             
E02  27141490.225 6 142354405.756 6      1942.136 6        40.366               
E07  28304216.042 6 148738987.517 6     -2288.739 6        38.641               
E29  28995810.451 5 152406872.078 5      -312.068 5        35.527               
E30  26196700.284 6 137708677.145 6      -309.696 6        40.077               
E34  28259406.036 6 148850228.072 6     -2436.856 6        39.841               
> 2025 01 08 14 21 48.0000000  0  5                                             
E02  27141861.186 6 142352461.357 6      1944.286 6        40.210               
E07  28304650.223 6 148741277.212 6     -2290.960 6        38.532               
E29  28995755.826 5 152407183.548 5      -309.089 5        35.466               
E30  26196644.783 6 137708983.296 6      -305.419 6        40.099               
E34  28258946.177 6 148852663.426 6     -2433.023 6        39.654               
> 2025 01 08 14 21 49.0000000  0  5                                             
E02  27142230.950 6 142350517.356 6      1941.553 6        40.213               
E07  28305090.212 6 148743566.757 6     -2288.186 6        38.464               
E29  28995698.591 5 152407495.080 5      -311.512 5        35.242               
E30  26196587.941 6 137709289.796 6      -307.906 6        40.027               
E34  28258481.493 6 148855099.053 6     -2437.243 6        39.654               
> 2025 01 08 14 21 50.0000000  0  5                                             
E02  27142605.717 6 142348576.293 6      1940.605 6        40.395               
E07  28305527.324 6 148745853.530 6     -2285.415 6        38.309               
E29  28995641.518 5 152407809.234 5      -316.454 5        35.148               
E30  26196530.457 6 137709599.187 6      -310.267 6        39.973               
E34  28258019.132 6 148857537.501 6     -2438.673 6        39.519               
> 2025 01 08 14 21 51.0000000  0  5                                             
E02  27142974.408 6 142346633.757 6      1942.900 6        40.693               
E07  28305960.809 6 148748141.946 6     -2289.260 6        38.515               
E29  28995581.049 5 152408121.580 5      -308.181 5        34.800               
E30  26196474.205 6 137709907.042 6      -306.202 6        39.909               
E34  28257557.039 6 148859974.373 6     -2438.389 6        39.845               
> 2025 01 08 14 21 52.0000000  0  5                                             
E02  27143345.494 6 142344690.526 6      1942.636 6        40.183               
E07  28306404.032 6 148750431.304 6     -2288.975 6        38.751               
E29  28995527.799 5 152408432.860 5      -311.528 5        35.100               
E30  26196416.488 6 137710214.129 6      -305.622 6        40.058               
E34  28257097.823 6 148862410.401 6     -2435.312 6        39.830               
> 2025 01 08 14 21 53.0000000  0  5                                             
E02  27143719.064 6 142342747.067 6      1943.784 6        40.489               
E07  28306838.964 6 148752721.048 6     -2289.010 6        38.558               
E29  28995473.102 5 152408743.594 5      -308.850 5        35.297               
E30  26196357.949 6 137710520.943 6      -308.476 6        39.999               
E34  28256634.890 6 148864846.106 6     -2435.239 6        39.441               
> 2025 01 08 14 21 54.0000000  0  5                                             
E02  27144091.794 6 142340803.426 6      1944.411 6        40.214               
E07  28307277.113 6 148755011.203 6     -2292.061 6        38.373               
E29  28995413.580 5 152409053.827 5      -307.154 5        35.605               
E30  26196302.555 6 137710827.507 6      -307.452 6        40.109               
E34  28256173.012 6 148867281.499 6     -2434.886 6        39.582               
> 2025 01 08 14 21 55.0000000  0  5                                             
E02  27144460.361 6 142338859.455 6      1945.260 6        40.440               
E07  28307715.154 6 148757301.853 6     -2292.030 6        38.323               
E29  28995357.507 5 152409363.413 5      -309.106 5        35.237               
E30  26196247.948 6 137711133.686 6      -306.433 6        40.071               
E34  28255709.578 6 148869716.458 6     -2437.629 6        39.577               
> 2025 01 08 14 21 56.0000000  0  5                                             
E02  27144833.948 6 142336915.602 6      1943.790 6        40.457               
E07  28308153.052 6 148759592.587 6     -2293.131 6        38.545               
E29  28995303.150 5 152409672.728 5      -310.554 5        35.355               
E30  26196188.354 6 137711439.913 6      -305.044 6        39.917               
E34  28255248.665 6 148872151.397 6     -2434.098 6        39.499               
> 2025 01 08 14 21 57.0000000  0  5                                             
E02  27145207.107 6 142334970.703 6      1944.972 6        40.625               
E07  28308592.291 6 148761884.556 6     -2292.349 6        38.385               
E29  28995243.807 5 152409980.723 5      -307.809 5        35.508               
E30  26196133.121 6 137711745.042 6      -305.503 6        39.878               
E34  28254787.537 6 148874585.182 6     -2433.869 6        39.557               
> 2025 01 08 14 21 58.0000000  0  5                                             
E02  27145579.140 6 142333025.921 6      1945.530 6        40.721               
E07  28309020.629 6 148764176.604 6     -2290.990 6        38.503               
E29  28995185.429 5 152410288.440 5      -305.050 5        35.451               
E30  26196078.460 6 137712050.215 6      -304.561 6        40.048               
E34  28254327.963 6 148877018.955 6     -2433.709 6        39.566               
> 2025 01 08 14 21 59.0000000  0  5                                             
E02  27145949.994 6 142331081.298 6      1944.667 6        40.602               
E07  28309464.388 6 148766468.687 6     -2290.501 6        38.537               
E29  28995125.603 5 152410596.054 5      -306.106 5        35.356               
E30  26196021.315 6 137712355.506 6      -306.291 6        39.943               
E34  28253865.853 6 148879452.767 6     -2434.458 6        39.284               
> 2025 01 08 14 22 00.0000000  0  5                                             
E02  27146324.350 6 142329136.296 6      1944.895 6        40.269               
E07  28309901.340 6 148768761.348 6     -2292.722 6        38.610               
E29  28995071.799 5 152410902.892 5      -306.179 5        35.246               
E30  26195964.741 6 137712660.345 6      -304.551 6        39.936               
E34  28253404.099 6 148881886.100 6     -2432.042 6        39.228               
> 2025 01 08 14 22 01.0000000  0  5                                             
E02  27146696.419 6 142327191.319 6      1945.844 6        40.453               
E07  28310340.775 6 148771054.207 6     -2291.814 6        38.811               
E29  28995013.761 5 152411209.423 5      -308.226 5        35.344               
E30  26195907.650 6 137712965.150 6      -304.427 6        39.993               
E34  28252947.063 6 148884319.323 6     -2434.139 6        39.456               
> 2025 01 08 14 22 02.0000000  0  5                                             
E02  27147066.933 6 142325246.478 6      1943.028 6        40.288               
E07  28310779.155 6 148773347.107 6     -2292.931 6        38.766               
E29  28994962.495 5 152411515.774 5      -305.347 5        35.343               
E30  26195851.434 6 137713270.030 6      -304.945 6        39.909               
E34  28252484.952 6 148886752.564 6     -2431.970 6        39.441               
> 2025 01 08 14 22 03.0000000  0  5                                             
E02  27147437.965 6 142323301.358 6      1945.924 6        40.298               
E07  28311213.569 6 148775640.461 6     -2294.531 6        38.891               
E29  28994900.150 5 152411821.531 5      -305.246 5        35.241               
E30  26195796.469 6 137713574.572 6      -305.216 6        39.741               
E34  28252017.409 6 148889185.424 6     -2432.398 6        39.541               
> 2025 01 08 14 22 04.0000000  0  5                                             
E02  27147811.160 6 142321355.852 6      1947.321 6        40.175               
E07  28311650.252 6 148777934.409 6     -2295.716 6        39.049               
E29  28994847.132 5 152412126.548 5      -307.726 5        35.002               
E30  26195741.182 6 137713878.675 6      -305.148 6        39.848               
E34  28251559.194 6 148891617.763 6     -2430.678 6        39.439               
> 2025 01 08 14 22 05.0000000  0  5                                             
E02  27148186.963 6 142319410.150 6      1945.308 6        40.226               
E07  28312093.779 6 148780228.736 6     -2294.350 6        38.867               
E29  28994785.020 5 152412431.028 5      -303.831 5        35.371               
E30  26195682.357 6 137714182.503 6      -301.968 6        39.878               
E34  28251097.655 6 148894049.790 6     -2431.718 6        39.577               
> 2025 01 08 14 22 06.0000000  0  5                                             
E02  27148553.510 6 142317464.834 6      1946.048 6        40.117               
E07  28312531.320 6 148782522.882 6     -2292.282 6        38.584               
E29  28994728.643 5 152412735.587 5      -305.553 5        34.892               
E30  26195624.283 6 137714486.666 6      -303.197 6        39.477               
E34  28250636.527 6 148896482.064 6     -2431.628 6        39.647               
> 2025 01 08 14 22 07.0000000  0  5                                             
E02  27148925.686 6 142315519.395 6      1946.440 6        40.226               
E07  28312969.665 6 148784817.339 6     -2293.019 6        38.322               
E29  28994678.216 5 152413039.682 5      -304.232 5        34.901               
E30  26195573.517 6 137714790.657 6      -302.738 6        39.521               
E34  28250176.185 6 148898914.129 6     -2432.144 6        39.584               
> 2025 01 08 14 22 08.0000000  0  5                                             
E02  27149297.755 6 142313573.988 6      1944.115 6        40.401               
E07  28313403.329 6 148787111.963 6     -2295.143 6        38.286               
E29  28994622.519 5 152413343.447 5      -301.915 5        35.301               
E30  26195518.695 6 137715094.613 6      -305.873 6        39.639               
E34  28249714.682 6 148901346.102 6     -2433.818 6        39.839               
> 2025 01 08 14 22 09.0000000  0  5                                             
E02  27149665.410 6 142311628.653 6      1946.051 6        40.291               
E07  28313846.891 6 148789406.724 6     -2296.203 6        38.389               
E29  28994565.945 5 152413646.953 5      -303.716 5        35.506               
E30  26195458.994 6 137715398.567 6      -305.394 6        39.675               
E34  28249254.233 6 148903778.002 6     -2431.409 6        39.500               
> 2025 01 08 14 22 10.0000000  0  5                                             
E02  27150041.696 6 142309683.442 6      1945.084 6        40.668               
E07  28314284.629 6 148791701.519 6     -2294.540 6        38.101               
E29  28994505.155 5 152413950.278 5      -306.193 5        35.399               
E30  26195406.388 6 137715702.606 6      -302.109 6        39.889               
E34  28248792.390 6 148906209.928 6     -2431.624 6        39.305               
> 2025 01 08 14 22 11.0000000  0  5                                             
E02  27150415.355 6 142307737.750 6      1945.414 6        40.401               
E07  28314725.511 6 148793997.040 6     -2297.414 6        38.074               
E29  28994451.298 5 152414252.761 5      -299.240 5        35.040               
E30  26195348.725 6 137716006.080 6      -301.822 6        39.807               
E34  28248333.049 6 148908641.235 6     -2431.170 6        39.433               
> 2025 01 08 14 22 12.0000000  0  5                                             
E02  27150786.763 6 142305791.139 6      1947.316 6        40.399               
E07  28315160.729 6 148796293.620 6     -2297.273 6        38.037               
E29  28994396.082 5 152414554.011 5      -298.663 5        35.035               
E30  26195291.240 6 137716308.596 6      -301.975 6        39.995               
E34  28247868.687 6 148911071.511 6     -2429.270 6        39.647               
> 2025 01 08 14 22 13.0000000  0  5                                             
E02  27151157.831 6 142303843.613 6      1949.764 6        40.469               
E07  28315603.845 6 148798591.312 6     -2298.133 6        38.240               
E29  28994342.100 5 152414854.029 5      -298.707 5        35.144               
E30  26195238.455 6 137716610.145 6      -302.065 6        39.982               
E34  28247410.311 6 148913500.775 6     -2429.006 6        39.560               
> 2025 01 08 14 22 14.0000000  0  5                                             
E02  27151528.864 6 142301895.870 6      1947.457 6        40.190               
E07  28316042.190 6 148800889.456 6     -2298.445 6        38.237               
E29  28994287.278 5 152415153.452 5      -299.964 5        35.498               
E30  26195180.130 6 137716911.395 6      -302.337 6        39.713               
E34  28246952.506 6 148915929.651 6     -2427.362 6        39.450               
> 2025 01 08 14 22 15.0000000  0  5                                             
E02  27151903.309 6 142299948.071 6      1946.766 6        39.991               
E07  28316478.391 6 148803187.827 6     -2299.590 6        38.209               
E29  28994227.184 5 152415452.535 5      -297.250 5        35.467               
E30  26195127.274 6 137717212.531 6      -301.341 6        39.744               
E34  28246491.325 6 148918358.387 6     -2428.623 6        39.475               
> 2025 01 08 14 22 16.0000000  0  5                                             
E02  27152274.163 6 142298000.665 6      1946.774 6        40.098               
E07  28316913.716 6 148805485.993 6     -2296.333 6        37.858               
E29  28994175.882 5 152415751.633 5      -299.510 5        35.314               
E30  26195070.004 6 137717513.992 6      -303.735 6        39.790               
E34  28246030.393 6 148920787.384 6     -2429.184 6        39.293               
> 2025 01 08 14 22 17.0000000  0  5                                             
E02  27152648.733 6 142296053.224 6      1947.709 6        40.181               
E07  28317354.116 6 148807784.384 6     -2297.520 6        37.764               
E29  28994120.899 5 152416050.356 5      -296.368 5        35.591               
E30  26195015.628 6 137717815.377 6      -300.705 6        39.693               
E34  28245568.944 6 148923216.239 6     -2427.509 6        39.702               
> 2025 01 08 14 22 18.0000000  0  5                                             
E02  27153021.356 6 142294105.421 6      1949.430 6        40.035               
E07  28317798.090 6 148810083.352 6     -2296.933 6        37.821               
E29  28994067.864 5 152416348.408 5      -297.383 5        35.573               
E30  26194958.858 6 137718116.334 6      -300.956 6        39.701               
E34  28245112.605 6 148925644.606 6     -2427.194 6        39.772               
> 2025 01 08 14 22 19.0000000  0  5                                             
E02  27153391.852 6 142292157.280 6      1948.379 6        39.952               
E07  28318236.971 6 148812382.834 6     -2299.176 6        37.977               
E29  28994014.329 5 152416645.806 5      -301.843 5        35.218               
E30  26194903.214 6 137718416.878 6      -300.690 6        39.768               
E34  28244645.776 6 148928072.505 6     -2426.418 6        39.748               
> 2025 01 08 14 22 20.0000000  0  5                                             
E02  27153764.850 6 142290208.885 6      1948.840 6        40.159               
E07  28318676.513 6 148814682.764 6     -2299.077 6        37.858               
E29  28993955.522 5 152416942.603 5      -296.983 5        35.103               
E30  26194850.983 6 137718717.121 6      -299.116 6        39.619               
E34  28244189.652 6 148930500.041 6     -2428.025 6        39.403               
> 2025 01 08 14 22 21.0000000  0  5                                             
E02  27154137.509 6 142288260.180 6      1949.150 6        40.438               
E07  28319116.216 6 148816983.223 6     -2300.422 6        37.883               
E29  28993900.271 5 152417238.708 5      -298.130 5        35.077               
E30  26194794.749 6 137719016.985 6      -300.470 6        39.694               
E34  28243724.092 6 148932927.138 6     -2426.278 6        39.291               
> 2025 01 08 14 22 22.0000000  0  5                                             
E02  27154514.045 6 142286311.188 6      1949.901 6        40.661               
E07  28319557.045 6 148819284.134 6     -2300.956 6        37.755               
E29  28993849.219 5 152417534.259 5      -297.125 5        35.064               
E30  26194738.390 6 137719316.503 6      -299.601 6        39.903               
E34  28243263.875 6 148935353.829 6     -2427.381 6        39.311               
> 2025 01 08 14 22 23.0000000  0  5                                             
E02  27154885.417 6 142284361.699 6      1950.015 6        40.512               
E07  28319994.854 6 148821585.746 6     -2299.701 6        37.851               
E29  28993796.291 5 152417828.934 5      -294.138 5        35.223               
E30  26194683.532 6 137719615.469 6      -297.757 6        40.053               
E34  28242806.571 6 148937779.902 6     -2425.242 6        39.240               
> 2025 01 08 14 22 24.0000000  0  5                                             
E02  27155255.180 6 142282411.963 6      1950.337 6        40.383               
E07  28320434.450 6 148823887.786 6     -2302.260 6        37.673               
E29  28993742.559 5 152418123.035 5      -295.391 5        35.594               
E30  26194627.245 6 137719914.119 6      -298.387 6        40.274               
E34  28242349.142 6 148940205.600 6     -2425.987 6        39.177               
> 2025 01 08 14 22 25.0000000  0  5                                             
E02  27155630.555 6 142280462.133 6      1951.383 6        40.335               
E07  28320875.153 6 148826190.121 6     -2300.709 6        37.744               
E29  28993691.149 5 152418416.715 5      -290.978 5        35.469               
E30  26194574.120 6 137720212.623 6      -297.395 6        39.973               
E34  28241886.871 6 148942631.091 6     -2425.403 6        39.214               
> 2025 01 08 14 22 26.0000000  0  5                                             
E02  27156005.393 6 142278512.169 6      1949.556 6        40.655               
E07  28321315.786 6 148828492.783 6     -2303.693 6        37.851               
E29  28993634.183 5 152418709.927 5      -291.216 5        35.525               
E30  26194518.994 6 137720510.923 6      -296.856 6        39.903               
E34  28241428.959 6 148945056.337 6     -2425.745 6        38.814               
> 2025 01 08 14 22 27.0000000  0  5                                             
E02  27156376.783 6 142276562.094 6      1951.769 6        40.500               
E07  28321754.113 6 148830795.748 6     -2301.577 6        37.805               
E29  28993576.752 6 152419002.685 6      -292.866 6        36.063               
E30  26194463.654 6 137720809.066 6      -297.877 6        39.990               
E34  28240969.940 6 148947481.336 6     -2424.662 6        38.811               
> 2025 01 08 14 22 28.0000000  0  5                                             
E02  27156749.888 6 142274612.091 6      1949.554 6        40.490               
E07  28322193.780 6 148833098.852 6     -2302.860 6        37.733               
E29  28993528.273 6 152419295.202 6      -291.901 6        36.089               
E30  26194406.384 6 137721107.225 6      -298.875 6        39.921               
E34  28240510.884 6 148949906.305 6     -2425.056 6        38.946               
> 2025 01 08 14 22 29.0000000  0  5                                             
E02  27157122.922 6 142272662.134 6      1950.502 6        40.167               
E07  28322636.521 6 148835402.100 6     -2305.270 6        37.712               
E29  28993472.665 6 152419587.407 6      -291.695 6        36.024               
E30  26194356.511 6 137721405.326 6      -298.977 6        39.895               
E34  28240048.666 6 148952331.170 6     -2424.852 6        39.134               
> 2025 01 08 14 22 30.0000000  0  5                                             
E02  27157494.866 6 142270711.641 6      1950.959 6        40.076               
E07  28323077.260 6 148837706.049 6     -2303.102 6        37.726               
E29  28993420.755 6 152419878.751 6      -290.374 6        36.085               
E30  26194300.492 6 137721702.878 6      -297.274 6        39.680               
E34  28239594.722 6 148954755.363 6     -2422.994 6        38.946               
> 2025 01 08 14 22 31.0000000  0  5                                             
E02  27157872.331 6 142268760.905 6      1949.855 6        40.660               
E07  28323514.819 6 148840010.450 6     -2304.893 6        37.884               
E29  28993366.040 6 152420169.539 6      -291.081 6        36.258               
E30  26194244.616 6 137722000.103 6      -298.127 6        39.780               
E34  28239131.235 6 148957179.225 6     -2424.256 6        39.175               
> 2025 01 08 14 22 32.0000000  0  5                                             
E02  27158239.593 6 142266810.003 6      1951.241 6        40.682               
E07  28323955.165 6 148842315.201 6     -2304.718 6        37.956               
E29  28993312.415 6 152420459.795 6      -290.888 6        36.136               
E30  26194192.420 6 137722297.109 6      -295.034 6        39.854               
E34  28238673.180 6 148959602.810 6     -2423.046 6        39.192               
> 2025 01 08 14 22 33.0000000  0  5                                             
E02  27158613.252 6 142264858.915 6      1951.040 6        40.387               
E07  28324398.121 6 148844620.364 6     -2303.764 6        37.862               
E29  28993258.451 6 152420749.540 6      -289.513 6        36.388               
E30  26194135.918 6 137722593.864 6      -298.935 6        40.131               
E34  28238213.464 6 148962026.046 6     -2423.655 6        39.279               
> 2025 01 08 14 22 34.0000000  0  5                                             
E02  27158990.539 6 142262907.752 6      1951.564 6        40.575               
E07  28324838.306 6 148846925.754 6     -2304.428 6        37.951               
E29  28993202.771 6 152421038.882 6      -286.706 6        36.194               
E30  26194080.507 6 137722890.479 6      -297.746 6        40.100               
E34  28237755.249 6 148964449.117 6     -2422.737 6        39.203               
> 2025 01 08 14 22 35.0000000  0  5                                             
E02  27159363.108 6 142260956.412 6      1952.736 6        40.581               
E07  28325278.456 6 148849231.535 6     -2306.292 6        37.653               
E29  28993152.130 6 152421327.694 6      -291.128 6        36.455               
E30  26194027.507 6 137723186.876 6      -295.673 6        39.864               
E34  28237294.407 6 148966871.890 6     -2423.531 6        39.274               
> 2025 01 08 14 22 36.0000000  0  5                                             
E02  27159730.960 6 142259004.597 6      1952.687 6        40.581               
E07  28325716.104 6 148851537.986 6     -2307.578 6        37.941               
E29  28993105.081 6 152421615.703 6      -290.014 6        36.169               
E30  26193972.560 6 137723482.720 6      -296.371 6        39.723               
E34  28236834.512 6 148969294.039 6     -2422.860 6        39.385               
> 2025 01 08 14 22 37.0000000  0  5                                             
E02  27160107.013 6 142257052.575 6      1952.309 6        40.797               
E07  28326160.435 6 148853844.817 6     -2307.459 6        37.987               
E29  28993048.097 6 152421903.151 6      -286.377 6        36.309               
E30  26193917.702 6 137723778.290 6      -297.602 6        39.999               
E34  28236380.013 6 148971715.880 6     -2423.863 6        39.288               
> 2025 01 08 14 22 38.0000000  0  5                                             
E02  27160481.995 6 142255101.042 6      1951.366 6        40.848               
E07  28326596.332 6 148856151.357 6     -2306.612 6        37.942               
E29  28992994.240 5 152422190.809 5      -286.864 5        35.961               
E30  26193862.236 6 137724074.318 6      -296.999 6        39.922               
E34  28235917.348 6 148974138.106 6     -2421.919 6        39.430               
> 2025 01 08 14 22 39.0000000  0  5                                             
E02  27160854.010 6 142253149.062 6      1953.027 6        40.727               
E07  28327040.073 6 148858458.550 6     -2306.320 6        37.955               
E29  28992944.671 6 152422477.640 6      -288.297 6        36.024               
E30  26193808.844 6 137724369.790 6      -294.422 6        39.919               
E34  28235461.563 6 148976559.718 6     -2422.143 6        39.343               
> 2025 01 08 14 22 40.0000000  0  5                                             
E02  27161227.883 6 142251196.596 6      1954.020 6        40.849               
E07  28327484.226 6 148860766.434 6     -2309.704 6        38.108               
E29  28992893.673 6 152422763.670 6      -286.067 6        36.225               
E30  26193752.145 6 137724664.756 6      -294.266 6        40.228               
E34  28234998.291 6 148978980.743 6     -2419.487 6        39.397               
> 2025 01 08 14 22 41.0000000  0  5                                             
E02  27161602.543 6 142249243.712 6      1954.698 6        40.786               
E07  28327918.282 6 148863074.882 6     -2308.354 6        38.268               
E29  28992838.976 6 152423048.948 6      -282.936 6        36.597               
E30  26193699.307 6 137724959.245 6      -294.891 6        40.205               
E34  28234536.609 6 148981401.252 6     -2421.524 6        39.230               
> 2025 01 08 14 22 42.0000000  0  5                                             
E02  27161975.094 6 142247291.337 6      1952.766 6        40.683               
E07  28328366.634 6 148865383.050 6     -2306.805 6        37.816               
E29  28992787.281 6 152423334.429 6      -288.486 6        36.378               
E30  26193647.326 6 137725254.159 6      -294.696 6        40.291               
E34  28234082.539 6 148983822.116 6     -2421.130 6        39.418               
> 2025 01 08 14 22 43.0000000  0  5                                             
E02  27162348.682 6 142245339.101 6      1952.495 6        40.356               
E07  28328803.835 6 148867691.271 6     -2309.163 6        37.958               
E29  28992729.439 6 152423619.655 6      -284.935 6        36.200               
E30  26193591.753 6 137725549.166 6      -292.068 6        40.447               
E34  28233626.825 6 148986243.002 6     -2419.432 6        39.468               
> 2025 01 08 14 22 44.0000000  0  5                                             
E02  27162717.945 6 142243385.922 6      1952.736 6        40.594               
E07  28329243.556 6 148870000.600 6     -2309.628 6        38.270               
E29  28992679.405 6 152423903.631 6      -283.694 6        36.637               
E30  26193537.503 6 137725843.153 6      -295.474 6        40.272               
E34  28233163.571 6 148988662.814 6     -2420.121 6        39.226               
> 2025 01 08 14 22 45.0000000  0  5                                             
E02  27163094.142 6 142241433.005 6      1953.436 6        40.540               
E07  28329686.476 6 148872309.870 6     -2308.491 6        38.483               
E29  28992629.783 6 152424187.527 6      -282.687 6        36.200               
E30  26193481.465 6 137726137.356 6      -292.548 6        40.071               
E34  28232707.518 6 148991082.785 6     -2418.533 6        39.372               
> 2025 01 08 14 22 46.0000000  0  5                                             
E02  27163468.981 6 142239479.735 6      1952.250 6        40.727               
E07  28330130.825 6 148874619.698 6     -2310.572 6        38.242               
E29  28992576.730 6 152424470.744 6      -284.774 6        36.393               
E30  26193427.233 6 137726431.136 6      -293.444 6        39.707               
E34  28232245.139 6 148993502.276 6     -2419.803 6        39.424               
> 2025 01 08 14 22 47.0000000  0  5                                             
E02  27163837.851 6 142237526.026 6      1954.352 6        40.627               
E07  28330570.153 6 148876930.146 6     -2309.380 6        38.128               
E29  28992524.928 6 152424753.183 6      -281.763 6        36.526               
E30  26193376.449 6 137726724.421 6      -293.789 6        39.846               
E34  28231792.856 6 148995921.180 6     -2418.300 6        39.424               
> 2025 01 08 14 22 48.0000000  0  5                                             
E02  27164216.799 6 142235572.053 6      1953.330 6        41.111               
E07  28331008.980 6 148879241.054 6     -2312.204 6        37.935               
E29  28992471.660 6 152425035.015 6      -280.979 6        36.795               
E30  26193322.163 6 137727017.377 6      -292.735 6        39.956               
E34  28231332.085 6 148998339.729 6     -2418.781 6        39.348               
> 2025 01 08 14 22 49.0000000  0  5                                             
E02  27164590.208 6 142233618.187 6      1954.840 6        40.795               
E07  28331455.187 6 148881552.023 6     -2310.166 6        38.036               
E29  28992418.982 6 152425316.655 6      -281.329 6        36.762               
E30  26193265.768 6 137727310.405 6      -292.788 6        39.917               
E34  28230873.245 6 149000758.282 6     -2418.937 6        39.315               
> 2025 01 08 14 22 50.0000000  0  5                                             
E02  27164963.385 6 142231663.509 6      1953.177 6        40.863               
E07  28331895.337 6 148883864.041 6     -2313.717 6        38.071               
E29  28992374.721 6 152425597.084 6      -280.028 6        36.790               
E30  26193212.769 6 137727602.497 6      -291.001 6        39.917               
E34  28230414.601 6 149003175.837 6     -2420.224 6        39.694               
> 2025 01 08 14 22 51.0000000  0  5                                             
E02  27165341.243 6 142229708.860 6      1955.143 6        40.908               
E07  28332336.452 6 148886176.184 6     -2313.164 6        37.885               
E29  28992317.450 6 152425877.260 6      -277.833 6        37.095               
E30  26193159.358 6 137727894.634 6      -290.839 6        40.005               
E34  28229956.474 6 149005593.349 6     -2417.385 6        39.523               
> 2025 01 08 14 22 52.0000000  0  5                                             
E02  27165709.148 6 142227754.228 6      1954.920 6        40.376               
E07  28332780.515 6 148888488.532 6     -2311.477 6        38.049               
E29  28992268.632 6 152426157.122 6      -280.131 6        36.637               
E30  26193107.377 6 137728186.674 6      -291.647 6        40.341               
E34  28229498.277 6 149008010.743 6     -2419.040 6        39.512               
> 2025 01 08 14 22 53.0000000  0  5                                             
E02  27166083.880 6 142225799.587 6      1955.378 6        40.494               
E07  28333221.254 6 148890801.053 6     -2311.983 6        38.206               
E29  28992212.684 6 152426436.618 6      -280.979 6        36.528               
E30  26193052.948 6 137728478.668 6      -292.506 6        40.322               
E34  28229038.829 6 149010427.995 6     -2416.891 6        39.264               
> 2025 01 08 14 22 54.0000000  0  5                                             
E02  27166453.679 6 142223844.853 6      1953.327 6        40.699               
E07  28333664.174 6 148893113.873 6     -2312.863 6        38.005               
E29  28992166.725 6 152426715.678 6      -277.838 6        36.414               
E30  26192999.520 6 137728770.472 6      -290.830 6        40.314               
E34  28228579.112 6 149012845.015 6     -2418.255 6        39.399               
> 2025 01 08 14 22 55.0000000  0  5                                             
E02  27166832.359 6 142221890.017 6      1954.708 6        40.514               
E07  28334108.559 6 148895426.991 6     -2313.897 6        37.997               
E29  28992112.582 6 152426994.319 6      -279.218 6        36.410               
E30  26192944.966 6 137729062.162 6      -291.643 6        40.162               
E34  28228120.897 6 149015261.831 6     -2415.855 6        39.248               
> 2025 01 08 14 22 56.0000000  0  5                                             
E02  27167205.608 6 142219934.970 6      1955.225 6        40.361               
E07  28334547.315 6 148897740.488 6     -2313.491 6        38.113               
E29  28992060.476 6 152427272.406 6      -278.726 6        36.550               
E30  26192891.591 6 137729353.557 6      -290.641 6        40.429               
E34  28227670.151 6 149017678.307 6     -2416.514 6        39.259               
> 2025 01 08 14 22 57.0000000  0  5                                             
E02  27167579.195 6 142217979.821 6      1955.246 6        40.450               
E07  28334992.003 6 148900054.301 6     -2311.806 6        38.533               
E29  28992013.981 6 152427550.057 6      -276.247 6        36.398               
E30  26192838.466 6 137729644.799 6      -289.110 6        40.453               
E34  28227203.626 6 149020094.576 6     -2415.541 6        38.988               
> 2025 01 08 14 22 58.0000000  0  5                                             
E02  27167952.569 6 142216024.829 6      1954.417 6        40.704               
E07  28335428.115 6 148902368.140 6     -2313.736 6        38.688               
E29  28991958.087 6 152427827.518 6      -277.098 6        36.472               
E30  26192783.859 6 137729936.121 6      -291.499 6        40.648               
E34  28226747.091 6 149022510.833 6     -2415.462 6        38.817               
> 2025 01 08 14 22 59.0000000  0  5                                             
E02  27168328.140 6 142214069.771 6      1955.713 6        40.558               
E07  28335868.550 6 148904682.220 6     -2314.175 6        38.634               
E29  28991902.961 6 152428104.582 6      -276.518 6        36.627               
E30  26192730.216 6 137730227.346 6      -290.866 6        40.431               
E34  28226289.465 6 149024926.974 6     -2417.046 6        38.998               
> 2025 01 08 14 23 00.0000000  0  5                                             
E02  27168701.906 6 142212113.720 6      1957.633 6        40.686               
E07  28336313.685 6 148906997.507 6     -2318.312 6        38.779               
E29  28991859.664 6 152428380.325 6      -273.160 6        36.203               
E30  26192675.179 6 137730517.494 6      -286.291 6        40.285               
E34  28225832.947 6 149027341.944 6     -2412.764 6        38.922               
> 2025 01 08 14 23 01.0000000  0  5                                             
E02  27169077.084 6 142210157.804 6      1953.055 6        41.131               
E07  28336758.678 6 148909312.868 6     -2313.759 6        38.511               
E29  28991804.842 6 152428655.874 6      -276.994 6        36.144               
E30  26192624.324 6 137730807.687 6      -290.638 6        40.180               
E34  28225375.000 6 149029756.925 6     -2417.992 6        38.784               
> 2025 01 08 14 23 02.0000000  0  5                                             
E02  27169450.422 6 142208201.873 6      1957.015 6        40.810               
E07  28337196.790 6 148911628.387 6     -2315.855 6        38.536               
E29  28991754.540 5 152428931.070 5      -273.844 5        35.835               
E30  26192570.914 6 137731097.868 6      -289.107 6        40.190               
E34  28224919.572 6 149032171.789 6     -2414.427 6        38.798               
> 2025 01 08 14 23 03.0000000  0  5                                             
E02  27169823.866 6 142206245.322 6      1955.900 6        40.886               
E07  28337643.605 6 148913944.767 6     -2317.613 6        38.242               
E29  28991705.633 6 152429205.303 6      -276.595 6        36.059               
E30  26192516.842 6 137731387.326 6      -288.582 6        40.277               
E34  28224459.070 6 149034585.885 6     -2415.723 6        38.920               
> 2025 01 08 14 23 04.0000000  0  5                                             
E02  27170198.687 6 142204288.857 6      1956.987 6        40.778               
E07  28338086.346 6 148916261.201 6     -2316.285 6        38.266               
E29  28991652.187 6 152429479.291 6      -275.093 6        36.181               
E30  26192461.930 6 137731676.824 6      -289.994 6        40.223               
E34  28224001.891 6 149036999.968 6     -2415.776 6        39.097               
> 2025 01 08 14 23 05.0000000  0  5                                             
E02  27170571.345 6 142202332.590 6      1955.029 6        40.575               
E07  28338522.833 6 148918577.662 6     -2316.358 6        37.851               
E29  28991600.224 6 152429753.131 6      -276.302 6        36.068               
E30  26192410.289 6 137731966.438 6      -291.065 6        40.467               
E34  28223546.302 6 149039414.075 6     -2413.127 6        39.310               
> 2025 01 08 14 23 06.0000000  0  5                                             
E02  27170945.290 6 142200375.942 6      1957.207 6        40.566               
E07  28338970.327 6 148920894.674 6     -2317.230 6        37.881               
E29  28991553.728 5 152430026.273 5      -271.648 5        35.854               
E30  26192358.362 6 137732255.640 6      -288.606 6        40.525               
E34  28223091.643 6 149041827.739 6     -2412.353 6        39.334               
> 2025 01 08 14 23 07.0000000  0  5                                             
E02  27171318.932 6 142198418.284 6      1958.194 6        40.797               
E07  28339411.656 6 148923212.876 6     -2317.245 6        38.208               
E29  28991500.282 5 152430298.068 5      -270.574 5        35.937               
E30  26192304.343 6 137732543.758 6      -288.468 6        40.448               
E34  28222630.872 6 149044240.232 6     -2412.418 6        39.442               
> 2025 01 08 14 23 08.0000000  0  5                                             
E02  27171695.718 6 142196461.078 6      1956.103 6        40.623               
E07  28339857.309 6 148925530.855 6     -2316.205 6        37.952               
E29  28991453.126 5 152430569.959 5      -271.822 5        35.904               
E30  26192249.378 6 137732832.258 6      -290.323 6        40.634               
E34  28222174.479 6 149046653.058 6     -2411.331 6        39.275               
> 2025 01 08 14 23 09.0000000  0  5                                             
E02  27172067.662 6 142194504.371 6      1958.647 6        40.528               
E07  28340293.349 6 148927848.491 6     -2317.793 6        37.722               
E29  28991402.503 6 152430842.044 6      -272.353 6        36.169               
E30  26192196.826 6 137733121.196 6      -288.916 6        40.254               
E34  28221715.406 6 149049066.288 6     -2412.875 6        39.520               
> 2025 01 08 14 23 10.0000000  0  5                                             
E02  27172441.893 6 142192546.583 6      1959.001 6        40.367               
E07  28340740.128 6 148930167.425 6     -2319.354 6        37.679               
E29  28991351.934 6 152431112.709 6      -269.064 6        36.146               
E30  26192145.524 6 137733408.999 6      -287.370 6        40.286               
E34  28221259.067 6 149051478.284 6     -2411.416 6        39.585               
> 2025 01 08 14 23 11.0000000  0  5                                             
E02  27172818.196 6 142190588.625 6      1958.640 6        40.427               
E07  28341182.976 6 148932486.707 6     -2318.444 6        37.657               
E29  28991307.011 6 152431382.860 6      -268.408 6        36.162               
E30  26192090.058 6 137733696.597 6      -287.954 6        40.377               
E34  28220801.477 6 149053889.995 6     -2410.703 6        39.753               
> 2025 01 08 14 23 12.0000000  0  5                                             
E02  27173193.446 6 142188630.183 6      1959.664 6        40.306               
E07  28341626.325 6 148934806.670 6     -2319.234 6        37.571               
E29  28991252.439 6 152431652.188 6      -274.221 6        36.017               
E30  26192039.453 6 137733983.588 6      -285.762 6        40.657               
E34  28220343.959 6 149056301.088 6     -2410.997 6        39.814               
> 2025 01 08 14 23 13.0000000  0  5                                             
E02  27173564.282 6 142186671.708 6      1957.643 6        40.622               
E07  28342069.673 6 148937126.857 6     -2320.188 6        37.804               
E29  28991203.281 5 152431921.157 5      -268.841 5        35.919               
E30  26191988.669 6 137734270.533 6      -285.701 6        40.590               
E34  28219886.101 6 149058712.021 6     -2409.574 6        39.484               
> 2025 01 08 14 23 14.0000000  0  5                                             
E02  27173942.765 6 142184712.734 6      1959.527 6        40.979               
E07  28342509.465 6 148939447.698 6     -2321.699 6        37.742               
E29  28991159.466 6 152432189.272 6      -264.821 6        36.161               
E30  26191934.473 6 137734556.902 6      -286.553 6        40.629               
E34  28219428.815 6 149061122.339 6     -2410.892 6        39.456               
> 2025 01 08 14 23 15.0000000  0  5                                             
E02  27174318.247 6 142182753.585 6      1960.950 6        40.674               
E07  28342959.926 6 148941768.964 6     -2322.879 6        37.565               
E29  28991104.001 6 152432456.881 6      -265.645 6        36.430               
E30  26191883.582 6 137734843.045 6      -286.236 6        40.461               
E34  28218970.849 6 149063532.354 6     -2409.362 6        39.456               
> 2025 01 08 14 23 16.0000000  0  5                                             
E02  27174689.208 6 142180794.034 6      1959.467 6        41.053               
E07  28343401.290 6 148944090.792 6     -2323.383 6        37.816               
E29  28991064.332 6 152432723.751 6      -265.740 6        36.525               
E30  26191831.172 6 137735128.703 6      -285.928 6        40.805               
E34  28218521.265 6 149065941.827 6     -2408.484 6        39.432               
> 2025 01 08 14 23 17.0000000  0  5                                             
E02  27175067.209 6 142178834.768 6      1957.053 6        40.796               
E07  28343843.459 6 148946412.523 6     -2320.933 6        37.782               
E29  28991006.275 6 152432990.581 6      -265.180 6        36.498               
E30  26191776.582 6 137735414.602 6      -286.095 6        40.837               
E34  28218059.511 6 149068351.479 6     -2411.085 6        39.400               
> 2025 01 08 14 23 18.0000000  0  5                                             
E02  27175438.689 6 142176875.453 6      1958.756 6        40.493               
E07  28344287.022 6 148948734.498 6     -2321.463 6        37.706               
E29  28990963.747 6 152433257.035 6      -265.252 6        36.736               
E30  26191724.529 6 137735700.381 6      -284.962 6        40.870               
E34  28217604.048 6 149070760.946 6     -2409.874 6        39.246               
> 2025 01 08 14 23 19.0000000  0  5                                             
E02  27175814.528 6 142174915.971 6      1959.448 6        40.704               
E07  28344731.711 6 148951056.828 6     -2325.260 6        37.642               
E29  28990911.087 6 152433522.981 6      -264.934 6        36.771               
E30  26191670.208 6 137735985.953 6      -286.049 6        40.760               
E34  28217150.586 6 149073170.142 6     -2410.845 6        39.337               
> 2025 01 08 14 23 20.0000000  0  5                                             
E02  27176186.739 6 142172956.889 6      1959.234 6        40.126               
E07  28345172.611 6 148953378.935 6     -2323.001 6        37.501               
E29  28990866.754 6 152433789.002 6      -264.150 6        36.690               
E30  26191618.870 6 137736271.840 6      -285.068 6        40.692               
E34  28216688.832 6 149075579.602 6     -2409.407 6        39.537               
> 2025 01 08 14 23 21.0000000  0  5                                             
E02  27176563.561 6 142170996.154 6      1960.946 6        40.300               
E07  28345622.124 6 148955702.889 6     -2323.567 6        37.479               
E29  28990816.238 6 152434053.019 6      -261.187 6        36.624               
E30  26191568.372 6 137736556.018 6      -284.320 6        40.786               
E34  28216236.085 6 149077987.260 6     -2406.532 6        39.591               
> 2025 01 08 14 23 22.0000000  0  5                                             
E02  27176937.828 6 142169037.063 6      1956.666 6        40.129               
E07  28346065.740 6 148958025.426 6     -2319.308 6        37.571               
E29  28990768.170 6 152434318.325 6      -266.946 6        36.365               
E30  26191513.657 6 137736841.791 6      -288.458 6        40.692               
E34  28215776.065 6 149080396.465 6     -2409.640 6        39.954               
> 2025 01 08 14 23 23.0000000  0  5                                             
E02  27177311.559 6 142167077.599 6      1959.775 6        40.046               
E07  28346510.536 6 148960348.488 6     -2323.441 6        37.951               
E29  28990718.905 6 152434582.967 6      -266.155 6        36.608               
E30  26191461.622 6 137737127.125 6      -285.268 6        40.761               
E34  28215320.690 6 149082805.183 6     -2407.261 6        39.516               
> 2025 01 08 14 23 24.0000000  0  5                                             
E02  27177688.881 6 142165117.619 6      1960.645 6        40.027               
E07  28346951.794 6 148962672.257 6     -2323.789 6        37.845               
E29  28990670.302 6 152434846.737 6      -262.392 6        36.756               
E30  26191408.301 6 137737411.871 6      -282.924 6        40.815               
E34  28214863.779 6 149085213.221 6     -2407.303 6        39.751               
> 2025 01 08 14 23 25.0000000  0  5                                             
E02  27178063.255 6 142163156.444 6      1960.668 6        39.930               
E07  28347399.270 6 148964997.409 6     -2323.501 6        37.827               
E29  28990625.683 6 152435108.972 6      -263.906 6        36.937               
E30  26191357.017 6 137737695.377 6      -283.656 6        40.577               
E34  28214407.673 6 149087619.963 6     -2408.331 6        39.761               
> 2025 01 08 14 23 26.0000000  0  5                                             
E02  27178440.398 6 142161195.472 6      1960.994 6        40.143               
E07  28347843.065 6 148967322.587 6     -2324.540 6        37.685               
E29  28990574.238 6 152435371.081 6      -263.748 6        36.998               
E30  26191306.073 6 137737979.011 6      -283.572 6        40.675               
E34  28213948.957 6 149090026.780 6     -2407.489 6        39.941               
> 2025 01 08 14 23 27.0000000  0  5                                             
E02  27178813.182 6 142159235.433 6      1960.846 6        40.287               
E07  28348286.092 6 148969646.938 6     -2324.609 6        37.817               
E29  28990529.494 6 152435633.776 6      -261.798 6        36.988               
E30  26191252.591 6 137738263.517 6      -282.860 6        41.021               
E34  28213495.209 6 149092434.391 6     -2407.247 6        39.900               
> 2025 01 08 14 23 28.0000000  0  6                                             
E02  27179188.021 6 142157274.628 6      1960.885 6        40.251               
E07  28348732.192 6 148971972.334 6     -2325.336 6        37.927               
E29  28990482.695 6 152435895.346 6      -260.773 6        37.146               
E30  26191201.450 6 137738547.196 6      -282.263 6        40.961               
E34  28213037.798 6 149094841.118 6     -2406.315 6        39.951               
E36  27881131.811 5 146516340.590 5       -93.014 5        35.136               
> 2025 01 08 14 23 29.0000000  0  6                                             
E02  27179566.111 6 142155313.835 6      1962.360 6        40.437               
E07  28349177.863 6 148974297.853 6     -2324.965 6        37.993               
E29  28990431.554 6 152436156.641 6      -260.490 6        37.218               
E30  26191151.273 6 137738830.843 6      -282.782 6        40.973               
E34  28212582.155 6 149097247.745 6     -2406.573 6        39.668               
E36  27881150.234 5 146516437.089 5       -94.809 5        34.292               
> 2025 01 08 14 23 30.0000000  0  6                                             
E02  27179939.699 6 142153352.552 6      1961.631 6        40.404               
E07  28349614.010 6 148976624.074 6     -2326.206 6        37.658               
E29  28990383.879 6 152436417.106 6      -261.284 6        37.375               
E30  26191095.236 6 137739113.907 6      -282.314 6        40.891               
E34  28212127.800 6 149099653.729 6     -2406.785 6        39.771               
E36  27881175.375 5 146516534.468 5       -96.713 5        33.515               
> 2025 01 08 14 23 31.0000000  0  6                                             
E02  27180313.805 6 142151392.266 6      1959.836 6        40.053               
E07  28350064.881 6 148978949.485 6     -2326.294 6        37.552               
E29  28990333.596 6 152436678.207 6      -260.080 6        37.250               
E30  26191043.773 6 137739397.936 6      -284.061 6        40.780               
E34  28211668.977 6 149102060.595 6     -2407.664 6        39.675               
E36  27881193.083 5 146516631.219 5       -96.701 5        35.928               
> 2025 01 08 14 23 32.0000000  0  6                                             
E02  27180688.268 6 142149431.309 6      1961.336 6        40.134               
E07  28350505.103 6 148981275.775 6     -2329.192 6        37.542               
E29  28990286.207 6 152436938.329 6      -258.289 6        37.413               
E30  26190992.614 6 137739681.209 6      -280.999 6        41.017               
E34  28211215.068 6 149104466.647 6     -2404.353 6        39.926               
E36  27881218.189 5 146516729.035 5       -96.927 5        33.221               
> 2025 01 08 14 23 33.0000000  0  6                                             
E02  27181062.660 6 142147469.363 6      1960.897 6        40.096               
E07  28350951.239 6 148983603.181 6     -2325.575 6        37.524               
E29  28990245.948 6 152437197.113 6      -259.186 6        37.385               
E30  26190939.758 6 137739963.472 6      -285.250 6        40.916               
E34  28210758.371 6 149106871.631 6     -2406.239 6        39.904               
E36  27881233.682 5 146516828.139 5       -94.729 5        32.758               
> 2025 01 08 14 23 34.0000000  0  6                                             
E02  27181436.676 6 142145508.101 6      1963.369 6        39.986               
E07  28351396.910 6 148985930.148 6     -2326.790 6        37.348               
E29  28990192.716 6 152437456.229 6      -260.217 6        37.450               
E30  26190889.260 6 137740246.313 6      -280.917 6        40.771               
E34  28210304.141 6 149109277.141 6     -2405.381 6        39.966               
E36  27881252.230 5 146516927.002 5      -102.539 5        34.849               
> 2025 01 08 14 23 35.0000000  0  6                                             
E02  27181815.071 6 142143545.880 6      1962.124 6        40.041               
E07  28351839.240 6 148988258.262 6     -2329.240 6        36.845               
E29  28990147.561 6 152437714.073 6      -257.786 6        37.697               
E30  26190836.385 6 137740528.153 6      -282.270 6        40.782               
E34  28209844.389 6 149111681.572 6     -2404.262 6        39.689               
E36  27881277.050 6 146517027.174 6      -100.881 6        36.623               
> 2025 01 08 14 23 36.0000000  0  6                                             
E02  27182187.676 6 142141583.593 6      1962.995 6        40.085               
E07  28352282.105 6 148990586.620 6     -2327.077 6        36.801               
E29  28990098.833 6 152437971.471 6      -256.962 6        37.665               
E30  26190786.048 6 137740809.839 6      -281.842 6        40.794               
E34  28209391.213 6 149114085.785 6     -2404.695 6        39.640               
E36  27881294.472 5 146517127.775 5      -101.812 5        35.289               
> 2025 01 08 14 23 37.0000000  0  6                                             
E02  27182562.478 6 142139621.090 6      1962.581 6        39.817               
E07  28352728.920 6 148992915.375 6     -2329.419 6        36.596               
E29  28990046.637 6 152438228.405 6      -259.479 6        37.699               
E30  26190734.032 6 137741091.277 6      -281.245 6        40.928               
E34  28208940.913 6 149116489.666 6     -2402.978 6        39.664               
E36  27881316.290 5 146517228.976 5      -100.684 5        33.227               
> 2025 01 08 14 23 38.0000000  0  6                                             
E02  27182941.141 6 142137658.502 6      1964.108 6        39.762               
E07  28353177.218 6 148995244.404 6     -2330.284 6        36.859               
E29  28990004.788 6 152438484.844 6      -256.042 6        37.727               
E30  26190680.996 6 137741372.565 6      -281.433 6        40.957               
E34  28208481.518 6 149118893.362 6     -2403.316 6        39.810               
E36  27881340.807 5 146517330.620 5      -100.466 5        33.937               
> 2025 01 08 14 23 39.0000000  0  6                                             
E02  27183314.693 6 142135695.385 6      1963.188 6        40.115               
E07  28353619.638 6 148997574.171 6     -2330.325 6        37.082               
E29  28989956.684 6 152438740.406 6      -254.572 6        37.561               
E30  26190628.837 6 137741653.257 6      -280.670 6        41.240               
E34  28208026.466 6 149121296.382 6     -2403.967 6        39.831               
E36  27881358.283 5 146517433.184 5      -103.227 5        33.792               
> 2025 01 08 14 23 40.0000000  0  6                                             
E02  27183689.370 6 142133732.227 6      1961.679 6        40.281               
E07  28354065.184 6 148999904.172 6     -2327.630 6        37.038               
E29  28989907.902 6 152438995.621 6      -254.589 6        37.583               
E30  26190577.928 6 137741933.832 6      -278.475 6        41.188               
E34  28207568.036 6 149123699.226 6     -2402.330 6        39.953               
E36  27881382.513 5 146517536.178 5      -105.317 5        35.777               
> 2025 01 08 14 23 41.0000000  0  6                                             
E02  27184066.728 6 142131768.640 6      1962.444 6        40.179               
E07  28354514.590 6 149002234.756 6     -2332.307 6        36.666               
E29  28989862.872 6 152439250.087 6      -254.394 6        37.731               
E30  26190527.859 6 137742213.932 6      -280.877 6        41.260               
E34  28207112.090 6 149126101.520 6     -2401.521 6        39.614               
E36  27881401.454 6 146517639.951 6      -103.393 6        37.870               
> 2025 01 08 14 23 42.0000000  0  6                                             
E02  27184439.637 6 142129804.886 6      1963.688 6        40.208               
E07  28354953.507 6 149004565.724 6     -2331.345 6        36.816               
E29  28989819.075 6 152439504.042 6      -253.280 6        37.681               
E30  26190477.307 6 137742493.797 6      -280.312 6        41.259               
E34  28206659.003 6 149128503.542 6     -2403.306 6        39.390               
E36  27881424.559 6 146517744.234 6      -102.377 6        37.097               
> 2025 01 08 14 23 43.0000000  0  6                                             
E02  27184813.957 6 142127841.679 6      1964.645 6        40.527               
E07  28355397.748 6 149006896.324 6     -2334.247 6        36.867               
E29  28989770.453 6 152439758.208 6      -251.189 6        37.769               
E30  26190422.914 6 137742774.170 6      -280.053 6        41.383               
E34  28206205.523 6 149130905.958 6     -2400.719 6        39.541               
E36  27881450.808 6 146517848.387 6      -103.881 6        36.887               
> 2025 01 08 14 23 44.0000000  0  6                                             
E02  27185191.315 6 142125877.552 6      1964.554 6        40.258               
E07  28355838.559 6 149009228.040 6     -2331.103 6        36.918               
E29  28989730.355 6 152440011.077 6      -252.224 6        37.880               
E30  26190373.578 6 137743053.528 6      -278.827 6        41.129               
E34  28205749.756 6 149133307.339 6     -2401.467 6        39.496               
E36  27881467.730 6 146517953.811 6      -103.700 6        36.567               
> 2025 01 08 14 23 45.0000000  0  6                                             
E02  27185563.366 6 142123913.425 6      1963.137 6        40.130               
E07  28356295.613 6 149011559.920 6     -2332.039 6        37.006               
E29  28989679.393 6 152440263.694 6      -252.087 6        38.131               
E30  26190321.668 6 137743332.854 6      -280.084 6        41.166               
E34  28205292.881 6 149135708.590 6     -2400.218 6        39.595               
E36  27881490.996 6 146518059.607 6      -103.767 6        36.304               
> 2025 01 08 14 23 46.0000000  0  6                                             
E02  27185940.742 6 142121949.075 6      1966.571 6        40.156               
E07  28356736.978 6 149013892.238 6     -2332.131 6        37.017               
E29  28989633.738 6 152440515.670 6      -254.059 6        38.100               
E30  26190269.777 6 137743611.878 6      -280.163 6        41.265               
E34  28204840.330 6 149138109.475 6     -2400.476 6        39.604               
E36  27881515.530 6 146518166.009 6      -107.725 6        36.333               
> 2025 01 08 14 23 47.0000000  0  6                                             
E02  27186322.353 6 142119984.902 6      1964.765 6        39.853               
E07  28357191.798 6 149016224.543 6     -2332.082 6        37.154               
E29  28989586.367 6 152440767.537 6      -248.199 6        37.698               
E30  26190218.778 6 137743891.031 6      -279.018 6        41.137               
E34  28204381.346 6 149140510.450 6     -2401.491 6        39.503               
E36  27881535.347 6 146518272.581 6      -106.630 6        36.455               
> 2025 01 08 14 23 48.0000000  0  6                                             
E02  27186696.137 6 142118020.514 6      1962.561 6        39.748               
E07  28357629.143 6 149018557.242 6     -2333.380 6        37.502               
E29  28989541.712 6 152441018.863 6      -252.338 6        37.953               
E30  26190165.975 6 137744169.900 6      -277.946 6        41.094               
E34  28203927.008 6 149142911.065 6     -2401.815 6        39.408               
E36  27881557.236 6 146518379.749 6      -106.962 6        36.396               
> 2025 01 08 14 23 49.0000000  0  6                                             
E02  27187067.438 6 142116055.869 6      1964.317 6        40.034               
E07  28358071.151 6 149020890.403 6     -2335.320 6        37.172               
E29  28989497.647 6 152441269.536 6      -250.276 6        38.014               
E30  26190116.979 6 137744448.449 6      -276.193 6        41.058               
E34  28203471.009 6 149145311.277 6     -2397.914 6        39.253               
E36  27881578.000 6 146518487.565 6      -109.615 6        36.581               
> 2025 01 08 14 23 50.0000000  0  6                                             
E02  27187445.510 6 142114090.626 6      1966.590 6        40.089               
E07  28358524.399 6 149023224.368 6     -2334.502 6        37.229               
E29  28989446.863 6 152441519.333 6      -250.646 6        38.029               
E30  26190064.855 6 137744726.339 6      -277.237 6        41.342               
E34  28203018.118 6 149147710.776 6     -2398.977 6        39.275               
E36  27881602.641 6 146518596.341 6      -109.527 6        36.826               
> 2025 01 08 14 23 51.0000000  0  6                                             
E02  27187817.222 6 142112125.034 6      1964.183 6        39.730               
E07  28358967.800 6 149025558.854 6     -2333.350 6        37.322               
E29  28989404.174 6 152441768.400 6      -249.198 6        37.488               
E30  26190013.606 6 137745003.815 6      -276.519 6        41.455               
E34  28202566.336 6 149150109.776 6     -2398.386 6        39.126               
E36  27881626.211 6 146518705.848 6      -111.099 6        37.197               
> 2025 01 08 14 23 52.0000000  0  6                                             
E02  27188195.295 6 142110159.639 6      1966.439 6        39.566               
E07  28359412.132 6 149027893.320 6     -2334.523 6        37.438               
E29  28989357.572 6 152442017.355 6      -250.748 6        37.741               
E30  26189960.857 6 137745281.427 6      -278.099 6        41.538               
E34  28202107.709 6 149152508.872 6     -2398.769 6        39.479               
E36  27881648.243 6 146518815.517 6      -111.599 6        37.204               
> 2025 01 08 14 23 53.0000000  0  6                                             
E02  27188573.278 6 142108194.638 6      1965.716 6        39.641               
E07  28359853.389 6 149030227.609 6     -2332.539 6        37.350               
E29  28989310.880 6 152442266.372 6      -248.471 6        37.697               
E30  26189913.129 6 137745559.393 6      -277.476 6        41.157               
E34  28201651.156 6 149154908.247 6     -2399.338 6        39.270               
E36  27881670.151 6 146518925.136 6      -112.020 6        37.510               
> 2025 01 08 14 23 54.0000000  0  6                                             
E02  27188947.098 6 142106229.019 6      1967.481 6        39.914               
E07  28360299.454 6 149032562.694 6     -2337.136 6        37.316               
E29  28989265.725 6 152442514.411 6      -245.814 6        37.672               
E30  26189860.772 6 137745836.653 6      -275.459 6        41.336               
E34  28201196.622 6 149157306.852 6     -2397.858 6        39.506               
E36  27881691.915 6 146519035.790 6      -111.866 6        37.432               
> 2025 01 08 14 23 55.0000000  0  6                                             
E02  27189324.974 6 142104262.717 6      1966.519 6        39.945               
E07  28360747.359 6 149034898.626 6     -2334.420 6        37.578               
E29  28989223.161 6 152442761.432 6      -246.589 6        37.633               
E30  26189810.185 6 137746113.169 6      -275.089 6        41.407               
E34  28200747.341 6 149159704.624 6     -2396.687 6        39.236               
E36  27881715.806 6 146519147.483 6      -110.314 6        37.265               
> 2025 01 08 14 23 56.0000000  0  6                                             
E02  27189701.350 6 142102296.548 6      1966.410 6        39.995               
E07  28361199.373 6 149037234.638 6     -2334.782 6        37.586               
E29  28989178.274 6 152443008.268 6      -244.501 6        37.226               
E30  26189759.705 6 137746389.773 6      -275.831 6        41.306               
E34  28200288.339 6 149162102.457 6     -2397.768 6        39.111               
E36  27881737.946 6 146519259.418 6      -112.674 6        37.375               
> 2025 01 08 14 23 57.0000000  0  6                                             
E02  27190077.850 6 142100330.395 6      1965.975 6        39.964               
E07  28361646.671 6 149039570.824 6     -2335.773 6        37.459               
E29  28989131.171 6 152443254.783 6      -246.191 6        37.442               
E30  26189708.421 6 137746666.307 6      -276.226 6        41.093               
E34  28199835.735 6 149164500.139 6     -2396.806 6        39.068               
E36  27881761.158 6 146519371.732 6      -113.289 6        37.367               
> 2025 01 08 14 23 58.0000000  0  6                                             
E02  27190450.669 6 142098364.238 6      1967.497 6        40.043               
E07  28362091.752 6 149041907.182 6     -2336.736 6        37.226               
E29  28989087.071 6 152443500.931 6      -244.636 6        37.151               
E30  26189657.316 6 137746942.792 6      -275.102 6        41.440               
E34  28199382.594 6 149166897.722 6     -2397.483 6        38.935               
E36  27881784.977 6 146519484.361 6      -111.398 6        37.301               
> 2025 01 08 14 23 59.0000000  0  6                                             
E02  27190825.561 6 142096397.582 6      1966.482 6        40.174               
E07  28362538.925 6 149044244.244 6     -2337.715 6        37.303               
E29  28989040.522 6 152443746.268 6      -243.944 6        37.504               
E30  26189609.355 6 137747218.699 6      -274.641 6        41.837               
E34  28198930.490 6 149169294.621 6     -2395.451 6        38.721               
E36  27881810.780 6 146519597.931 6      -114.596 6        37.654               
> 2025 01 08 14 24 00.0000000  0  6                                             
E02  27191201.579 6 142094430.895 6      1965.838 6        40.395               
E07  28362986.079 6 149046581.518 6     -2339.579 6        37.325               
E29  28988995.117 6 152443991.256 6      -245.065 6        37.394               
E30  26189555.337 6 137747494.534 6      -276.121 6        41.642               
E34  28198472.650 6 149171691.385 6     -2395.811 6        38.704               
E36  27881837.172 6 146519711.870 6      -114.022 6        37.758               
> 2025 01 08 14 24 01.0000000  0  6                                             
E02  27191576.453 6 142092463.859 6      1967.081 6        40.371               
E07  28363428.391 6 149048919.332 6     -2338.477 6        37.484               
E29  28988944.708 6 152444235.540 6      -245.546 6        37.248               
E30  26189506.323 6 137747769.945 6      -275.091 6        41.488               
E34  28198017.794 6 149174087.680 6     -2394.082 6        38.931               
E36  27881855.399 6 146519826.542 6      -115.837 6        37.857               
> 2025 01 08 14 24 02.0000000  0  6                                             
E02  27191955.259 6 142090496.595 6      1967.304 6        40.216               
E07  28363878.494 6 149051257.527 6     -2338.802 6        37.797               
E29  28988908.702 6 152444479.269 6      -242.533 6        37.167               
E30  26189454.413 6 137748045.087 6      -275.042 6        41.454               
E34  28197559.346 6 149176483.629 6     -2395.546 6        38.765               
E36  27881881.452 6 146519941.784 6      -116.510 6        37.871               
> 2025 01 08 14 24 03.0000000  0  6                                             
E02  27192334.904 6 142088528.889 6      1967.815 6        40.070               
E07  28364321.556 6 149053596.406 6     -2340.995 6        37.716               
E29  28988862.689 6 152444722.186 6      -241.658 6        37.168               
E30  26189405.255 6 137748319.704 6      -274.652 6        41.279               
E34  28197112.388 6 149178878.973 6     -2395.370 6        38.459               
E36  27881905.754 6 146520057.888 6      -115.986 6        38.084               
> 2025 01 08 14 24 04.0000000  0  6                                             
E02  27192709.349 6 142086561.266 6      1966.181 6        39.997               
E07  28364770.390 6 149055935.372 6     -2339.997 6        37.609               
E29  28988820.090 6 152444964.860 6      -242.501 6        37.296               
E30  26189354.186 6 137748594.349 6      -275.922 6        41.414               
E34  28196656.192 6 149181274.297 6     -2395.001 6        38.421               
E36  27881928.519 6 146520174.271 6      -115.241 6        38.249               
> 2025 01 08 14 24 05.0000000  0  6                                             
E02  27193082.079 6 142084593.775 6      1966.791 6        40.051               
E07  28365215.240 6 149058274.357 6     -2338.168 6        37.597               
E29  28988773.898 6 152445207.359 6      -241.823 6        37.014               
E30  26189304.796 6 137748869.068 6      -275.116 6        41.613               
E34  28196200.872 6 149183669.656 6     -2395.395 6        38.699               
E36  27881955.537 6 146520290.872 6      -116.432 6        38.375               
> 2025 01 08 14 24 06.0000000  0  6                                             
E02  27193457.829 6 142082626.038 6      1967.871 6        39.998               
E07  28365662.162 6 149060613.808 6     -2340.045 6        37.569               
E29  28988730.048 6 152445449.262 6      -241.523 6        37.249               
E30  26189254.387 6 137749143.476 6      -275.665 6        41.473               
E34  28195745.033 6 149186064.589 6     -2394.787 6        38.801               
E36  27881975.997 6 146520408.098 6      -117.970 6        38.536               
> 2025 01 08 14 24 07.0000000  0  6                                             
E02  27193838.404 6 142080658.219 6      1968.034 6        39.955               
E07  28366113.676 6 149062953.517 6     -2340.245 6        37.437               
E29  28988690.557 6 152445690.757 6      -241.368 6        37.425               
E30  26189203.496 6 137749417.751 6      -275.202 6        41.425               
E34  28195292.536 6 149188459.344 6     -2394.506 6        38.945               
E36  27881999.655 6 146520525.763 6      -118.466 6        38.859               
> 2025 01 08 14 24 08.0000000  0  6                                             
E02  27194213.439 6 142078690.249 6      1970.542 6        40.164               
E07  28366553.951 6 149065293.572 6     -2339.294 6        37.533               
E29  28988645.491 6 152445931.718 6      -242.694 6        37.133               
E30  26189153.892 6 137749691.780 6      -273.392 6        41.520               
E34  28194838.716 6 149190853.809 6     -2394.372 6        38.714               
E36  27882023.636 6 146520643.968 6      -119.569 6        38.941               
> 2025 01 08 14 24 09.0000000  0  6                                             
E02  27194590.922 6 142076721.502 6      1967.319 6        40.194               
E07  28367002.482 6 149067634.574 6     -2340.175 6        37.593               
E29  28988597.638 6 152446171.625 6      -244.212 6        37.019               
E30  26189101.071 6 137749965.010 6      -273.656 6        41.515               
E34  28194386.290 6 149193247.346 6     -2393.488 6        38.862               
E36  27882051.636 6 146520763.346 6      -119.542 6        38.847               
> 2025 01 08 14 24 10.0000000  0  6                                             
E02  27194963.527 6 142074753.204 6      1967.927 6        40.107               
E07  28367448.760 6 149069975.348 6     -2342.410 6        37.446               
E29  28988548.945 6 152446411.619 6      -241.142 6        37.237               
E30  26189052.128 6 137750238.607 6      -273.928 6        41.784               
E34  28193931.631 6 149195641.222 6     -2392.996 6        38.889               
E36  27882071.203 6 146520882.607 6      -119.491 6        39.095               
> 2025 01 08 14 24 11.0000000  0  6                                             
E02  27195340.563 6 142072784.758 6      1969.623 6        40.092               
E07  28367900.311 6 149072316.447 6     -2342.184 6        37.652               
E29  28988512.188 6 152446651.100 6      -239.583 6        37.121               
E30  26189001.505 6 137750511.990 6      -273.854 6        41.801               
E34  28193481.206 6 149198034.784 6     -2393.588 6        38.889               
E36  27882099.222 6 146521002.411 6      -118.922 6        39.091               
> 2025 01 08 14 24 12.0000000  0  6                                             
E02  27195719.797 6 142070816.278 6      1967.257 6        40.447               
E07  28368346.214 6 149074657.758 6     -2342.275 6        37.397               
E29  28988466.354 6 152446890.272 6      -239.703 6        37.003               
E30  26188953.634 6 137750785.296 6      -275.771 6        41.795               
E34  28193028.798 6 149200428.253 6     -2396.277 6        38.592               
E36  27882127.651 6 146521122.611 6      -121.318 6        38.956               
> 2025 01 08 14 24 13.0000000  0  6                                             
E02  27196097.977 6 142068847.672 6      1968.864 6        40.493               
E07  28368793.529 6 149076999.368 6     -2341.125 6        37.285               
E29  28988422.432 6 152447128.928 6      -239.185 6        36.744               
E30  26188900.866 6 137751058.396 6      -274.720 6        41.498               
E34  28192573.120 6 149202821.401 6     -2393.721 6        38.852               
E36  27882152.310 6 146521243.334 6      -121.476 6        39.061               
> 2025 01 08 14 24 14.0000000  0  6                                             
E02  27196473.262 6 142066878.859 6      1969.969 6        40.222               
E07  28369241.077 6 149079341.383 6     -2340.805 6        37.191               
E29  28988379.243 6 152447367.083 6      -238.800 6        36.749               
E30  26188850.958 6 137751331.230 6      -271.927 6        41.506               
E34  28192118.800 6 149205214.255 6     -2393.076 6        38.764               
E36  27882170.555 6 146521364.578 6      -121.437 6        39.112               
> 2025 01 08 14 24 15.0000000  0  6                                             
E02  27196847.011 6 142064909.546 6      1969.139 6        40.400               
E07  28369688.625 6 149081684.102 6     -2344.211 6        36.910               
E29  28988340.467 6 152447604.330 6      -235.535 6        37.074               
E30  26188801.372 6 137751603.489 6      -270.952 6        41.531               
E34  28191667.661 6 149207606.444 6     -2390.900 6        38.498               
E36  27882199.699 6 146521486.757 6      -123.128 6        39.343               
> 2025 01 08 14 24 16.0000000  0  6                                             
E02  27197225.548 6 142062939.476 6      1969.796 6        40.250               
E07  28370134.349 6 149084027.746 6     -2344.630 6        36.856               
E29  28988291.935 6 152447840.575 6      -236.917 6        37.067               
E30  26188751.589 6 137751874.957 6      -271.194 6        41.756               
E34  28191214.646 6 149209997.779 6     -2390.025 6        38.694               
E36  27882225.020 6 146521610.045 6      -124.512 6        39.209               
> 2025 01 08 14 24 17.0000000  0  6                                             
E02  27197606.105 6 142060969.613 6      1970.713 6        40.346               
E07  28370582.808 6 149086371.377 6     -2344.647 6        37.152               
E29  28988249.675 6 152448076.618 6      -235.710 6        37.019               
E30  26188703.700 6 137752146.543 6      -272.416 6        41.961               
E34  28190760.237 6 149212389.176 6     -2389.401 6        38.721               
E36  27882251.627 6 146521733.492 6      -124.073 6        39.245               
> 2025 01 08 14 24 18.0000000  0  6                                             
E02  27197975.744 6 142058999.534 6      1970.227 6        40.224               
E07  28371032.732 6 149088715.413 6     -2343.311 6        37.401               
E29  28988208.183 6 152448312.127 6      -233.802 6        36.994               
E30  26188652.505 7 137752417.866 7      -271.092 7        42.047               
E34  28190307.239 6 149214780.228 6     -2391.130 6        38.565               
E36  27882273.409 6 146521857.519 6      -124.929 6        39.311               
> 2025 01 08 14 24 19.0000000  0  6                                             
E02  27198356.997 6 142057029.237 6      1969.998 6        40.156               
E07  28371475.420 6 149091059.859 6     -2344.820 6        37.607               
E29  28988160.347 6 152448547.105 6      -234.555 6        36.648               
E30  26188600.988 6 137752688.902 6      -271.641 6        41.788               
E34  28189852.133 6 149217170.934 6     -2390.678 6        38.760               
E36  27882302.518 6 146521982.164 6      -124.447 6        39.357               
> 2025 01 08 14 24 20.0000000  0  6                                             
E02  27198731.049 6 142055058.746 6      1969.268 6        39.839               
E07  28371925.612 6 149093404.672 6     -2343.700 6        37.694               
E29  28988119.570 6 152448781.549 6      -234.187 6        36.343               
E30  26188549.186 6 137752959.718 6      -271.719 6        41.777               
E34  28189395.275 6 149219561.324 6     -2390.013 6        38.916               
E36  27882326.909 6 146522107.355 6      -125.335 6        39.573               
> 2025 01 08 14 24 21.0000000  0  6                                             
E02  27199108.675 6 142053088.074 6      1971.048 6        40.186               
E07  28372375.179 6 149095749.848 6     -2344.265 6        37.534               
E29  28988076.309 6 152449015.466 6      -233.021 6        36.454               
E30  26188502.691 6 137753230.233 6      -271.136 6        41.873               
E34  28188944.619 6 149221951.388 6     -2390.094 6        38.533               
E36  27882350.121 6 146522233.106 6      -125.887 6        39.354               
> 2025 01 08 14 24 22.0000000  0  6                                             
E02  27199488.964 6 142051117.170 6      1972.797 6        40.122               
E07  28372821.993 6 149098095.423 6     -2344.404 6        37.524               
E29  28988031.494 6 152449248.815 6      -231.599 6        36.718               
E30  26188451.943 6 137753500.500 6      -269.899 6        41.916               
E34  28188494.462 6 149224341.113 6     -2389.357 6        38.810               
E36  27882375.870 6 146522359.445 6      -127.952 6        39.351               
> 2025 01 08 14 24 23.0000000  0  6                                             
E02  27199864.767 6 142049145.853 6      1971.340 6        40.148               
E07  28373272.740 6 149100441.667 6     -2346.965 6        37.538               
E29  28987993.111 6 152449481.397 6      -233.384 6        37.114               
E30  26188404.804 7 137753770.251 7      -269.536 7        42.303               
E34  28188042.037 6 149226730.244 6     -2387.006 6        39.050               
E36  27882404.550 6 146522486.602 6      -127.348 6        39.277               
> 2025 01 08 14 24 24.0000000  0  6                                             
E02  27200237.998 6 142047174.791 6      1972.368 6        40.080               
E07  28373721.145 6 149102787.776 6     -2345.012 6        37.585               
E29  28987947.277 6 152449713.938 6      -231.763 6        36.911               
E30  26188354.110 7 137754040.233 7      -269.735 7        42.272               
E34  28187587.198 6 149229119.571 6     -2389.486 6        38.799               
E36  27882431.639 6 146522613.834 6      -128.310 6        39.556               
> 2025 01 08 14 24 25.0000000  0  6                                             
E02  27200615.195 6 142045204.019 6      1971.022 6        40.081               
E07  28374168.817 6 149105133.791 6     -2345.224 6        37.702               
E29  28987906.089 6 152449946.405 6      -230.219 6        36.837               
E30  26188304.702 7 137754310.436 7      -270.433 7        42.234               
E34  28187132.628 6 149231509.012 6     -2389.221 6        38.779               
E36  27882454.261 6 146522741.173 6      -125.410 6        39.492               
> 2025 01 08 14 24 26.0000000  0  6                                             
E02  27200995.483 6 142043233.191 6      1970.821 6        40.348               
E07  28374621.476 6 149107480.068 6     -2347.394 6        37.710               
E29  28987865.151 6 152450178.478 6      -229.816 6        36.799               
E30  26188254.044 7 137754580.515 7      -268.254 7        42.108               
E34  28186683.633 6 149233898.256 6     -2388.080 6        38.370               
E36  27882485.014 6 146522868.972 6      -128.463 6        39.469               
> 2025 01 08 14 24 27.0000000  0  6                                             
E02  27201369.947 6 142041261.162 6      1973.124 6        40.424               
E07  28375070.935 6 149109827.734 6     -2347.889 6        37.769               
E29  28987822.837 6 152450409.017 6      -228.055 6        36.659               
E30  26188204.457 7 137754849.314 7      -267.255 7        42.129               
E34  28186229.546 6 149236286.197 6     -2387.082 6        38.481               
E36  27882509.637 6 146522998.309 6      -129.066 6        39.142               
> 2025 01 08 14 24 28.0000000  0  6                                             
E02  27201748.019 6 142039288.824 6      1973.163 6        40.296               
E07  28375516.356 6 149112175.871 6     -2347.764 6        37.734               
E29  28987784.008 6 152450638.886 6      -228.730 6        36.554               
E30  26188155.192 7 137755117.757 7      -266.928 7        42.029               
E34  28185776.477 6 149238673.673 6     -2386.897 6        38.283               
E36  27882533.635 6 146523128.335 6      -129.515 6        39.241               
> 2025 01 08 14 24 29.0000000  0  6                                             
E02  27202125.949 6 142037316.656 6      1972.198 6        40.126               
E07  28375965.280 6 149114524.043 6     -2349.118 6        37.836               
E29  28987741.712 6 152450868.648 6      -230.578 6        36.557               
E30  26188108.465 7 137755386.302 7      -268.602 7        42.118               
E34  28185325.641 6 149241061.210 6     -2388.813 6        38.354               
E36  27882564.102 6 146523258.558 6      -129.823 6        38.971               
> 2025 01 08 14 24 30.0000000  0  6                                             
E02  27202501.860 6 142035344.580 6      1970.978 6        40.201               
E07  28376415.418 6 149116872.319 6     -2349.398 6        37.986               
E29  28987699.880 6 152451098.127 6      -231.996 6        36.452               
E30  26188058.610 7 137755654.871 7      -268.551 7        42.245               
E34  28184875.932 6 149243448.687 6     -2386.519 6        38.287               
E36  27882586.117 6 146523389.082 6      -129.966 6        39.065               
> 2025 01 08 14 24 31.0000000  0  6                                             
E02  27202879.522 6 142033372.144 6      1971.594 6        40.091               
E07  28376858.088 6 149119221.129 6     -2349.184 6        38.009               
E29  28987649.383 6 152451326.911 6      -228.497 6        36.359               
E30  26188006.093 7 137755923.034 7      -267.939 7        42.248               
E34  28184422.255 6 149245835.704 6     -2386.957 6        38.250               
E36  27882614.207 6 146523520.304 6      -130.825 6        39.316               
> 2025 01 08 14 24 32.0000000  0  6                                             
E02  27203255.057 6 142031400.208 6      1972.457 6        40.221               
E07  28377308.887 6 149121569.598 6     -2348.449 6        38.330               
E29  28987616.253 5 152451555.858 5      -229.321 5        35.843               
E30  26187958.526 7 137756191.649 7      -269.440 7        42.387               
E34  28183967.899 6 149248223.085 6     -2386.406 6        38.400               
E36  27882634.059 6 146523651.426 6      -131.311 6        39.163               
> 2025 01 08 14 24 33.0000000  0  6                                             
E02  27203631.504 6 142029428.086 6      1972.810 6        40.274               
E07  28377760.598 6 149123918.466 6     -2349.373 6        38.242               
E29  28987567.525 6 152451784.280 6      -226.731 6        36.112               
E30  26187907.974 7 137756459.981 7      -269.026 7        42.659               
E34  28183511.328 6 149250610.131 6     -2387.201 6        38.582               
E36  27882670.709 6 146523783.088 6      -131.857 6        38.667               
> 2025 01 08 14 24 34.0000000  0  6                                             
E02  27204010.059 6 142027455.849 6      1970.458 6        40.217               
E07  28378206.913 6 149126267.636 6     -2348.881 6        38.159               
E29  28987529.231 5 152452012.241 5      -228.437 5        35.987               
E30  26187859.996 7 137756728.132 7      -269.033 7        42.547               
E34  28183063.119 6 149252996.916 6     -2384.572 6        38.819               
E36  27882690.025 6 146523915.239 6      -133.159 6        38.587               
> 2025 01 08 14 24 35.0000000  0  6                                             
E02  27204390.008 6 142025483.317 6      1973.379 6        40.381               
E07  28378654.282 6 149128617.298 6     -2350.062 6        37.995               
E29  28987489.151 5 152452239.578 5      -227.200 5        35.783               
E30  26187810.463 7 137756995.952 7      -268.542 7        42.574               
E34  28182614.017 6 149255383.298 6     -2387.284 6        39.020               
E36  27882721.618 6 146524048.082 6      -131.385 6        39.020               
> 2025 01 08 14 24 36.0000000  0  6                                             
E02  27204764.578 6 142023510.662 6      1973.121 6        40.328               
E07  28379104.778 6 149130967.214 6     -2349.811 6        38.082               
E29  28987450.429 5 152452466.498 5      -225.741 5        35.726               
E30  26187761.806 7 137757263.596 7      -267.697 7        42.696               
E34  28182159.072 6 149257769.439 6     -2387.210 6        38.831               
E36  27882748.296 6 146524181.403 6      -132.149 6        39.047               
> 2025 01 08 14 24 37.0000000  0  6                                             
E02  27205141.776 6 142021537.914 6      1971.558 6        40.282               
E07  28379555.935 6 149133317.489 6     -2351.925 6        38.198               
E29  28987405.149 5 152452692.904 5      -226.844 5        35.878               
E30  26187714.310 7 137757531.047 7      -268.713 7        43.041               
E34  28181706.485 6 149260155.312 6     -2384.670 6        38.999               
E36  27882774.546 6 146524315.222 6      -135.722 6        38.508               
> 2025 01 08 14 24 38.0000000  0  6                                             
E02  27205521.600 6 142019564.890 6      1973.149 6        40.417               
E07  28380001.499 6 149135668.164 6     -2351.905 6        38.371               
E29  28987363.300 5 152452918.767 5      -220.606 5        35.939               
E30  26187664.687 7 137757798.192 7      -266.439 7        42.632               
E34  28181254.703 6 149262540.828 6     -2384.334 6        39.058               
E36  27882802.332 6 146524449.620 6      -133.226 6        38.497               
> 2025 01 08 14 24 39.0000000  0  6                                             
E02  27205898.207 6 142017591.683 6      1974.768 6        40.545               
E07  28380451.602 6 149138019.224 6     -2351.356 6        38.129               
E29  28987321.432 5 152453144.083 5      -224.419 5        35.621               
E30  26187615.226 7 137758065.069 7      -265.543 7        42.705               
E34  28180807.030 6 149264925.981 6     -2384.978 6        38.868               
E36  27882827.170 6 146524584.638 6      -136.028 6        38.412               
> 2025 01 08 14 24 40.0000000  0  6                                             
E02  27206274.064 6 142015618.142 6      1973.961 6        40.257               
E07  28380901.222 6 149140370.803 6     -2352.314 6        38.065               
E29  28987281.352 5 152453368.748 5      -222.462 5        35.553               
E30  26187566.390 7 137758331.577 7      -265.959 7        42.789               
E34  28180351.620 6 149267310.712 6     -2383.695 6        38.554               
E36  27882858.280 6 146524720.310 6      -134.299 6        38.479               
