     3.02           OBSERVATION DATA    E                   RINEX VERSION / TYPE
G = GPS  R = GLONASS  E = GALILEO  S = GEO  M = MIXED       COMMENT             
GNSS-SDR            jmfriedt            20250108 150151 UTC PGM / RUN BY / DATE 
GALILEO OBSERVATION DATA FILE GENERATED BY GNSS-SDR         COMMENT             
GNSS-SDR VERSION 0.0.19.git-main-87fcfd237                  COMMENT             
See https://gnss-sdr.org                                    COMMENT             
DEFAULT MARKER NAME                                         MARKER NAME         
jmfriedt            CTTC                                    OBSERVER / AGENCY   
GNSS-SDR            Software Receiver   0.0.19.gi           REC # / TYPE / VERS 
Antenna number      Antenna type                            ANT # / TYPE        
        0.0000        0.0000        0.0000                  APPROX POSITION XYZ 
        0.0000        0.0000        0.0000                  ANTENNA: DELTA H/E/N
E    4 C1B L1B D1B S1B                                      SYS / # / OBS TYPES 
DBHZ                                                        SIGNAL STRENGTH UNIT
  2025    01    08    14    20   36.1600000     GAL         TIME OF FIRST OBS   
    18    18   137     7                                    LEAP SECONDS        
    18    18   137     7                                    LEAP SECONDS        
                                                            END OF HEADER       
> 2025 01 08 14 20 37.0000000  0  4                                             
E02  27115563.988 6 142489985.900 6      1930.445 6        40.711               
E07  28273782.898 6 148579723.134 6     -2260.926 6        38.511               
E30  26200779.764 6 137686568.998 6      -326.130 6        40.289               
E34  28291874.337 6 148678936.700 6     -2458.518 6        38.975               
> 2025 01 08 14 20 38.0000000  0  4                                             
E02  27115934.217 6 142488056.204 6      1928.814 6        40.879               
E07  28274213.809 6 148581984.333 6     -2262.538 6        38.615               
E30  26200717.419 6 137686894.044 6      -326.385 6        40.051               
E34  28291407.169 6 148681394.827 6     -2458.936 6        38.824               
> 2025 01 08 14 20 39.0000000  0  4                                             
E02  27116300.800 6 142486126.346 6      1930.016 6        40.803               
E07  28274646.347 6 148584245.907 6     -2261.648 6        38.530               
E30  26200659.291 6 137687218.870 6      -324.842 6        39.786               
E34  28290944.504 6 148683852.682 6     -2458.372 6        38.826               
> 2025 01 08 14 20 40.0000000  0  4                                             
E02  27116671.082 6 142484196.098 6      1929.320 6        40.627               
E07  28275076.758 6 148586508.087 6     -2262.230 6        38.603               
E30  26200600.359 6 137687543.244 6      -324.840 6        40.062               
E34  28290475.710 6 148686310.041 6     -2457.219 6        38.820               
> 2025 01 08 14 20 41.0000000  0  4                                             
E02  27117037.736 6 142482265.578 6      1931.312 6        40.380               
E07  28275512.190 6 148588770.706 6     -2262.512 6        38.387               
E30  26200540.408 6 137687867.283 6      -321.929 6        40.120               
E34  28290009.382 6 148688767.026 6     -2458.314 6        39.134               
> 2025 01 08 14 20 42.0000000  0  4                                             
E02  27117409.644 6 142480334.453 6      1930.707 6        40.530               
E07  28275945.604 6 148591034.151 6     -2264.663 6        38.622               
E30  26200482.477 6 137688190.687 6      -324.259 6        39.919               
E34  28289544.663 6 148691223.286 6     -2456.021 6        39.080               
> 2025 01 08 14 20 43.0000000  0  4                                             
E02  27117773.279 6 142478403.275 6      1931.593 6        40.302               
E07  28276376.176 6 148593297.834 6     -2263.897 6        39.126               
E30  26200422.080 6 137688513.936 6      -320.539 6        40.193               
E34  28289079.461 6 148693679.354 6     -2456.170 6        39.016               
> 2025 01 08 14 20 44.0000000  0  4                                             
E02  27118147.349 6 142476471.989 6      1930.058 6        40.858               
E07  28276810.250 6 148595561.826 6     -2263.344 6        39.221               
E30  26200362.201 6 137688837.062 6      -320.739 6        40.262               
E34  28288616.832 6 148696135.236 6     -2455.594 6        39.455               
> 2025 01 08 14 20 45.0000000  0  4                                             
E02  27118517.809 6 142474540.532 6      1931.692 6        40.589               
E07  28277238.785 6 148597826.191 6     -2265.230 6        39.232               
E30  26200299.230 6 137689159.929 6      -324.397 6        40.193               
E34  28288145.876 6 148698590.816 6     -2456.547 6        39.462               
> 2025 01 08 14 20 46.0000000  0  4                                             
E02  27118885.304 6 142472609.001 6      1931.359 6        40.591               
E07  28277670.947 6 148600090.850 6     -2264.885 6        39.402               
E30  26200241.710 6 137689482.663 6      -322.057 6        40.322               
E34  28287681.889 6 148701046.208 6     -2455.216 6        39.295               
> 2025 01 08 14 20 47.0000000  0  4                                             
E02  27119254.799 6 142470677.065 6      1931.575 6        40.704               
E07  28278109.703 6 148602356.094 6     -2263.494 6        39.505               
E30  26200180.741 6 137689804.929 6      -321.039 6        40.211               
E34  28287213.792 6 148703501.098 6     -2455.555 6        39.446               
> 2025 01 08 14 20 48.0000000  0  4                                             
E02  27119627.636 6 142468745.110 6      1932.312 6        40.839               
E07  28278541.079 6 148604621.537 6     -2266.385 6        39.482               
E30  26200121.862 6 137690127.138 6      -322.306 6        40.183               
E34  28286755.183 6 148705955.816 6     -2456.101 6        39.519               
> 2025 01 08 14 20 49.0000000  0  4                                             
E02  27119993.505 6 142466812.751 6      1933.551 6        40.961               
E07  28278968.506 6 148606887.614 6     -2266.555 6        39.052               
E30  26200062.519 6 137690448.872 6      -322.183 6        39.996               
E34  28286288.212 6 148708410.053 6     -2454.020 6        39.649               
> 2025 01 08 14 20 50.0000000  0  4                                             
E02  27120366.020 6 142464879.528 6      1932.559 6        40.847               
E07  28279404.921 6 148609154.747 6     -2267.518 6        38.915               
E30  26200005.124 6 137690769.667 6      -321.077 6        39.782               
E34  28285817.828 6 148710863.306 6     -2453.690 6        39.557               
> 2025 01 08 14 20 51.0000000  0  4                                             
E02  27120735.212 6 142462946.615 6      1934.575 6        40.541               
E07  28279836.458 6 148611421.766 6     -2265.844 6        38.827               
E30  26199943.905 6 137691090.735 6      -321.368 6        39.962               
E34  28285357.164 6 148713316.740 6     -2452.492 6        39.593               
> 2025 01 08 14 20 52.0000000  0  4                                             
E02  27121102.921 6 142461013.661 6      1933.875 6        40.723               
E07  28280269.335 6 148613689.029 6     -2269.436 6        39.078               
E30  26199883.168 6 137691411.704 6      -321.994 6        40.161               
E34  28284891.980 6 148715770.035 6     -2451.723 6        39.367               
> 2025 01 08 14 20 53.0000000  0  4                                             
E02  27121475.204 6 142459080.274 6      1932.553 6        40.362               
E07  28280704.535 6 148615956.914 6     -2268.337 6        39.043               
E30  26199824.897 6 137691732.160 6      -320.477 6        40.086               
E34  28284427.779 6 148718222.761 6     -2452.164 6        39.279               
> 2025 01 08 14 20 54.0000000  0  4                                             
E02  27121840.751 6 142457146.388 6      1933.604 6        40.580               
E07  28281139.718 6 148618225.515 6     -2269.476 6        38.947               
E30  26199767.752 6 137692052.064 6      -319.434 6        40.004               
E34  28283963.738 6 148720674.887 6     -2452.455 6        39.322               
> 2025 01 08 14 20 55.0000000  0  4                                             
E02  27122212.266 6 142455212.472 6      1935.005 6        40.454               
E07  28281572.130 6 148620494.310 6     -2269.389 6        38.987               
E30  26199707.694 6 137692371.902 6      -319.872 6        39.988               
E34  28283496.392 6 148723126.892 6     -2451.841 6        39.076               
> 2025 01 08 14 20 56.0000000  0  5                                             
E02  27122584.156 6 142453278.634 6      1933.732 6        40.208               
E07  28282004.954 6 148622763.239 6     -2270.368 6        39.059               
E29  28998890.374 6 152390253.980 6      -338.992 6        36.577               
E30  26199651.800 6 137692691.727 6      -319.876 6        39.888               
E34  28283027.866 6 148725578.850 6     -2453.358 6        39.107               
> 2025 01 08 14 20 57.0000000  0  5                                             
E02  27122954.027 6 142451344.666 6      1934.622 6        40.194               
E07  28282440.583 6 148625032.505 6     -2269.827 6        38.733               
E29  28998827.725 6 152390592.844 6      -339.123 6        36.566               
E30  26199590.527 6 137693011.408 6      -318.118 6        39.898               
E34  28282566.041 6 148728030.566 6     -2452.522 6        39.153               
> 2025 01 08 14 20 58.0000000  0  5                                             
E02  27123323.326 6 142449410.537 6      1935.426 6        40.323               
E07  28282868.885 6 148627302.108 6     -2268.199 6        38.659               
E29  28998760.752 6 152390931.263 6      -335.752 6        36.502               
E30  26199532.542 6 137693330.824 6      -321.388 6        40.151               
E34  28282100.106 6 148730481.997 6     -2449.719 6        39.513               
> 2025 01 08 14 20 59.0000000  0  5                                             
E02  27123691.302 6 142447476.397 6      1933.648 6        40.468               
E07  28283305.372 6 148629571.971 6     -2271.081 6        38.384               
E29  28998697.764 6 152391269.294 6      -336.812 6        36.458               
E30  26199473.145 6 137693650.182 6      -317.967 6        40.347               
E34  28281634.743 6 148732933.312 6     -2451.569 6        39.320               
> 2025 01 08 14 21 00.0000000  0  5                                             
E02  27124064.086 6 142445541.969 6      1935.495 6        40.533               
E07  28283739.964 6 148631842.268 6     -2270.496 6        38.380               
E29  28998636.312 6 152391606.721 6      -337.974 6        36.423               
E30  26199413.588 6 137693969.189 6      -318.788 6        40.493               
E34  28281174.098 6 148735384.200 6     -2449.637 6        39.648               
> 2025 01 08 14 21 01.0000000  0  5                                             
E02  27124431.723 6 142443607.278 6      1934.186 6        40.417               
E07  28284175.146 6 148634113.030 6     -2270.993 6        38.461               
E29  28998577.380 6 152391943.574 6      -336.416 6        36.709               
E30  26199352.619 6 137694287.888 6      -317.085 6        40.252               
E34  28280708.377 6 148737834.728 6     -2450.094 6        39.399               
> 2025 01 08 14 21 02.0000000  0  5                                             
E02  27124800.701 6 142441672.552 6      1935.503 6        40.612               
E07  28284608.595 6 148636384.048 6     -2271.523 6        38.382               
E29  28998519.699 6 152392280.017 6      -333.951 6        36.721               
E30  26199296.617 6 137694606.468 6      -317.567 6        40.157               
E34  28280246.409 6 148740285.113 6     -2449.534 6        39.188               
> 2025 01 08 14 21 03.0000000  0  5                                             
E02  27125171.769 6 142439737.778 6      1935.184 6        40.484               
E07  28285042.920 6 148638655.324 6     -2271.341 6        38.661               
E29  28998445.953 6 152392616.103 6      -336.309 6        36.213               
E30  26199236.631 6 137694924.953 6      -319.529 6        39.906               
E34  28279780.582 6 148742735.313 6     -2449.719 6        39.482               
> 2025 01 08 14 21 04.0000000  0  5                                             
E02  27125541.372 6 142437802.520 6      1934.848 6        40.415               
E07  28285473.921 6 148640927.245 6     -2271.713 6        38.671               
E29  28998385.771 6 152392951.350 6      -335.569 6        36.078               
E30  26199177.556 6 137695242.883 6      -317.992 6        39.570               
E34  28279314.325 6 148745184.934 6     -2450.111 6        39.612               
> 2025 01 08 14 21 05.0000000  0  5                                             
E02  27125912.493 6 142435867.098 6      1934.633 6        40.587               
E07  28285911.694 6 148643199.545 6     -2272.193 6        38.443               
E29  28998326.571 6 152393286.130 6      -335.806 6        36.076               
E30  26199118.195 6 137695560.632 6      -319.556 6        39.686               
E34  28278853.537 6 148747634.266 6     -2450.030 6        39.635               
> 2025 01 08 14 21 06.0000000  0  5                                             
E02  27126281.167 6 142433931.643 6      1936.040 6        40.345               
E07  28286344.321 6 148645472.081 6     -2272.057 6        38.549               
E29  28998263.350 6 152393620.520 6      -334.319 6        36.049               
E30  26199058.995 6 137695878.241 6      -319.002 6        40.018               
E34  28278388.478 6 148750083.450 6     -2449.767 6        39.590               
> 2025 01 08 14 21 07.0000000  0  5                                             
E02  27126655.559 6 142431995.994 6      1936.693 6        40.340               
E07  28286779.699 6 148647744.998 6     -2273.856 6        38.844               
E29  28998208.278 6 152393954.413 6      -334.920 6        36.283               
E30  26198998.401 6 137696195.631 6      -316.681 6        40.304               
E34  28277921.131 6 148752532.352 6     -2449.337 6        39.727               
> 2025 01 08 14 21 08.0000000  0  5                                             
E02  27127025.680 6 142430060.458 6      1936.739 6        40.611               
E07  28287216.418 6 148650018.019 6     -2272.784 6        38.859               
E29  28998142.216 6 152394288.094 6      -336.059 6        36.187               
E30  26198945.634 6 137696513.066 6      -318.112 6        40.179               
E34  28277458.717 6 148754981.229 6     -2448.873 6        39.371               
> 2025 01 08 14 21 09.0000000  0  5                                             
E02  27127394.961 6 142428124.755 6      1937.254 6        40.654               
E07  28287645.346 6 148652291.377 6     -2273.489 6        38.726               
E29  28998075.439 6 152394621.205 6      -334.955 6        36.011               
E30  26198884.343 6 137696830.246 6      -316.269 6        40.097               
E34  28276995.855 6 148757429.810 6     -2447.661 6        39.829               
> 2025 01 08 14 21 10.0000000  0  5                                             
E02  27127763.009 6 142426188.509 6      1936.618 6        40.801               
E07  28288085.478 6 148654565.463 6     -2273.162 6        38.740               
E29  28998015.721 6 152394953.493 6      -332.081 6        36.032               
E30  26198827.234 6 137697146.856 6      -314.987 6        39.866               
E34  28276529.492 6 148759877.764 6     -2446.872 6        39.627               
> 2025 01 08 14 21 11.0000000  0  5                                             
E02  27128134.042 6 142424252.108 6      1936.145 6        40.652               
E07  28288517.766 6 148656839.953 6     -2274.488 6        38.864               
E29  28997959.845 6 152395285.263 6      -333.018 6        36.188               
E30  26198768.087 6 137697463.218 6      -316.969 6        39.819               
E34  28276068.971 6 148762325.403 6     -2446.603 6        39.543               
> 2025 01 08 14 21 12.0000000  0  5                                             
E02  27128505.861 6 142422315.429 6      1936.038 6        40.763               
E07  28288954.038 6 148659114.887 6     -2275.723 6        39.195               
E29  28997895.355 6 152395616.459 6      -332.278 6        36.346               
E30  26198709.388 6 137697779.264 6      -315.583 6        39.712               
E34  28275600.446 6 148764772.675 6     -2447.148 6        39.113               
> 2025 01 08 14 21 13.0000000  0  5                                             
E02  27128873.373 6 142420378.561 6      1936.643 6        40.625               
E07  28289386.504 6 148661390.223 6     -2276.256 6        39.275               
E29  28997833.511 5 152395947.105 5      -331.658 5        35.828               
E30  26198652.010 6 137698095.050 6      -317.012 6        39.565               
E34  28275138.460 6 148767219.650 6     -2448.187 6        39.062               
> 2025 01 08 14 21 14.0000000  0  5                                             
E02  27129243.279 6 142418441.692 6      1936.647 6        40.647               
E07  28289821.454 6 148663665.732 6     -2275.948 6        39.107               
E29  28997771.577 5 152396277.470 5      -328.787 5        35.882               
E30  26198592.399 6 137698410.791 6      -315.169 6        39.470               
E34  28274669.112 6 148769666.518 6     -2445.565 6        39.027               
> 2025 01 08 14 21 15.0000000  0  5                                             
E02  27129615.634 6 142416504.060 6      1938.273 6        40.526               
E07  28290255.385 6 148665942.199 6     -2277.209 6        38.893               
E29  28997711.680 6 152396606.670 6      -327.042 6        36.096               
E30  26198533.556 6 137698725.706 6      -315.887 6        39.948               
E34  28274210.111 6 148772112.502 6     -2446.618 6        38.813               
> 2025 01 08 14 21 16.0000000  0  5                                             
E02  27129982.163 6 142414566.064 6      1938.429 6        40.535               
E07  28290689.352 6 148668219.272 6     -2276.499 6        39.025               
E29  28997652.605 6 152396935.195 6      -327.394 6        36.014               
E30  26198477.519 6 137699040.172 6      -314.363 6        40.194               
E34  28273740.119 6 148774557.991 6     -2445.580 6        39.074               
> 2025 01 08 14 21 17.0000000  0  5                                             
E02  27130356.359 6 142412628.318 6      1938.455 6        40.555               
E07  28291129.502 6 148670496.237 6     -2277.526 6        39.093               
E29  28997593.833 5 152397263.660 5      -329.486 5        35.884               
E30  26198419.427 6 137699354.872 6      -314.564 6        40.006               
E34  28273279.939 6 148777003.615 6     -2445.118 6        39.278               
> 2025 01 08 14 21 18.0000000  0  5                                             
E02  27130723.388 6 142410690.656 6      1938.920 6        40.682               
E07  28291562.218 6 148672773.364 6     -2277.142 6        39.092               
E29  28997529.148 6 152397591.856 6      -325.846 6        36.067               
E30  26198361.781 6 137699669.566 6      -314.903 6        39.941               
E34  28272821.920 6 148779449.193 6     -2445.861 6        38.836               
> 2025 01 08 14 21 19.0000000  0  5                                             
E02  27131099.907 6 142408752.529 6      1938.139 6        40.758               
E07  28291996.757 6 148675051.100 6     -2276.815 6        38.876               
E29  28997469.251 5 152397919.258 5      -327.040 5        35.774               
E30  26198302.742 6 137699983.751 6      -313.427 6        39.834               
E34  28272354.841 6 148781894.238 6     -2443.532 6        38.779               
> 2025 01 08 14 21 20.0000000  0  5                                             
E02  27131466.865 6 142406814.062 6      1938.967 6        40.575               
E07  28292431.100 6 148677329.403 6     -2277.389 6        38.825               
E29  28997408.353 5 152398246.003 5      -328.080 5        35.659               
E30  26198246.115 6 137700297.522 6      -312.410 6        40.105               
E34  28271893.106 6 148784338.805 6     -2443.815 6        38.947               
> 2025 01 08 14 21 21.0000000  0  5                                             
E02  27131837.433 6 142404875.609 6      1939.497 6        40.913               
E07  28292865.442 6 148679607.881 6     -2277.012 6        38.756               
E29  28997344.721 5 152398572.422 5      -327.127 5        35.600               
E30  26198186.272 6 137700611.264 6      -312.470 6        40.074               
E34  28271428.583 6 148786783.262 6     -2443.137 6        39.327               
> 2025 01 08 14 21 22.0000000  0  5                                             
E02  27132208.090 6 142402936.819 6      1939.930 6        40.296               
E07  28293303.608 6 148681886.912 6     -2279.536 6        38.420               
E29  28997281.554 5 152398898.167 5      -325.495 5        35.578               
E30  26198128.894 6 137700924.591 6      -313.366 6        40.202               
E34  28270965.471 6 148789227.257 6     -2442.776 6        39.253               
> 2025 01 08 14 21 23.0000000  0  5                                             
E02  27132579.962 6 142400997.434 6      1940.153 6        40.337               
E07  28293734.395 6 148684166.733 6     -2279.410 6        39.027               
E29  28997226.214 5 152399222.967 5      -327.299 5        35.486               
E30  26198073.358 6 137701237.256 6      -312.390 6        39.416               
E34  28270501.341 6 148791670.549 6     -2442.774 6        39.076               
> 2025 01 08 14 21 24.0000000  0  5                                             
E02  27132953.353 6 142399058.110 6      1938.753 6        40.428               
E07  28294172.954 6 148686446.691 6     -2280.279 6        39.066               
E29  28997163.351 5 152399547.489 5      -324.044 5        35.361               
E30  26198015.122 6 137701549.931 6      -311.459 6        39.380               
E34  28270039.302 6 148794113.773 6     -2444.336 6        39.094               
> 2025 01 08 14 21 25.0000000  0  5                                             
E02  27133318.650 6 142397118.749 6      1939.470 6        40.634               
E07  28294609.548 6 148688726.858 6     -2280.278 6        38.856               
E29  28997104.687 5 152399871.670 5      -322.665 5        35.655               
E30  26197956.155 6 137701862.524 6      -311.991 6        40.403               
E34  28269573.903 6 148796556.871 6     -2442.963 6        39.212               
> 2025 01 08 14 21 26.0000000  0  5                                             
E02  27133696.025 6 142395179.135 6      1939.335 6        40.234               
E07  28295044.391 6 148691007.483 6     -2280.597 6        38.710               
E29  28997046.863 5 152400195.277 5      -323.047 5        35.732               
E30  26197898.152 6 137702174.818 6      -312.596 6        40.178               
E34  28269116.903 6 148798999.598 6     -2441.488 6        38.850               
> 2025 01 08 14 21 27.0000000  0  5                                             
E02  27134063.645 6 142393239.332 6      1939.281 6        40.269               
E07  28295478.822 6 148693288.500 6     -2280.950 6        38.185               
E29  28996994.363 5 152400518.325 5      -321.109 5        35.683               
E30  26197842.293 6 137702486.830 6      -309.628 6        40.261               
E34  28268653.702 6 148801442.015 6     -2442.754 6        38.818               
> 2025 01 08 14 21 28.0000000  0  5                                             
E02  27134433.891 6 142391299.302 6      1939.470 6        40.557               
E07  28295918.043 6 148695569.934 6     -2281.822 6        38.190               
E29  28996921.529 5 152400840.845 5      -323.031 5        35.530               
E30  26197785.756 6 137702798.572 6      -311.677 6        40.125               
E34  28268190.198 6 148803884.070 6     -2442.488 6        38.872               
> 2025 01 08 14 21 29.0000000  0  5                                             
E02  27134807.228 6 142389358.758 6      1939.490 6        40.647               
E07  28296354.530 6 148697852.103 6     -2282.396 6        38.405               
E29  28996871.210 5 152401162.441 5      -319.982 5        35.935               
E30  26197725.162 6 137703109.726 6      -311.518 6        39.947               
E34  28267729.838 6 148806325.491 6     -2441.611 6        39.305               
> 2025 01 08 14 21 30.0000000  0  5                                             
E02  27135180.352 6 142387417.985 6      1939.693 6        40.737               
E07  28296791.052 6 148700134.653 6     -2282.544 6        38.354               
E29  28996805.774 5 152401483.569 5      -322.318 5        35.866               
E30  26197669.964 6 137703420.603 6      -309.364 6        39.861               
E34  28267263.546 6 148808766.596 6     -2441.034 6        39.193               
> 2025 01 08 14 21 31.0000000  0  5                                             
E02  27135550.365 6 142385477.295 6      1941.315 6        40.727               
E07  28297227.449 6 148702417.362 6     -2282.328 6        38.384               
E29  28996753.078 5 152401804.389 5      -320.667 5        35.812               
E30  26197612.515 6 137703731.493 6      -312.395 6        39.994               
E34  28266802.614 6 148811207.651 6     -2441.420 6        39.255               
> 2025 01 08 14 21 32.0000000  0  5                                             
E02  27135921.648 6 142383536.580 6      1940.933 6        40.741               
E07  28297661.988 6 148704700.279 6     -2283.481 6        38.392               
E29  28996686.569 5 152402124.896 5      -319.967 5        35.695               
E30  26197553.959 6 137704042.310 6      -309.870 6        39.882               
E34  28266336.018 6 148813648.560 6     -2440.522 6        39.432               
> 2025 01 08 14 21 33.0000000  0  5                                             
E02  27136290.232 6 142381595.677 6      1940.785 6        40.631               
E07  28298096.098 6 148706983.582 6     -2284.191 6        38.549               
E29  28996633.713 5 152402444.862 5      -320.238 5        35.720               
E30  26197497.278 6 137704352.869 6      -309.053 6        40.021               
E34  28265877.160 6 148816089.152 6     -2440.112 6        39.308               
> 2025 01 08 14 21 34.0000000  0  5                                             
E02  27136661.676 6 142379654.777 6      1940.346 6        40.566               
E07  28298537.231 6 148709267.059 6     -2283.829 6        38.837               
E29  28996576.997 5 152402764.501 5      -320.590 5        35.692               
E30  26197441.831 6 137704663.365 6      -311.216 6        40.073               
E34  28265413.780 6 148818529.666 6     -2439.472 6        39.148               
> 2025 01 08 14 21 35.0000000  0  5                                             
E02  27137037.211 6 142377713.848 6      1941.153 6        40.533               
E07  28298969.411 6 148711550.772 6     -2285.880 6        38.644               
E29  28996511.364 5 152403083.774 5      -318.130 5        35.550               
E30  26197383.863 6 137704973.787 6      -309.057 6        39.987               
E34  28264949.847 6 148820970.029 6     -2439.884 6        39.128               
> 2025 01 08 14 21 36.0000000  0  5                                             
E02  27137405.170 6 142375772.506 6      1941.958 6        40.285               
E07  28299408.203 6 148713835.125 6     -2284.583 6        38.613               
E29  28996454.880 5 152403402.262 5      -318.354 5        35.732               
E30  26197327.129 6 137705283.717 6      -309.206 6        39.961               
E34  28264490.845 6 148823409.818 6     -2440.819 6        39.124               
> 2025 01 08 14 21 37.0000000  0  5                                             
E02  27137777.650 6 142373830.594 6      1942.222 6        40.223               
E07  28299846.190 6 148716120.190 6     -2286.210 6        38.558               
E29  28996398.628 5 152403719.925 5      -317.097 5        35.950               
E30  26197269.770 6 137705593.041 6      -308.085 6        39.937               
E34  28264024.142 6 148825848.977 6     -2440.457 6        39.414               
> 2025 01 08 14 21 38.0000000  0  5                                             
E02  27138150.130 6 142371888.740 6      1942.018 6        40.329               
E07  28300280.550 6 148718405.377 6     -2285.919 6        38.969               
E29  28996338.856 5 152404037.282 5      -315.741 5        35.924               
E30  26197212.142 6 137705902.370 6      -310.256 6        40.052               
E34  28263561.995 6 148828288.044 6     -2437.337 6        39.709               
> 2025 01 08 14 21 39.0000000  0  5                                             
E02  27138515.623 6 142369946.802 6      1942.231 6        40.528               
E07  28300716.555 6 148720690.921 6     -2286.057 6        38.796               
E29  28996280.603 5 152404354.186 5      -315.502 5        35.637               
E30  26197155.694 6 137706211.523 6      -308.966 6        39.959               
E34  28263101.136 6 148830726.903 6     -2439.295 6        39.711               
> 2025 01 08 14 21 40.0000000  0  5                                             
E02  27138888.460 6 142368005.366 6      1941.184 6        40.888               
E07  28301157.651 6 148722976.112 6     -2285.542 6        38.829               
E29  28996217.954 5 152404671.272 5      -314.901 5        35.569               
E30  26197096.619 6 137706521.127 6      -309.753 6        39.875               
E34  28262643.867 6 148833166.161 6     -2440.063 6        39.301               
> 2025 01 08 14 21 41.0000000  0  5                                             
E02  27139262.065 6 142366062.671 6      1943.753 6        40.686               
E07  28301590.064 6 148725262.753 6     -2288.898 6        38.754               
E29  28996156.038 5 152404986.774 5      -315.987 5        35.551               
E30  26197040.921 6 137706829.420 6      -305.503 6        39.966               
E34  28262174.877 6 148835604.041 6     -2435.459 6        39.383               
> 2025 01 08 14 21 42.0000000  0  5                                             
E02  27139634.027 6 142364118.696 6      1941.964 6        40.875               
E07  28302026.729 6 148727550.873 6     -2285.244 6        38.560               
E29  28996101.270 5 152405300.699 5      -316.057 5        35.476               
E30  26196987.028 6 137707136.356 6      -306.780 6        39.752               
E34  28261715.375 6 148838040.514 6     -2437.343 6        39.258               
> 2025 01 08 14 21 43.0000000  0  5                                             
E02  27140004.184 6 142362175.510 6      1942.235 6        40.990               
E07  28302467.880 6 148729838.423 6     -2287.009 6        38.665               
E29  28996052.702 5 152405615.029 5      -314.113 5        35.665               
E30  26196928.096 6 137707444.036 6      -307.217 6        39.663               
E34  28261253.890 6 148840477.668 6     -2438.191 6        39.537               
> 2025 01 08 14 21 44.0000000  0  5                                             
E02  27140375.627 6 142360233.934 6      1940.025 6        40.767               
E07  28302904.563 6 148732124.516 6     -2285.296 6        38.711               
E29  28995986.050 5 152405930.657 5      -316.975 5        35.474               
E30  26196869.843 6 137707753.276 6      -310.380 6        39.755               
E34  28260789.527 6 148842916.290 6     -2437.706 6        39.641               
> 2025 01 08 14 21 45.0000000  0  5                                             
E02  27140747.732 6 142358291.209 6      1943.951 6        40.643               
E07  28303341.157 6 148734412.004 6     -2290.017 6        38.589               
E29  28995928.816 5 152406244.801 5      -312.501 5        35.394               
E30  26196814.217 6 137708061.282 6      -305.597 6        40.146               
E34  28260324.379 6 148845353.682 6     -2435.585 6        39.763               
> 2025 01 08 14 21 46.0000000  0  5                                             
E02  27141118.871 6 142356348.779 6      1942.146 6        40.354               
E07  28303779.359 6 148736699.348 6     -2286.070 6        38.465               
E29  28995871.867 5 152406558.901 5      -316.846 5        35.168               
E30  26196757.483 6 137708369.545 6      -309.055 6        40.037               
E34  28259864.001 6 148847791.257 6     -2438.937 6        39.846               
> 2025 01 08 14 21 47.0000000  0  5                                             
E02  27141490.225 6 142354405.756 6      1942.136 6        40.366               
E07  28304216.042 6 148738987.517 6     -2288.739 6        38.641               
E29  28995810.451 5 152406872.078 5      -312.068 5        35.527               
E30  26196700.284 6 137708677.145 6      -309.696 6        40.077               
E34  28259406.036 6 148850228.072 6     -2436.856 6        39.841               
> 2025 01 08 14 21 48.0000000  0  5                                             
E02  27141861.186 6 142352461.357 6      1944.286 6        40.210               
E07  28304650.223 6 148741277.212 6     -2290.960 6        38.532               
E29  28995755.826 5 152407183.548 5      -309.089 5        35.466               
E30  26196644.783 6 137708983.296 6      -305.419 6        40.099               
E34  28258946.177 6 148852663.426 6     -2433.023 6        39.654               
> 2025 01 08 14 21 49.0000000  0  5                                             
E02  27142230.950 6 142350517.356 6      1941.553 6        40.213               
E07  28305090.212 6 148743566.757 6     -2288.186 6        38.464               
E29  28995698.591 5 152407495.080 5      -311.512 5        35.242               
E30  26196587.941 6 137709289.796 6      -307.906 6        40.027               
E34  28258481.493 6 148855099.053 6     -2437.243 6        39.654               
> 2025 01 08 14 21 50.0000000  0  5                                             
E02  27142605.717 6 142348576.293 6      1940.605 6        40.395               
E07  28305527.324 6 148745853.530 6     -2285.415 6        38.309               
E29  28995641.518 5 152407809.234 5      -316.454 5        35.148               
E30  26196530.457 6 137709599.187 6      -310.267 6        39.973               
E34  28258019.132 6 148857537.501 6     -2438.673 6        39.519               
> 2025 01 08 14 21 51.0000000  0  5                                             
E02  27142974.408 6 142346633.757 6      1942.900 6        40.693               
E07  28305960.809 6 148748141.946 6     -2289.260 6        38.515               
E29  28995581.049 5 152408121.580 5      -308.181 5        34.800               
E30  26196474.205 6 137709907.042 6      -306.202 6        39.909               
E34  28257557.039 6 148859974.373 6     -2438.389 6        39.845               
> 2025 01 08 14 21 52.0000000  0  5                                             
E02  27143345.494 6 142344690.526 6      1942.636 6        40.183               
E07  28306404.032 6 148750431.304 6     -2288.975 6        38.751               
E29  28995527.799 5 152408432.860 5      -311.528 5        35.100               
E30  26196416.488 6 137710214.129 6      -305.622 6        40.058               
E34  28257097.823 6 148862410.401 6     -2435.312 6        39.830               
> 2025 01 08 14 21 53.0000000  0  5                                             
E02  27143719.064 6 142342747.067 6      1943.784 6        40.489               
E07  28306838.964 6 148752721.048 6     -2289.010 6        38.558               
E29  28995473.102 5 152408743.594 5      -308.850 5        35.297               
E30  26196357.949 6 137710520.943 6      -308.476 6        39.999               
E34  28256634.890 6 148864846.106 6     -2435.239 6        39.441               
> 2025 01 08 14 21 54.0000000  0  5                                             
E02  27144091.794 6 142340803.426 6      1944.411 6        40.214               
E07  28307277.113 6 148755011.203 6     -2292.061 6        38.373               
E29  28995413.580 5 152409053.827 5      -307.154 5        35.605               
E30  26196302.555 6 137710827.507 6      -307.452 6        40.109               
E34  28256173.012 6 148867281.499 6     -2434.886 6        39.582               
> 2025 01 08 14 21 55.0000000  0  5                                             
E02  27144460.361 6 142338859.455 6      1945.260 6        40.440               
E07  28307715.154 6 148757301.853 6     -2292.030 6        38.323               
E29  28995357.507 5 152409363.413 5      -309.106 5        35.237               
E30  26196247.948 6 137711133.686 6      -306.433 6        40.071               
E34  28255709.578 6 148869716.458 6     -2437.629 6        39.577               
> 2025 01 08 14 21 56.0000000  0  5                                             
E02  27144833.948 6 142336915.602 6      1943.790 6        40.457               
E07  28308153.052 6 148759592.587 6     -2293.131 6        38.545               
E29  28995303.150 5 152409672.728 5      -310.554 5        35.355               
E30  26196188.354 6 137711439.913 6      -305.044 6        39.917               
E34  28255248.665 6 148872151.397 6     -2434.098 6        39.499               
> 2025 01 08 14 21 57.0000000  0  5                                             
E02  27145207.107 6 142334970.703 6      1944.972 6        40.625               
E07  28308592.291 6 148761884.556 6     -2292.349 6        38.385               
E29  28995243.807 5 152409980.723 5      -307.809 5        35.508               
E30  26196133.121 6 137711745.042 6      -305.503 6        39.878               
E34  28254787.537 6 148874585.182 6     -2433.869 6        39.557               
> 2025 01 08 14 21 58.0000000  0  5                                             
E02  27145579.140 6 142333025.921 6      1945.530 6        40.721               
E07  28309020.629 6 148764176.604 6     -2290.990 6        38.503               
E29  28995185.429 5 152410288.440 5      -305.050 5        35.451               
E30  26196078.460 6 137712050.215 6      -304.561 6        40.048               
E34  28254327.963 6 148877018.955 6     -2433.709 6        39.566               
> 2025 01 08 14 21 59.0000000  0  5                                             
E02  27145949.994 6 142331081.298 6      1944.667 6        40.602               
E07  28309464.388 6 148766468.687 6     -2290.501 6        38.537               
E29  28995125.603 5 152410596.054 5      -306.106 5        35.356               
E30  26196021.315 6 137712355.506 6      -306.291 6        39.943               
E34  28253865.853 6 148879452.767 6     -2434.458 6        39.284               
> 2025 01 08 14 22 00.0000000  0  5                                             
E02  27146324.350 6 142329136.296 6      1944.895 6        40.269               
E07  28309901.340 6 148768761.348 6     -2292.722 6        38.610               
E29  28995071.799 5 152410902.892 5      -306.179 5        35.246               
E30  26195964.741 6 137712660.345 6      -304.551 6        39.936               
E34  28253404.099 6 148881886.100 6     -2432.042 6        39.228               
> 2025 01 08 14 22 01.0000000  0  5                                             
E02  27146696.419 6 142327191.319 6      1945.844 6        40.453               
E07  28310340.775 6 148771054.207 6     -2291.814 6        38.811               
E29  28995013.761 5 152411209.423 5      -308.226 5        35.344               
E30  26195907.650 6 137712965.150 6      -304.427 6        39.993               
E34  28252947.063 6 148884319.323 6     -2434.139 6        39.456               
> 2025 01 08 14 22 02.0000000  0  5                                             
E02  27147066.933 6 142325246.478 6      1943.028 6        40.288               
E07  28310779.155 6 148773347.107 6     -2292.931 6        38.766               
E29  28994962.495 5 152411515.774 5      -305.347 5        35.343               
E30  26195851.434 6 137713270.030 6      -304.945 6        39.909               
E34  28252484.952 6 148886752.564 6     -2431.970 6        39.441               
> 2025 01 08 14 22 03.0000000  0  5                                             
E02  27147437.965 6 142323301.358 6      1945.924 6        40.298               
E07  28311213.569 6 148775640.461 6     -2294.531 6        38.891               
E29  28994900.150 5 152411821.531 5      -305.246 5        35.241               
E30  26195796.469 6 137713574.572 6      -305.216 6        39.741               
E34  28252017.409 6 148889185.424 6     -2432.398 6        39.541               
> 2025 01 08 14 22 04.0000000  0  5                                             
E02  27147811.160 6 142321355.852 6      1947.321 6        40.175               
E07  28311650.252 6 148777934.409 6     -2295.716 6        39.049               
E29  28994847.132 5 152412126.548 5      -307.726 5        35.002               
E30  26195741.182 6 137713878.675 6      -305.148 6        39.848               
E34  28251559.194 6 148891617.763 6     -2430.678 6        39.439               
> 2025 01 08 14 22 05.0000000  0  5                                             
E02  27148186.963 6 142319410.150 6      1945.308 6        40.226               
E07  28312093.779 6 148780228.736 6     -2294.350 6        38.867               
E29  28994785.020 5 152412431.028 5      -303.831 5        35.371               
E30  26195682.357 6 137714182.503 6      -301.968 6        39.878               
E34  28251097.655 6 148894049.790 6     -2431.718 6        39.577               
> 2025 01 08 14 22 06.0000000  0  5                                             
E02  27148553.510 6 142317464.834 6      1946.048 6        40.117               
E07  28312531.320 6 148782522.882 6     -2292.282 6        38.584               
E29  28994728.643 5 152412735.587 5      -305.553 5        34.892               
E30  26195624.283 6 137714486.666 6      -303.197 6        39.477               
E34  28250636.527 6 148896482.064 6     -2431.628 6        39.647               
> 2025 01 08 14 22 07.0000000  0  5                                             
E02  27148925.686 6 142315519.395 6      1946.440 6        40.226               
E07  28312969.665 6 148784817.339 6     -2293.019 6        38.322               
E29  28994678.216 5 152413039.682 5      -304.232 5        34.901               
E30  26195573.517 6 137714790.657 6      -302.738 6        39.521               
E34  28250176.185 6 148898914.129 6     -2432.144 6        39.584               
> 2025 01 08 14 22 08.0000000  0  5                                             
E02  27149297.755 6 142313573.988 6      1944.115 6        40.401               
E07  28313403.329 6 148787111.963 6     -2295.143 6        38.286               
E29  28994622.519 5 152413343.447 5      -301.915 5        35.301               
E30  26195518.695 6 137715094.613 6      -305.873 6        39.639               
E34  28249714.682 6 148901346.102 6     -2433.818 6        39.839               
> 2025 01 08 14 22 09.0000000  0  5                                             
E02  27149665.410 6 142311628.653 6      1946.051 6        40.291               
E07  28313846.891 6 148789406.724 6     -2296.203 6        38.389               
E29  28994565.945 5 152413646.953 5      -303.716 5        35.506               
E30  26195458.994 6 137715398.567 6      -305.394 6        39.675               
E34  28249254.233 6 148903778.002 6     -2431.409 6        39.500               
> 2025 01 08 14 22 10.0000000  0  5                                             
E02  27150041.696 6 142309683.442 6      1945.084 6        40.668               
E07  28314284.629 6 148791701.519 6     -2294.540 6        38.101               
E29  28994505.155 5 152413950.278 5      -306.193 5        35.399               
E30  26195406.388 6 137715702.606 6      -302.109 6        39.889               
E34  28248792.390 6 148906209.928 6     -2431.624 6        39.305               
> 2025 01 08 14 22 11.0000000  0  5                                             
E02  27150415.355 6 142307737.750 6      1945.414 6        40.401               
E07  28314725.511 6 148793997.040 6     -2297.414 6        38.074               
E29  28994451.298 5 152414252.761 5      -299.240 5        35.040               
E30  26195348.725 6 137716006.080 6      -301.822 6        39.807               
E34  28248333.049 6 148908641.235 6     -2431.170 6        39.433               
> 2025 01 08 14 22 12.0000000  0  5                                             
E02  27150786.763 6 142305791.139 6      1947.316 6        40.399               
E07  28315160.729 6 148796293.620 6     -2297.273 6        38.037               
E29  28994396.082 5 152414554.011 5      -298.663 5        35.035               
E30  26195291.240 6 137716308.596 6      -301.975 6        39.995               
E34  28247868.687 6 148911071.511 6     -2429.270 6        39.647               
> 2025 01 08 14 22 13.0000000  0  5                                             
E02  27151157.831 6 142303843.613 6      1949.764 6        40.469               
E07  28315603.845 6 148798591.312 6     -2298.133 6        38.240               
E29  28994342.100 5 152414854.029 5      -298.707 5        35.144               
E30  26195238.455 6 137716610.145 6      -302.065 6        39.982               
E34  28247410.311 6 148913500.775 6     -2429.006 6        39.560               
> 2025 01 08 14 22 14.0000000  0  5                                             
E02  27151528.864 6 142301895.870 6      1947.457 6        40.190               
E07  28316042.190 6 148800889.456 6     -2298.445 6        38.237               
E29  28994287.278 5 152415153.452 5      -299.964 5        35.498               
E30  26195180.130 6 137716911.395 6      -302.337 6        39.713               
E34  28246952.506 6 148915929.651 6     -2427.362 6        39.450               
> 2025 01 08 14 22 15.0000000  0  5                                             
E02  27151903.309 6 142299948.071 6      1946.766 6        39.991               
E07  28316478.391 6 148803187.827 6     -2299.590 6        38.209               
E29  28994227.184 5 152415452.535 5      -297.250 5        35.467               
E30  26195127.274 6 137717212.531 6      -301.341 6        39.744               
E34  28246491.325 6 148918358.387 6     -2428.623 6        39.475               
> 2025 01 08 14 22 16.0000000  0  5                                             
E02  27152274.163 6 142298000.665 6      1946.774 6        40.098               
E07  28316913.716 6 148805485.993 6     -2296.333 6        37.858               
E29  28994175.882 5 152415751.633 5      -299.510 5        35.314               
E30  26195070.004 6 137717513.992 6      -303.735 6        39.790               
E34  28246030.393 6 148920787.384 6     -2429.184 6        39.293               
> 2025 01 08 14 22 17.0000000  0  5                                             
E02  27152648.733 6 142296053.224 6      1947.709 6        40.181               
E07  28317354.116 6 148807784.384 6     -2297.520 6        37.764               
E29  28994120.899 5 152416050.356 5      -296.368 5        35.591               
E30  26195015.628 6 137717815.377 6      -300.705 6        39.693               
E34  28245568.944 6 148923216.239 6     -2427.509 6        39.702               
> 2025 01 08 14 22 18.0000000  0  5                                             
E02  27153021.356 6 142294105.421 6      1949.430 6        40.035               
E07  28317798.090 6 148810083.352 6     -2296.933 6        37.821               
E29  28994067.864 5 152416348.408 5      -297.383 5        35.573               
E30  26194958.858 6 137718116.334 6      -300.956 6        39.701               
E34  28245112.605 6 148925644.606 6     -2427.194 6        39.772               
> 2025 01 08 14 22 19.0000000  0  5                                             
E02  27153391.852 6 142292157.280 6      1948.379 6        39.952               
E07  28318236.971 6 148812382.834 6     -2299.176 6        37.977               
E29  28994014.329 5 152416645.806 5      -301.843 5        35.218               
E30  26194903.214 6 137718416.878 6      -300.690 6        39.768               
E34  28244645.776 6 148928072.505 6     -2426.418 6        39.748               
> 2025 01 08 14 22 20.0000000  0  5                                             
E02  27153764.850 6 142290208.885 6      1948.840 6        40.159               
E07  28318676.513 6 148814682.764 6     -2299.077 6        37.858               
E29  28993955.522 5 152416942.603 5      -296.983 5        35.103               
E30  26194850.983 6 137718717.121 6      -299.116 6        39.619               
E34  28244189.652 6 148930500.041 6     -2428.025 6        39.403               
> 2025 01 08 14 22 21.0000000  0  5                                             
E02  27154137.509 6 142288260.180 6      1949.150 6        40.438               
E07  28319116.216 6 148816983.223 6     -2300.422 6        37.883               
E29  28993900.271 5 152417238.708 5      -298.130 5        35.077               
E30  26194794.749 6 137719016.985 6      -300.470 6        39.694               
E34  28243724.092 6 148932927.138 6     -2426.278 6        39.291               
> 2025 01 08 14 22 22.0000000  0  5                                             
E02  27154514.045 6 142286311.188 6      1949.901 6        40.661               
E07  28319557.045 6 148819284.134 6     -2300.956 6        37.755               
E29  28993849.219 5 152417534.259 5      -297.125 5        35.064               
E30  26194738.390 6 137719316.503 6      -299.601 6        39.903               
E34  28243263.875 6 148935353.829 6     -2427.381 6        39.311               
> 2025 01 08 14 22 23.0000000  0  5                                             
E02  27154885.417 6 142284361.699 6      1950.015 6        40.512               
E07  28319994.854 6 148821585.746 6     -2299.701 6        37.851               
E29  28993796.291 5 152417828.934 5      -294.138 5        35.223               
E30  26194683.532 6 137719615.469 6      -297.757 6        40.053               
E34  28242806.571 6 148937779.902 6     -2425.242 6        39.240               
> 2025 01 08 14 22 24.0000000  0  5                                             
E02  27155255.180 6 142282411.963 6      1950.337 6        40.383               
E07  28320434.450 6 148823887.786 6     -2302.260 6        37.673               
E29  28993742.559 5 152418123.035 5      -295.391 5        35.594               
E30  26194627.245 6 137719914.119 6      -298.387 6        40.274               
E34  28242349.142 6 148940205.600 6     -2425.987 6        39.177               
> 2025 01 08 14 22 25.0000000  0  5                                             
E02  27155630.555 6 142280462.133 6      1951.383 6        40.335               
E07  28320875.153 6 148826190.121 6     -2300.709 6        37.744               
E29  28993691.149 5 152418416.715 5      -290.978 5        35.469               
E30  26194574.120 6 137720212.623 6      -297.395 6        39.973               
E34  28241886.871 6 148942631.091 6     -2425.403 6        39.214               
> 2025 01 08 14 22 26.0000000  0  5                                             
E02  27156005.393 6 142278512.169 6      1949.556 6        40.655               
E07  28321315.786 6 148828492.783 6     -2303.693 6        37.851               
E29  28993634.183 5 152418709.927 5      -291.216 5        35.525               
E30  26194518.994 6 137720510.923 6      -296.856 6        39.903               
E34  28241428.959 6 148945056.337 6     -2425.745 6        38.814               
> 2025 01 08 14 22 27.0000000  0  5                                             
E02  27156376.783 6 142276562.094 6      1951.769 6        40.500               
E07  28321754.113 6 148830795.748 6     -2301.577 6        37.805               
E29  28993576.752 6 152419002.685 6      -292.866 6        36.063               
E30  26194463.654 6 137720809.066 6      -297.877 6        39.990               
E34  28240969.940 6 148947481.336 6     -2424.662 6        38.811               
> 2025 01 08 14 22 28.0000000  0  5                                             
E02  27156749.888 6 142274612.091 6      1949.554 6        40.490               
E07  28322193.780 6 148833098.852 6     -2302.860 6        37.733               
E29  28993528.273 6 152419295.202 6      -291.901 6        36.089               
E30  26194406.384 6 137721107.225 6      -298.875 6        39.921               
E34  28240510.884 6 148949906.305 6     -2425.056 6        38.946               
> 2025 01 08 14 22 29.0000000  0  5                                             
E02  27157122.922 6 142272662.134 6      1950.502 6        40.167               
E07  28322636.521 6 148835402.100 6     -2305.270 6        37.712               
E29  28993472.665 6 152419587.407 6      -291.695 6        36.024               
E30  26194356.511 6 137721405.326 6      -298.977 6        39.895               
E34  28240048.666 6 148952331.170 6     -2424.852 6        39.134               
> 2025 01 08 14 22 30.0000000  0  5                                             
E02  27157494.866 6 142270711.641 6      1950.959 6        40.076               
E07  28323077.260 6 148837706.049 6     -2303.102 6        37.726               
E29  28993420.755 6 152419878.751 6      -290.374 6        36.085               
E30  26194300.492 6 137721702.878 6      -297.274 6        39.680               
E34  28239594.722 6 148954755.363 6     -2422.994 6        38.946               
> 2025 01 08 14 22 31.0000000  0  5                                             
E02  27157872.331 6 142268760.905 6      1949.855 6        40.660               
E07  28323514.819 6 148840010.450 6     -2304.893 6        37.884               
E29  28993366.040 6 152420169.539 6      -291.081 6        36.258               
E30  26194244.616 6 137722000.103 6      -298.127 6        39.780               
E34  28239131.235 6 148957179.225 6     -2424.256 6        39.175               
> 2025 01 08 14 22 32.0000000  0  5                                             
E02  27158239.593 6 142266810.003 6      1951.241 6        40.682               
E07  28323955.165 6 148842315.201 6     -2304.718 6        37.956               
E29  28993312.415 6 152420459.795 6      -290.888 6        36.136               
E30  26194192.420 6 137722297.109 6      -295.034 6        39.854               
E34  28238673.180 6 148959602.810 6     -2423.046 6        39.192               
> 2025 01 08 14 22 33.0000000  0  5                                             
E02  27158613.252 6 142264858.915 6      1951.040 6        40.387               
E07  28324398.121 6 148844620.364 6     -2303.764 6        37.862               
E29  28993258.451 6 152420749.540 6      -289.513 6        36.388               
E30  26194135.918 6 137722593.864 6      -298.935 6        40.131               
E34  28238213.464 6 148962026.046 6     -2423.655 6        39.279               
> 2025 01 08 14 22 34.0000000  0  5                                             
E02  27158990.539 6 142262907.752 6      1951.564 6        40.575               
E07  28324838.306 6 148846925.754 6     -2304.428 6        37.951               
E29  28993202.771 6 152421038.882 6      -286.706 6        36.194               
E30  26194080.507 6 137722890.479 6      -297.746 6        40.100               
E34  28237755.249 6 148964449.117 6     -2422.737 6        39.203               
> 2025 01 08 14 22 35.0000000  0  5                                             
E02  27159363.108 6 142260956.412 6      1952.736 6        40.581               
E07  28325278.456 6 148849231.535 6     -2306.292 6        37.653               
E29  28993152.130 6 152421327.694 6      -291.128 6        36.455               
E30  26194027.507 6 137723186.876 6      -295.673 6        39.864               
E34  28237294.407 6 148966871.890 6     -2423.531 6        39.274               
> 2025 01 08 14 22 36.0000000  0  5                                             
E02  27159730.960 6 142259004.597 6      1952.687 6        40.581               
E07  28325716.104 6 148851537.986 6     -2307.578 6        37.941               
E29  28993105.081 6 152421615.703 6      -290.014 6        36.169               
E30  26193972.560 6 137723482.720 6      -296.371 6        39.723               
E34  28236834.512 6 148969294.039 6     -2422.860 6        39.385               
> 2025 01 08 14 22 37.0000000  0  5                                             
E02  27160107.013 6 142257052.575 6      1952.309 6        40.797               
E07  28326160.435 6 148853844.817 6     -2307.459 6        37.987               
E29  28993048.097 6 152421903.151 6      -286.377 6        36.309               
E30  26193917.702 6 137723778.290 6      -297.602 6        39.999               
E34  28236380.013 6 148971715.880 6     -2423.863 6        39.288               
> 2025 01 08 14 22 38.0000000  0  5                                             
E02  27160481.995 6 142255101.042 6      1951.366 6        40.848               
E07  28326596.332 6 148856151.357 6     -2306.612 6        37.942               
E29  28992994.240 5 152422190.809 5      -286.864 5        35.961               
E30  26193862.236 6 137724074.318 6      -296.999 6        39.922               
E34  28235917.348 6 148974138.106 6     -2421.919 6        39.430               
> 2025 01 08 14 22 39.0000000  0  5                                             
E02  27160854.010 6 142253149.062 6      1953.027 6        40.727               
E07  28327040.073 6 148858458.550 6     -2306.320 6        37.955               
E29  28992944.671 6 152422477.640 6      -288.297 6        36.024               
E30  26193808.844 6 137724369.790 6      -294.422 6        39.919               
E34  28235461.563 6 148976559.718 6     -2422.143 6        39.343               
> 2025 01 08 14 22 40.0000000  0  5                                             
E02  27161227.883 6 142251196.596 6      1954.020 6        40.849               
E07  28327484.226 6 148860766.434 6     -2309.704 6        38.108               
E29  28992893.673 6 152422763.670 6      -286.067 6        36.225               
E30  26193752.145 6 137724664.756 6      -294.266 6        40.228               
E34  28234998.291 6 148978980.743 6     -2419.487 6        39.397               
> 2025 01 08 14 22 41.0000000  0  5                                             
E02  27161602.543 6 142249243.712 6      1954.698 6        40.786               
E07  28327918.282 6 148863074.882 6     -2308.354 6        38.268               
E29  28992838.976 6 152423048.948 6      -282.936 6        36.597               
E30  26193699.307 6 137724959.245 6      -294.891 6        40.205               
E34  28234536.609 6 148981401.252 6     -2421.524 6        39.230               
> 2025 01 08 14 22 42.0000000  0  5                                             
E02  27161975.094 6 142247291.337 6      1952.766 6        40.683               
E07  28328366.634 6 148865383.050 6     -2306.805 6        37.816               
E29  28992787.281 6 152423334.429 6      -288.486 6        36.378               
E30  26193647.326 6 137725254.159 6      -294.696 6        40.291               
E34  28234082.539 6 148983822.116 6     -2421.130 6        39.418               
> 2025 01 08 14 22 43.0000000  0  5                                             
E02  27162348.682 6 142245339.101 6      1952.495 6        40.356               
E07  28328803.835 6 148867691.271 6     -2309.163 6        37.958               
E29  28992729.439 6 152423619.655 6      -284.935 6        36.200               
E30  26193591.753 6 137725549.166 6      -292.068 6        40.447               
E34  28233626.825 6 148986243.002 6     -2419.432 6        39.468               
> 2025 01 08 14 22 44.0000000  0  5                                             
E02  27162717.945 6 142243385.922 6      1952.736 6        40.594               
E07  28329243.556 6 148870000.600 6     -2309.628 6        38.270               
E29  28992679.405 6 152423903.631 6      -283.694 6        36.637               
E30  26193537.503 6 137725843.153 6      -295.474 6        40.272               
E34  28233163.571 6 148988662.814 6     -2420.121 6        39.226               
> 2025 01 08 14 22 45.0000000  0  5                                             
E02  27163094.142 6 142241433.005 6      1953.436 6        40.540               
E07  28329686.476 6 148872309.870 6     -2308.491 6        38.483               
E29  28992629.783 6 152424187.527 6      -282.687 6        36.200               
E30  26193481.465 6 137726137.356 6      -292.548 6        40.071               
E34  28232707.518 6 148991082.785 6     -2418.533 6        39.372               
> 2025 01 08 14 22 46.0000000  0  5                                             
E02  27163468.981 6 142239479.735 6      1952.250 6        40.727               
E07  28330130.825 6 148874619.698 6     -2310.572 6        38.242               
E29  28992576.730 6 152424470.744 6      -284.774 6        36.393               
E30  26193427.233 6 137726431.136 6      -293.444 6        39.707               
E34  28232245.139 6 148993502.276 6     -2419.803 6        39.424               
> 2025 01 08 14 22 47.0000000  0  5                                             
E02  27163837.851 6 142237526.026 6      1954.352 6        40.627               
E07  28330570.153 6 148876930.146 6     -2309.380 6        38.128               
E29  28992524.928 6 152424753.183 6      -281.763 6        36.526               
E30  26193376.449 6 137726724.421 6      -293.789 6        39.846               
E34  28231792.856 6 148995921.180 6     -2418.300 6        39.424               
> 2025 01 08 14 22 48.0000000  0  5                                             
E02  27164216.799 6 142235572.053 6      1953.330 6        41.111               
E07  28331008.980 6 148879241.054 6     -2312.204 6        37.935               
E29  28992471.660 6 152425035.015 6      -280.979 6        36.795               
E30  26193322.163 6 137727017.377 6      -292.735 6        39.956               
E34  28231332.085 6 148998339.729 6     -2418.781 6        39.348               
> 2025 01 08 14 22 49.0000000  0  5                                             
E02  27164590.208 6 142233618.187 6      1954.840 6        40.795               
E07  28331455.187 6 148881552.023 6     -2310.166 6        38.036               
E29  28992418.982 6 152425316.655 6      -281.329 6        36.762               
E30  26193265.768 6 137727310.405 6      -292.788 6        39.917               
E34  28230873.245 6 149000758.282 6     -2418.937 6        39.315               
> 2025 01 08 14 22 50.0000000  0  5                                             
E02  27164963.385 6 142231663.509 6      1953.177 6        40.863               
E07  28331895.337 6 148883864.041 6     -2313.717 6        38.071               
E29  28992374.721 6 152425597.084 6      -280.028 6        36.790               
E30  26193212.769 6 137727602.497 6      -291.001 6        39.917               
E34  28230414.601 6 149003175.837 6     -2420.224 6        39.694               
> 2025 01 08 14 22 51.0000000  0  5                                             
E02  27165341.243 6 142229708.860 6      1955.143 6        40.908               
E07  28332336.452 6 148886176.184 6     -2313.164 6        37.885               
E29  28992317.450 6 152425877.260 6      -277.833 6        37.095               
E30  26193159.358 6 137727894.634 6      -290.839 6        40.005               
E34  28229956.474 6 149005593.349 6     -2417.385 6        39.523               
> 2025 01 08 14 22 52.0000000  0  5                                             
E02  27165709.148 6 142227754.228 6      1954.920 6        40.376               
E07  28332780.515 6 148888488.532 6     -2311.477 6        38.049               
E29  28992268.632 6 152426157.122 6      -280.131 6        36.637               
E30  26193107.377 6 137728186.674 6      -291.647 6        40.341               
E34  28229498.277 6 149008010.743 6     -2419.040 6        39.512               
> 2025 01 08 14 22 53.0000000  0  5                                             
E02  27166083.880 6 142225799.587 6      1955.378 6        40.494               
E07  28333221.254 6 148890801.053 6     -2311.983 6        38.206               
E29  28992212.684 6 152426436.618 6      -280.979 6        36.528               
E30  26193052.948 6 137728478.668 6      -292.506 6        40.322               
E34  28229038.829 6 149010427.995 6     -2416.891 6        39.264               
> 2025 01 08 14 22 54.0000000  0  5                                             
E02  27166453.679 6 142223844.853 6      1953.327 6        40.699               
E07  28333664.174 6 148893113.873 6     -2312.863 6        38.005               
E29  28992166.725 6 152426715.678 6      -277.838 6        36.414               
E30  26192999.520 6 137728770.472 6      -290.830 6        40.314               
E34  28228579.112 6 149012845.015 6     -2418.255 6        39.399               
> 2025 01 08 14 22 55.0000000  0  5                                             
E02  27166832.359 6 142221890.017 6      1954.708 6        40.514               
E07  28334108.559 6 148895426.991 6     -2313.897 6        37.997               
E29  28992112.582 6 152426994.319 6      -279.218 6        36.410               
E30  26192944.966 6 137729062.162 6      -291.643 6        40.162               
E34  28228120.897 6 149015261.831 6     -2415.855 6        39.248               
> 2025 01 08 14 22 56.0000000  0  5                                             
E02  27167205.608 6 142219934.970 6      1955.225 6        40.361               
E07  28334547.315 6 148897740.488 6     -2313.491 6        38.113               
E29  28992060.476 6 152427272.406 6      -278.726 6        36.550               
E30  26192891.591 6 137729353.557 6      -290.641 6        40.429               
E34  28227670.151 6 149017678.307 6     -2416.514 6        39.259               
> 2025 01 08 14 22 57.0000000  0  5                                             
E02  27167579.195 6 142217979.821 6      1955.246 6        40.450               
E07  28334992.003 6 148900054.301 6     -2311.806 6        38.533               
E29  28992013.981 6 152427550.057 6      -276.247 6        36.398               
E30  26192838.466 6 137729644.799 6      -289.110 6        40.453               
E34  28227203.626 6 149020094.576 6     -2415.541 6        38.988               
> 2025 01 08 14 22 58.0000000  0  5                                             
E02  27167952.569 6 142216024.829 6      1954.417 6        40.704               
E07  28335428.115 6 148902368.140 6     -2313.736 6        38.688               
E29  28991958.087 6 152427827.518 6      -277.098 6        36.472               
E30  26192783.859 6 137729936.121 6      -291.499 6        40.648               
E34  28226747.091 6 149022510.833 6     -2415.462 6        38.817               
> 2025 01 08 14 22 59.0000000  0  5                                             
E02  27168328.140 6 142214069.771 6      1955.713 6        40.558               
E07  28335868.550 6 148904682.220 6     -2314.175 6        38.634               
E29  28991902.961 6 152428104.582 6      -276.518 6        36.627               
E30  26192730.216 6 137730227.346 6      -290.866 6        40.431               
E34  28226289.465 6 149024926.974 6     -2417.046 6        38.998               
> 2025 01 08 14 23 00.0000000  0  5                                             
E02  27168701.906 6 142212113.720 6      1957.633 6        40.686               
E07  28336313.685 6 148906997.507 6     -2318.312 6        38.779               
E29  28991859.664 6 152428380.325 6      -273.160 6        36.203               
E30  26192675.179 6 137730517.494 6      -286.291 6        40.285               
E34  28225832.947 6 149027341.944 6     -2412.764 6        38.922               
> 2025 01 08 14 23 01.0000000  0  5                                             
E02  27169077.084 6 142210157.804 6      1953.055 6        41.131               
E07  28336758.678 6 148909312.868 6     -2313.759 6        38.511               
E29  28991804.842 6 152428655.874 6      -276.994 6        36.144               
E30  26192624.324 6 137730807.687 6      -290.638 6        40.180               
E34  28225375.000 6 149029756.925 6     -2417.992 6        38.784               
> 2025 01 08 14 23 02.0000000  0  5                                             
E02  27169450.422 6 142208201.873 6      1957.015 6        40.810               
E07  28337196.790 6 148911628.387 6     -2315.855 6        38.536               
E29  28991754.540 5 152428931.070 5      -273.844 5        35.835               
E30  26192570.914 6 137731097.868 6      -289.107 6        40.190               
E34  28224919.572 6 149032171.789 6     -2414.427 6        38.798               
> 2025 01 08 14 23 03.0000000  0  5                                             
E02  27169823.866 6 142206245.322 6      1955.900 6        40.886               
E07  28337643.605 6 148913944.767 6     -2317.613 6        38.242               
E29  28991705.633 6 152429205.303 6      -276.595 6        36.059               
E30  26192516.842 6 137731387.326 6      -288.582 6        40.277               
E34  28224459.070 6 149034585.885 6     -2415.723 6        38.920               
> 2025 01 08 14 23 04.0000000  0  5                                             
E02  27170198.687 6 142204288.857 6      1956.987 6        40.778               
E07  28338086.346 6 148916261.201 6     -2316.285 6        38.266               
E29  28991652.187 6 152429479.291 6      -275.093 6        36.181               
E30  26192461.930 6 137731676.824 6      -289.994 6        40.223               
E34  28224001.891 6 149036999.968 6     -2415.776 6        39.097               
> 2025 01 08 14 23 05.0000000  0  5                                             
E02  27170571.345 6 142202332.590 6      1955.029 6        40.575               
E07  28338522.833 6 148918577.662 6     -2316.358 6        37.851               
E29  28991600.224 6 152429753.131 6      -276.302 6        36.068               
E30  26192410.289 6 137731966.438 6      -291.065 6        40.467               
E34  28223546.302 6 149039414.075 6     -2413.127 6        39.310               
> 2025 01 08 14 23 06.0000000  0  5                                             
E02  27170945.290 6 142200375.942 6      1957.207 6        40.566               
E07  28338970.327 6 148920894.674 6     -2317.230 6        37.881               
E29  28991553.728 5 152430026.273 5      -271.648 5        35.854               
E30  26192358.362 6 137732255.640 6      -288.606 6        40.525               
E34  28223091.643 6 149041827.739 6     -2412.353 6        39.334               
> 2025 01 08 14 23 07.0000000  0  5                                             
E02  27171318.932 6 142198418.284 6      1958.194 6        40.797               
E07  28339411.656 6 148923212.876 6     -2317.245 6        38.208               
E29  28991500.282 5 152430298.068 5      -270.574 5        35.937               
E30  26192304.343 6 137732543.758 6      -288.468 6        40.448               
E34  28222630.872 6 149044240.232 6     -2412.418 6        39.442               
> 2025 01 08 14 23 08.0000000  0  5                                             
E02  27171695.718 6 142196461.078 6      1956.103 6        40.623               
E07  28339857.309 6 148925530.855 6     -2316.205 6        37.952               
E29  28991453.126 5 152430569.959 5      -271.822 5        35.904               
E30  26192249.378 6 137732832.258 6      -290.323 6        40.634               
E34  28222174.479 6 149046653.058 6     -2411.331 6        39.275               
> 2025 01 08 14 23 09.0000000  0  5                                             
E02  27172067.662 6 142194504.371 6      1958.647 6        40.528               
E07  28340293.349 6 148927848.491 6     -2317.793 6        37.722               
E29  28991402.503 6 152430842.044 6      -272.353 6        36.169               
E30  26192196.826 6 137733121.196 6      -288.916 6        40.254               
E34  28221715.406 6 149049066.288 6     -2412.875 6        39.520               
> 2025 01 08 14 23 10.0000000  0  5                                             
E02  27172441.893 6 142192546.583 6      1959.001 6        40.367               
E07  28340740.128 6 148930167.425 6     -2319.354 6        37.679               
E29  28991351.934 6 152431112.709 6      -269.064 6        36.146               
E30  26192145.524 6 137733408.999 6      -287.370 6        40.286               
E34  28221259.067 6 149051478.284 6     -2411.416 6        39.585               
> 2025 01 08 14 23 11.0000000  0  5                                             
E02  27172818.196 6 142190588.625 6      1958.640 6        40.427               
E07  28341182.976 6 148932486.707 6     -2318.444 6        37.657               
E29  28991307.011 6 152431382.860 6      -268.408 6        36.162               
E30  26192090.058 6 137733696.597 6      -287.954 6        40.377               
E34  28220801.477 6 149053889.995 6     -2410.703 6        39.753               
> 2025 01 08 14 23 12.0000000  0  5                                             
E02  27173193.446 6 142188630.183 6      1959.664 6        40.306               
E07  28341626.325 6 148934806.670 6     -2319.234 6        37.571               
E29  28991252.439 6 152431652.188 6      -274.221 6        36.017               
E30  26192039.453 6 137733983.588 6      -285.762 6        40.657               
E34  28220343.959 6 149056301.088 6     -2410.997 6        39.814               
> 2025 01 08 14 23 13.0000000  0  5                                             
E02  27173564.282 6 142186671.708 6      1957.643 6        40.622               
E07  28342069.673 6 148937126.857 6     -2320.188 6        37.804               
E29  28991203.281 5 152431921.157 5      -268.841 5        35.919               
E30  26191988.669 6 137734270.533 6      -285.701 6        40.590               
E34  28219886.101 6 149058712.021 6     -2409.574 6        39.484               
> 2025 01 08 14 23 14.0000000  0  5                                             
E02  27173942.765 6 142184712.734 6      1959.527 6        40.979               
E07  28342509.465 6 148939447.698 6     -2321.699 6        37.742               
E29  28991159.466 6 152432189.272 6      -264.821 6        36.161               
E30  26191934.473 6 137734556.902 6      -286.553 6        40.629               
E34  28219428.815 6 149061122.339 6     -2410.892 6        39.456               
> 2025 01 08 14 23 15.0000000  0  5                                             
E02  27174318.247 6 142182753.585 6      1960.950 6        40.674               
E07  28342959.926 6 148941768.964 6     -2322.879 6        37.565               
E29  28991104.001 6 152432456.881 6      -265.645 6        36.430               
E30  26191883.582 6 137734843.045 6      -286.236 6        40.461               
E34  28218970.849 6 149063532.354 6     -2409.362 6        39.456               
> 2025 01 08 14 23 16.0000000  0  5                                             
E02  27174689.208 6 142180794.034 6      1959.467 6        41.053               
E07  28343401.290 6 148944090.792 6     -2323.383 6        37.816               
E29  28991064.332 6 152432723.751 6      -265.740 6        36.525               
E30  26191831.172 6 137735128.703 6      -285.928 6        40.805               
E34  28218521.265 6 149065941.827 6     -2408.484 6        39.432               
> 2025 01 08 14 23 17.0000000  0  5                                             
E02  27175067.209 6 142178834.768 6      1957.053 6        40.796               
E07  28343843.459 6 148946412.523 6     -2320.933 6        37.782               
E29  28991006.275 6 152432990.581 6      -265.180 6        36.498               
E30  26191776.582 6 137735414.602 6      -286.095 6        40.837               
E34  28218059.511 6 149068351.479 6     -2411.085 6        39.400               
> 2025 01 08 14 23 18.0000000  0  5                                             
E02  27175438.689 6 142176875.453 6      1958.756 6        40.493               
E07  28344287.022 6 148948734.498 6     -2321.463 6        37.706               
E29  28990963.747 6 152433257.035 6      -265.252 6        36.736               
E30  26191724.529 6 137735700.381 6      -284.962 6        40.870               
E34  28217604.048 6 149070760.946 6     -2409.874 6        39.246               
> 2025 01 08 14 23 19.0000000  0  5                                             
E02  27175814.528 6 142174915.971 6      1959.448 6        40.704               
E07  28344731.711 6 148951056.828 6     -2325.260 6        37.642               
E29  28990911.087 6 152433522.981 6      -264.934 6        36.771               
E30  26191670.208 6 137735985.953 6      -286.049 6        40.760               
E34  28217150.586 6 149073170.142 6     -2410.845 6        39.337               
> 2025 01 08 14 23 20.0000000  0  5                                             
E02  27176186.739 6 142172956.889 6      1959.234 6        40.126               
E07  28345172.611 6 148953378.935 6     -2323.001 6        37.501               
E29  28990866.754 6 152433789.002 6      -264.150 6        36.690               
E30  26191618.870 6 137736271.840 6      -285.068 6        40.692               
E34  28216688.832 6 149075579.602 6     -2409.407 6        39.537               
> 2025 01 08 14 23 21.0000000  0  5                                             
E02  27176563.561 6 142170996.154 6      1960.946 6        40.300               
E07  28345622.124 6 148955702.889 6     -2323.567 6        37.479               
E29  28990816.238 6 152434053.019 6      -261.187 6        36.624               
E30  26191568.372 6 137736556.018 6      -284.320 6        40.786               
E34  28216236.085 6 149077987.260 6     -2406.532 6        39.591               
> 2025 01 08 14 23 22.0000000  0  5                                             
E02  27176937.828 6 142169037.063 6      1956.666 6        40.129               
E07  28346065.740 6 148958025.426 6     -2319.308 6        37.571               
E29  28990768.170 6 152434318.325 6      -266.946 6        36.365               
E30  26191513.657 6 137736841.791 6      -288.458 6        40.692               
E34  28215776.065 6 149080396.465 6     -2409.640 6        39.954               
> 2025 01 08 14 23 23.0000000  0  5                                             
E02  27177311.559 6 142167077.599 6      1959.775 6        40.046               
E07  28346510.536 6 148960348.488 6     -2323.441 6        37.951               
E29  28990718.905 6 152434582.967 6      -266.155 6        36.608               
E30  26191461.622 6 137737127.125 6      -285.268 6        40.761               
E34  28215320.690 6 149082805.183 6     -2407.261 6        39.516               
> 2025 01 08 14 23 24.0000000  0  5                                             
E02  27177688.881 6 142165117.619 6      1960.645 6        40.027               
E07  28346951.794 6 148962672.257 6     -2323.789 6        37.845               
E29  28990670.302 6 152434846.737 6      -262.392 6        36.756               
E30  26191408.301 6 137737411.871 6      -282.924 6        40.815               
E34  28214863.779 6 149085213.221 6     -2407.303 6        39.751               
> 2025 01 08 14 23 25.0000000  0  5                                             
E02  27178063.255 6 142163156.444 6      1960.668 6        39.930               
E07  28347399.270 6 148964997.409 6     -2323.501 6        37.827               
E29  28990625.683 6 152435108.972 6      -263.906 6        36.937               
E30  26191357.017 6 137737695.377 6      -283.656 6        40.577               
E34  28214407.673 6 149087619.963 6     -2408.331 6        39.761               
> 2025 01 08 14 23 26.0000000  0  5                                             
E02  27178440.398 6 142161195.472 6      1960.994 6        40.143               
E07  28347843.065 6 148967322.587 6     -2324.540 6        37.685               
E29  28990574.238 6 152435371.081 6      -263.748 6        36.998               
E30  26191306.073 6 137737979.011 6      -283.572 6        40.675               
E34  28213948.957 6 149090026.780 6     -2407.489 6        39.941               
> 2025 01 08 14 23 27.0000000  0  5                                             
E02  27178813.182 6 142159235.433 6      1960.846 6        40.287               
E07  28348286.092 6 148969646.938 6     -2324.609 6        37.817               
E29  28990529.494 6 152435633.776 6      -261.798 6        36.988               
E30  26191252.591 6 137738263.517 6      -282.860 6        41.021               
E34  28213495.209 6 149092434.391 6     -2407.247 6        39.900               
> 2025 01 08 14 23 28.0000000  0  6                                             
E02  27179188.021 6 142157274.628 6      1960.885 6        40.251               
E07  28348732.192 6 148971972.334 6     -2325.336 6        37.927               
E29  28990482.695 6 152435895.346 6      -260.773 6        37.146               
E30  26191201.450 6 137738547.196 6      -282.263 6        40.961               
E34  28213037.798 6 149094841.118 6     -2406.315 6        39.951               
E36  27881131.811 5 146516340.590 5       -93.014 5        35.136               
> 2025 01 08 14 23 29.0000000  0  6                                             
E02  27179566.111 6 142155313.835 6      1962.360 6        40.437               
E07  28349177.863 6 148974297.853 6     -2324.965 6        37.993               
E29  28990431.554 6 152436156.641 6      -260.490 6        37.218               
E30  26191151.273 6 137738830.843 6      -282.782 6        40.973               
E34  28212582.155 6 149097247.745 6     -2406.573 6        39.668               
E36  27881150.234 5 146516437.089 5       -94.809 5        34.292               
> 2025 01 08 14 23 30.0000000  0  6                                             
E02  27179939.699 6 142153352.552 6      1961.631 6        40.404               
E07  28349614.010 6 148976624.074 6     -2326.206 6        37.658               
E29  28990383.879 6 152436417.106 6      -261.284 6        37.375               
E30  26191095.236 6 137739113.907 6      -282.314 6        40.891               
E34  28212127.800 6 149099653.729 6     -2406.785 6        39.771               
E36  27881175.375 5 146516534.468 5       -96.713 5        33.515               
> 2025 01 08 14 23 31.0000000  0  6                                             
E02  27180313.805 6 142151392.266 6      1959.836 6        40.053               
E07  28350064.881 6 148978949.485 6     -2326.294 6        37.552               
E29  28990333.596 6 152436678.207 6      -260.080 6        37.250               
E30  26191043.773 6 137739397.936 6      -284.061 6        40.780               
E34  28211668.977 6 149102060.595 6     -2407.664 6        39.675               
E36  27881193.083 5 146516631.219 5       -96.701 5        35.928               
> 2025 01 08 14 23 32.0000000  0  6                                             
E02  27180688.268 6 142149431.309 6      1961.336 6        40.134               
E07  28350505.103 6 148981275.775 6     -2329.192 6        37.542               
E29  28990286.207 6 152436938.329 6      -258.289 6        37.413               
E30  26190992.614 6 137739681.209 6      -280.999 6        41.017               
E34  28211215.068 6 149104466.647 6     -2404.353 6        39.926               
E36  27881218.189 5 146516729.035 5       -96.927 5        33.221               
> 2025 01 08 14 23 33.0000000  0  6                                             
E02  27181062.660 6 142147469.363 6      1960.897 6        40.096               
E07  28350951.239 6 148983603.181 6     -2325.575 6        37.524               
E29  28990245.948 6 152437197.113 6      -259.186 6        37.385               
E30  26190939.758 6 137739963.472 6      -285.250 6        40.916               
E34  28210758.371 6 149106871.631 6     -2406.239 6        39.904               
E36  27881233.682 5 146516828.139 5       -94.729 5        32.758               
> 2025 01 08 14 23 34.0000000  0  6                                             
E02  27181436.676 6 142145508.101 6      1963.369 6        39.986               
E07  28351396.910 6 148985930.148 6     -2326.790 6        37.348               
E29  28990192.716 6 152437456.229 6      -260.217 6        37.450               
E30  26190889.260 6 137740246.313 6      -280.917 6        40.771               
E34  28210304.141 6 149109277.141 6     -2405.381 6        39.966               
E36  27881252.230 5 146516927.002 5      -102.539 5        34.849               
> 2025 01 08 14 23 35.0000000  0  6                                             
E02  27181815.071 6 142143545.880 6      1962.124 6        40.041               
E07  28351839.240 6 148988258.262 6     -2329.240 6        36.845               
E29  28990147.561 6 152437714.073 6      -257.786 6        37.697               
E30  26190836.385 6 137740528.153 6      -282.270 6        40.782               
E34  28209844.389 6 149111681.572 6     -2404.262 6        39.689               
E36  27881277.050 6 146517027.174 6      -100.881 6        36.623               
> 2025 01 08 14 23 36.0000000  0  6                                             
E02  27182187.676 6 142141583.593 6      1962.995 6        40.085               
E07  28352282.105 6 148990586.620 6     -2327.077 6        36.801               
E29  28990098.833 6 152437971.471 6      -256.962 6        37.665               
E30  26190786.048 6 137740809.839 6      -281.842 6        40.794               
E34  28209391.213 6 149114085.785 6     -2404.695 6        39.640               
E36  27881294.472 5 146517127.775 5      -101.812 5        35.289               
> 2025 01 08 14 23 37.0000000  0  6                                             
E02  27182562.478 6 142139621.090 6      1962.581 6        39.817               
E07  28352728.920 6 148992915.375 6     -2329.419 6        36.596               
E29  28990046.637 6 152438228.405 6      -259.479 6        37.699               
E30  26190734.032 6 137741091.277 6      -281.245 6        40.928               
E34  28208940.913 6 149116489.666 6     -2402.978 6        39.664               
E36  27881316.290 5 146517228.976 5      -100.684 5        33.227               
> 2025 01 08 14 23 38.0000000  0  6                                             
E02  27182941.141 6 142137658.502 6      1964.108 6        39.762               
E07  28353177.218 6 148995244.404 6     -2330.284 6        36.859               
E29  28990004.788 6 152438484.844 6      -256.042 6        37.727               
E30  26190680.996 6 137741372.565 6      -281.433 6        40.957               
E34  28208481.518 6 149118893.362 6     -2403.316 6        39.810               
E36  27881340.807 5 146517330.620 5      -100.466 5        33.937               
> 2025 01 08 14 23 39.0000000  0  6                                             
E02  27183314.693 6 142135695.385 6      1963.188 6        40.115               
E07  28353619.638 6 148997574.171 6     -2330.325 6        37.082               
E29  28989956.684 6 152438740.406 6      -254.572 6        37.561               
E30  26190628.837 6 137741653.257 6      -280.670 6        41.240               
E34  28208026.466 6 149121296.382 6     -2403.967 6        39.831               
E36  27881358.283 5 146517433.184 5      -103.227 5        33.792               
> 2025 01 08 14 23 40.0000000  0  6                                             
E02  27183689.370 6 142133732.227 6      1961.679 6        40.281               
E07  28354065.184 6 148999904.172 6     -2327.630 6        37.038               
E29  28989907.902 6 152438995.621 6      -254.589 6        37.583               
E30  26190577.928 6 137741933.832 6      -278.475 6        41.188               
E34  28207568.036 6 149123699.226 6     -2402.330 6        39.953               
E36  27881382.513 5 146517536.178 5      -105.317 5        35.777               
> 2025 01 08 14 23 41.0000000  0  6                                             
E02  27184066.728 6 142131768.640 6      1962.444 6        40.179               
E07  28354514.590 6 149002234.756 6     -2332.307 6        36.666               
E29  28989862.872 6 152439250.087 6      -254.394 6        37.731               
E30  26190527.859 6 137742213.932 6      -280.877 6        41.260               
E34  28207112.090 6 149126101.520 6     -2401.521 6        39.614               
E36  27881401.454 6 146517639.951 6      -103.393 6        37.870               
> 2025 01 08 14 23 42.0000000  0  6                                             
E02  27184439.637 6 142129804.886 6      1963.688 6        40.208               
E07  28354953.507 6 149004565.724 6     -2331.345 6        36.816               
E29  28989819.075 6 152439504.042 6      -253.280 6        37.681               
E30  26190477.307 6 137742493.797 6      -280.312 6        41.259               
E34  28206659.003 6 149128503.542 6     -2403.306 6        39.390               
E36  27881424.559 6 146517744.234 6      -102.377 6        37.097               
> 2025 01 08 14 23 43.0000000  0  6                                             
E02  27184813.957 6 142127841.679 6      1964.645 6        40.527               
E07  28355397.748 6 149006896.324 6     -2334.247 6        36.867               
E29  28989770.453 6 152439758.208 6      -251.189 6        37.769               
E30  26190422.914 6 137742774.170 6      -280.053 6        41.383               
E34  28206205.523 6 149130905.958 6     -2400.719 6        39.541               
E36  27881450.808 6 146517848.387 6      -103.881 6        36.887               
> 2025 01 08 14 23 44.0000000  0  6                                             
E02  27185191.315 6 142125877.552 6      1964.554 6        40.258               
E07  28355838.559 6 149009228.040 6     -2331.103 6        36.918               
E29  28989730.355 6 152440011.077 6      -252.224 6        37.880               
E30  26190373.578 6 137743053.528 6      -278.827 6        41.129               
E34  28205749.756 6 149133307.339 6     -2401.467 6        39.496               
E36  27881467.730 6 146517953.811 6      -103.700 6        36.567               
> 2025 01 08 14 23 45.0000000  0  6                                             
E02  27185563.366 6 142123913.425 6      1963.137 6        40.130               
E07  28356295.613 6 149011559.920 6     -2332.039 6        37.006               
E29  28989679.393 6 152440263.694 6      -252.087 6        38.131               
E30  26190321.668 6 137743332.854 6      -280.084 6        41.166               
E34  28205292.881 6 149135708.590 6     -2400.218 6        39.595               
E36  27881490.996 6 146518059.607 6      -103.767 6        36.304               
> 2025 01 08 14 23 46.0000000  0  6                                             
E02  27185940.742 6 142121949.075 6      1966.571 6        40.156               
E07  28356736.978 6 149013892.238 6     -2332.131 6        37.017               
E29  28989633.738 6 152440515.670 6      -254.059 6        38.100               
E30  26190269.777 6 137743611.878 6      -280.163 6        41.265               
E34  28204840.330 6 149138109.475 6     -2400.476 6        39.604               
E36  27881515.530 6 146518166.009 6      -107.725 6        36.333               
> 2025 01 08 14 23 47.0000000  0  6                                             
E02  27186322.353 6 142119984.902 6      1964.765 6        39.853               
E07  28357191.798 6 149016224.543 6     -2332.082 6        37.154               
E29  28989586.367 6 152440767.537 6      -248.199 6        37.698               
E30  26190218.778 6 137743891.031 6      -279.018 6        41.137               
E34  28204381.346 6 149140510.450 6     -2401.491 6        39.503               
E36  27881535.347 6 146518272.581 6      -106.630 6        36.455               
> 2025 01 08 14 23 48.0000000  0  6                                             
E02  27186696.137 6 142118020.514 6      1962.561 6        39.748               
E07  28357629.143 6 149018557.242 6     -2333.380 6        37.502               
E29  28989541.712 6 152441018.863 6      -252.338 6        37.953               
E30  26190165.975 6 137744169.900 6      -277.946 6        41.094               
E34  28203927.008 6 149142911.065 6     -2401.815 6        39.408               
E36  27881557.236 6 146518379.749 6      -106.962 6        36.396               
> 2025 01 08 14 23 49.0000000  0  6                                             
E02  27187067.438 6 142116055.869 6      1964.317 6        40.034               
E07  28358071.151 6 149020890.403 6     -2335.320 6        37.172               
E29  28989497.647 6 152441269.536 6      -250.276 6        38.014               
E30  26190116.979 6 137744448.449 6      -276.193 6        41.058               
E34  28203471.009 6 149145311.277 6     -2397.914 6        39.253               
E36  27881578.000 6 146518487.565 6      -109.615 6        36.581               
> 2025 01 08 14 23 50.0000000  0  6                                             
E02  27187445.510 6 142114090.626 6      1966.590 6        40.089               
E07  28358524.399 6 149023224.368 6     -2334.502 6        37.229               
E29  28989446.863 6 152441519.333 6      -250.646 6        38.029               
E30  26190064.855 6 137744726.339 6      -277.237 6        41.342               
E34  28203018.118 6 149147710.776 6     -2398.977 6        39.275               
E36  27881602.641 6 146518596.341 6      -109.527 6        36.826               
> 2025 01 08 14 23 51.0000000  0  6                                             
E02  27187817.222 6 142112125.034 6      1964.183 6        39.730               
E07  28358967.800 6 149025558.854 6     -2333.350 6        37.322               
E29  28989404.174 6 152441768.400 6      -249.198 6        37.488               
E30  26190013.606 6 137745003.815 6      -276.519 6        41.455               
E34  28202566.336 6 149150109.776 6     -2398.386 6        39.126               
E36  27881626.211 6 146518705.848 6      -111.099 6        37.197               
> 2025 01 08 14 23 52.0000000  0  6                                             
E02  27188195.295 6 142110159.639 6      1966.439 6        39.566               
E07  28359412.132 6 149027893.320 6     -2334.523 6        37.438               
E29  28989357.572 6 152442017.355 6      -250.748 6        37.741               
E30  26189960.857 6 137745281.427 6      -278.099 6        41.538               
E34  28202107.709 6 149152508.872 6     -2398.769 6        39.479               
E36  27881648.243 6 146518815.517 6      -111.599 6        37.204               
> 2025 01 08 14 23 53.0000000  0  6                                             
E02  27188573.278 6 142108194.638 6      1965.716 6        39.641               
E07  28359853.389 6 149030227.609 6     -2332.539 6        37.350               
E29  28989310.880 6 152442266.372 6      -248.471 6        37.697               
E30  26189913.129 6 137745559.393 6      -277.476 6        41.157               
E34  28201651.156 6 149154908.247 6     -2399.338 6        39.270               
E36  27881670.151 6 146518925.136 6      -112.020 6        37.510               
> 2025 01 08 14 23 54.0000000  0  6                                             
E02  27188947.098 6 142106229.019 6      1967.481 6        39.914               
E07  28360299.454 6 149032562.694 6     -2337.136 6        37.316               
E29  28989265.725 6 152442514.411 6      -245.814 6        37.672               
E30  26189860.772 6 137745836.653 6      -275.459 6        41.336               
E34  28201196.622 6 149157306.852 6     -2397.858 6        39.506               
E36  27881691.915 6 146519035.790 6      -111.866 6        37.432               
> 2025 01 08 14 23 55.0000000  0  6                                             
E02  27189324.974 6 142104262.717 6      1966.519 6        39.945               
E07  28360747.359 6 149034898.626 6     -2334.420 6        37.578               
E29  28989223.161 6 152442761.432 6      -246.589 6        37.633               
E30  26189810.185 6 137746113.169 6      -275.089 6        41.407               
E34  28200747.341 6 149159704.624 6     -2396.687 6        39.236               
E36  27881715.806 6 146519147.483 6      -110.314 6        37.265               
> 2025 01 08 14 23 56.0000000  0  6                                             
E02  27189701.350 6 142102296.548 6      1966.410 6        39.995               
E07  28361199.373 6 149037234.638 6     -2334.782 6        37.586               
E29  28989178.274 6 152443008.268 6      -244.501 6        37.226               
E30  26189759.705 6 137746389.773 6      -275.831 6        41.306               
E34  28200288.339 6 149162102.457 6     -2397.768 6        39.111               
E36  27881737.946 6 146519259.418 6      -112.674 6        37.375               
> 2025 01 08 14 23 57.0000000  0  6                                             
E02  27190077.850 6 142100330.395 6      1965.975 6        39.964               
E07  28361646.671 6 149039570.824 6     -2335.773 6        37.459               
E29  28989131.171 6 152443254.783 6      -246.191 6        37.442               
E30  26189708.421 6 137746666.307 6      -276.226 6        41.093               
E34  28199835.735 6 149164500.139 6     -2396.806 6        39.068               
E36  27881761.158 6 146519371.732 6      -113.289 6        37.367               
> 2025 01 08 14 23 58.0000000  0  6                                             
E02  27190450.669 6 142098364.238 6      1967.497 6        40.043               
E07  28362091.752 6 149041907.182 6     -2336.736 6        37.226               
E29  28989087.071 6 152443500.931 6      -244.636 6        37.151               
E30  26189657.316 6 137746942.792 6      -275.102 6        41.440               
E34  28199382.594 6 149166897.722 6     -2397.483 6        38.935               
E36  27881784.977 6 146519484.361 6      -111.398 6        37.301               
> 2025 01 08 14 23 59.0000000  0  6                                             
E02  27190825.561 6 142096397.582 6      1966.482 6        40.174               
E07  28362538.925 6 149044244.244 6     -2337.715 6        37.303               
E29  28989040.522 6 152443746.268 6      -243.944 6        37.504               
E30  26189609.355 6 137747218.699 6      -274.641 6        41.837               
E34  28198930.490 6 149169294.621 6     -2395.451 6        38.721               
E36  27881810.780 6 146519597.931 6      -114.596 6        37.654               
> 2025 01 08 14 24 00.0000000  0  6                                             
E02  27191201.579 6 142094430.895 6      1965.838 6        40.395               
E07  28362986.079 6 149046581.518 6     -2339.579 6        37.325               
E29  28988995.117 6 152443991.256 6      -245.065 6        37.394               
E30  26189555.337 6 137747494.534 6      -276.121 6        41.642               
E34  28198472.650 6 149171691.385 6     -2395.811 6        38.704               
E36  27881837.172 6 146519711.870 6      -114.022 6        37.758               
> 2025 01 08 14 24 01.0000000  0  6                                             
E02  27191576.453 6 142092463.859 6      1967.081 6        40.371               
E07  28363428.391 6 149048919.332 6     -2338.477 6        37.484               
E29  28988944.708 6 152444235.540 6      -245.546 6        37.248               
E30  26189506.323 6 137747769.945 6      -275.091 6        41.488               
E34  28198017.794 6 149174087.680 6     -2394.082 6        38.931               
E36  27881855.399 6 146519826.542 6      -115.837 6        37.857               
> 2025 01 08 14 24 02.0000000  0  6                                             
E02  27191955.259 6 142090496.595 6      1967.304 6        40.216               
E07  28363878.494 6 149051257.527 6     -2338.802 6        37.797               
E29  28988908.702 6 152444479.269 6      -242.533 6        37.167               
E30  26189454.413 6 137748045.087 6      -275.042 6        41.454               
E34  28197559.346 6 149176483.629 6     -2395.546 6        38.765               
E36  27881881.452 6 146519941.784 6      -116.510 6        37.871               
> 2025 01 08 14 24 03.0000000  0  6                                             
E02  27192334.904 6 142088528.889 6      1967.815 6        40.070               
E07  28364321.556 6 149053596.406 6     -2340.995 6        37.716               
E29  28988862.689 6 152444722.186 6      -241.658 6        37.168               
E30  26189405.255 6 137748319.704 6      -274.652 6        41.279               
E34  28197112.388 6 149178878.973 6     -2395.370 6        38.459               
E36  27881905.754 6 146520057.888 6      -115.986 6        38.084               
> 2025 01 08 14 24 04.0000000  0  6                                             
E02  27192709.349 6 142086561.266 6      1966.181 6        39.997               
E07  28364770.390 6 149055935.372 6     -2339.997 6        37.609               
E29  28988820.090 6 152444964.860 6      -242.501 6        37.296               
E30  26189354.186 6 137748594.349 6      -275.922 6        41.414               
E34  28196656.192 6 149181274.297 6     -2395.001 6        38.421               
E36  27881928.519 6 146520174.271 6      -115.241 6        38.249               
> 2025 01 08 14 24 05.0000000  0  6                                             
E02  27193082.079 6 142084593.775 6      1966.791 6        40.051               
E07  28365215.240 6 149058274.357 6     -2338.168 6        37.597               
E29  28988773.898 6 152445207.359 6      -241.823 6        37.014               
E30  26189304.796 6 137748869.068 6      -275.116 6        41.613               
E34  28196200.872 6 149183669.656 6     -2395.395 6        38.699               
E36  27881955.537 6 146520290.872 6      -116.432 6        38.375               
> 2025 01 08 14 24 06.0000000  0  6                                             
E02  27193457.829 6 142082626.038 6      1967.871 6        39.998               
E07  28365662.162 6 149060613.808 6     -2340.045 6        37.569               
E29  28988730.048 6 152445449.262 6      -241.523 6        37.249               
E30  26189254.387 6 137749143.476 6      -275.665 6        41.473               
E34  28195745.033 6 149186064.589 6     -2394.787 6        38.801               
E36  27881975.997 6 146520408.098 6      -117.970 6        38.536               
> 2025 01 08 14 24 07.0000000  0  6                                             
E02  27193838.404 6 142080658.219 6      1968.034 6        39.955               
E07  28366113.676 6 149062953.517 6     -2340.245 6        37.437               
E29  28988690.557 6 152445690.757 6      -241.368 6        37.425               
E30  26189203.496 6 137749417.751 6      -275.202 6        41.425               
E34  28195292.536 6 149188459.344 6     -2394.506 6        38.945               
E36  27881999.655 6 146520525.763 6      -118.466 6        38.859               
> 2025 01 08 14 24 08.0000000  0  6                                             
E02  27194213.439 6 142078690.249 6      1970.542 6        40.164               
E07  28366553.951 6 149065293.572 6     -2339.294 6        37.533               
E29  28988645.491 6 152445931.718 6      -242.694 6        37.133               
E30  26189153.892 6 137749691.780 6      -273.392 6        41.520               
E34  28194838.716 6 149190853.809 6     -2394.372 6        38.714               
E36  27882023.636 6 146520643.968 6      -119.569 6        38.941               
> 2025 01 08 14 24 09.0000000  0  6                                             
E02  27194590.922 6 142076721.502 6      1967.319 6        40.194               
E07  28367002.482 6 149067634.574 6     -2340.175 6        37.593               
E29  28988597.638 6 152446171.625 6      -244.212 6        37.019               
E30  26189101.071 6 137749965.010 6      -273.656 6        41.515               
E34  28194386.290 6 149193247.346 6     -2393.488 6        38.862               
E36  27882051.636 6 146520763.346 6      -119.542 6        38.847               
> 2025 01 08 14 24 10.0000000  0  6                                             
E02  27194963.527 6 142074753.204 6      1967.927 6        40.107               
E07  28367448.760 6 149069975.348 6     -2342.410 6        37.446               
E29  28988548.945 6 152446411.619 6      -241.142 6        37.237               
E30  26189052.128 6 137750238.607 6      -273.928 6        41.784               
E34  28193931.631 6 149195641.222 6     -2392.996 6        38.889               
E36  27882071.203 6 146520882.607 6      -119.491 6        39.095               
> 2025 01 08 14 24 11.0000000  0  6                                             
E02  27195340.563 6 142072784.758 6      1969.623 6        40.092               
E07  28367900.311 6 149072316.447 6     -2342.184 6        37.652               
E29  28988512.188 6 152446651.100 6      -239.583 6        37.121               
E30  26189001.505 6 137750511.990 6      -273.854 6        41.801               
E34  28193481.206 6 149198034.784 6     -2393.588 6        38.889               
E36  27882099.222 6 146521002.411 6      -118.922 6        39.091               
> 2025 01 08 14 24 12.0000000  0  6                                             
E02  27195719.797 6 142070816.278 6      1967.257 6        40.447               
E07  28368346.214 6 149074657.758 6     -2342.275 6        37.397               
E29  28988466.354 6 152446890.272 6      -239.703 6        37.003               
E30  26188953.634 6 137750785.296 6      -275.771 6        41.795               
E34  28193028.798 6 149200428.253 6     -2396.277 6        38.592               
E36  27882127.651 6 146521122.611 6      -121.318 6        38.956               
> 2025 01 08 14 24 13.0000000  0  6                                             
E02  27196097.977 6 142068847.672 6      1968.864 6        40.493               
E07  28368793.529 6 149076999.368 6     -2341.125 6        37.285               
E29  28988422.432 6 152447128.928 6      -239.185 6        36.744               
E30  26188900.866 6 137751058.396 6      -274.720 6        41.498               
E34  28192573.120 6 149202821.401 6     -2393.721 6        38.852               
E36  27882152.310 6 146521243.334 6      -121.476 6        39.061               
> 2025 01 08 14 24 14.0000000  0  6                                             
E02  27196473.262 6 142066878.859 6      1969.969 6        40.222               
E07  28369241.077 6 149079341.383 6     -2340.805 6        37.191               
E29  28988379.243 6 152447367.083 6      -238.800 6        36.749               
E30  26188850.958 6 137751331.230 6      -271.927 6        41.506               
E34  28192118.800 6 149205214.255 6     -2393.076 6        38.764               
E36  27882170.555 6 146521364.578 6      -121.437 6        39.112               
> 2025 01 08 14 24 15.0000000  0  6                                             
E02  27196847.011 6 142064909.546 6      1969.139 6        40.400               
E07  28369688.625 6 149081684.102 6     -2344.211 6        36.910               
E29  28988340.467 6 152447604.330 6      -235.535 6        37.074               
E30  26188801.372 6 137751603.489 6      -270.952 6        41.531               
E34  28191667.661 6 149207606.444 6     -2390.900 6        38.498               
E36  27882199.699 6 146521486.757 6      -123.128 6        39.343               
> 2025 01 08 14 24 16.0000000  0  6                                             
E02  27197225.548 6 142062939.476 6      1969.796 6        40.250               
E07  28370134.349 6 149084027.746 6     -2344.630 6        36.856               
E29  28988291.935 6 152447840.575 6      -236.917 6        37.067               
E30  26188751.589 6 137751874.957 6      -271.194 6        41.756               
E34  28191214.646 6 149209997.779 6     -2390.025 6        38.694               
E36  27882225.020 6 146521610.045 6      -124.512 6        39.209               
> 2025 01 08 14 24 17.0000000  0  6                                             
E02  27197606.105 6 142060969.613 6      1970.713 6        40.346               
E07  28370582.808 6 149086371.377 6     -2344.647 6        37.152               
E29  28988249.675 6 152448076.618 6      -235.710 6        37.019               
E30  26188703.700 6 137752146.543 6      -272.416 6        41.961               
E34  28190760.237 6 149212389.176 6     -2389.401 6        38.721               
E36  27882251.627 6 146521733.492 6      -124.073 6        39.245               
> 2025 01 08 14 24 18.0000000  0  6                                             
E02  27197975.744 6 142058999.534 6      1970.227 6        40.224               
E07  28371032.732 6 149088715.413 6     -2343.311 6        37.401               
E29  28988208.183 6 152448312.127 6      -233.802 6        36.994               
E30  26188652.505 7 137752417.866 7      -271.092 7        42.047               
E34  28190307.239 6 149214780.228 6     -2391.130 6        38.565               
E36  27882273.409 6 146521857.519 6      -124.929 6        39.311               
> 2025 01 08 14 24 19.0000000  0  6                                             
E02  27198356.997 6 142057029.237 6      1969.998 6        40.156               
E07  28371475.420 6 149091059.859 6     -2344.820 6        37.607               
E29  28988160.347 6 152448547.105 6      -234.555 6        36.648               
E30  26188600.988 6 137752688.902 6      -271.641 6        41.788               
E34  28189852.133 6 149217170.934 6     -2390.678 6        38.760               
E36  27882302.518 6 146521982.164 6      -124.447 6        39.357               
> 2025 01 08 14 24 20.0000000  0  6                                             
E02  27198731.049 6 142055058.746 6      1969.268 6        39.839               
E07  28371925.612 6 149093404.672 6     -2343.700 6        37.694               
E29  28988119.570 6 152448781.549 6      -234.187 6        36.343               
E30  26188549.186 6 137752959.718 6      -271.719 6        41.777               
E34  28189395.275 6 149219561.324 6     -2390.013 6        38.916               
E36  27882326.909 6 146522107.355 6      -125.335 6        39.573               
> 2025 01 08 14 24 21.0000000  0  6                                             
E02  27199108.675 6 142053088.074 6      1971.048 6        40.186               
E07  28372375.179 6 149095749.848 6     -2344.265 6        37.534               
E29  28988076.309 6 152449015.466 6      -233.021 6        36.454               
E30  26188502.691 6 137753230.233 6      -271.136 6        41.873               
E34  28188944.619 6 149221951.388 6     -2390.094 6        38.533               
E36  27882350.121 6 146522233.106 6      -125.887 6        39.354               
> 2025 01 08 14 24 22.0000000  0  6                                             
E02  27199488.964 6 142051117.170 6      1972.797 6        40.122               
E07  28372821.993 6 149098095.423 6     -2344.404 6        37.524               
E29  28988031.494 6 152449248.815 6      -231.599 6        36.718               
E30  26188451.943 6 137753500.500 6      -269.899 6        41.916               
E34  28188494.462 6 149224341.113 6     -2389.357 6        38.810               
E36  27882375.870 6 146522359.445 6      -127.952 6        39.351               
> 2025 01 08 14 24 23.0000000  0  6                                             
E02  27199864.767 6 142049145.853 6      1971.340 6        40.148               
E07  28373272.740 6 149100441.667 6     -2346.965 6        37.538               
E29  28987993.111 6 152449481.397 6      -233.384 6        37.114               
E30  26188404.804 7 137753770.251 7      -269.536 7        42.303               
E34  28188042.037 6 149226730.244 6     -2387.006 6        39.050               
E36  27882404.550 6 146522486.602 6      -127.348 6        39.277               
> 2025 01 08 14 24 24.0000000  0  6                                             
E02  27200237.998 6 142047174.791 6      1972.368 6        40.080               
E07  28373721.145 6 149102787.776 6     -2345.012 6        37.585               
E29  28987947.277 6 152449713.938 6      -231.763 6        36.911               
E30  26188354.110 7 137754040.233 7      -269.735 7        42.272               
E34  28187587.198 6 149229119.571 6     -2389.486 6        38.799               
E36  27882431.639 6 146522613.834 6      -128.310 6        39.556               
> 2025 01 08 14 24 25.0000000  0  6                                             
E02  27200615.195 6 142045204.019 6      1971.022 6        40.081               
E07  28374168.817 6 149105133.791 6     -2345.224 6        37.702               
E29  28987906.089 6 152449946.405 6      -230.219 6        36.837               
E30  26188304.702 7 137754310.436 7      -270.433 7        42.234               
E34  28187132.628 6 149231509.012 6     -2389.221 6        38.779               
E36  27882454.261 6 146522741.173 6      -125.410 6        39.492               
> 2025 01 08 14 24 26.0000000  0  6                                             
E02  27200995.483 6 142043233.191 6      1970.821 6        40.348               
E07  28374621.476 6 149107480.068 6     -2347.394 6        37.710               
E29  28987865.151 6 152450178.478 6      -229.816 6        36.799               
E30  26188254.044 7 137754580.515 7      -268.254 7        42.108               
E34  28186683.633 6 149233898.256 6     -2388.080 6        38.370               
E36  27882485.014 6 146522868.972 6      -128.463 6        39.469               
> 2025 01 08 14 24 27.0000000  0  6                                             
E02  27201369.947 6 142041261.162 6      1973.124 6        40.424               
E07  28375070.935 6 149109827.734 6     -2347.889 6        37.769               
E29  28987822.837 6 152450409.017 6      -228.055 6        36.659               
E30  26188204.457 7 137754849.314 7      -267.255 7        42.129               
E34  28186229.546 6 149236286.197 6     -2387.082 6        38.481               
E36  27882509.637 6 146522998.309 6      -129.066 6        39.142               
> 2025 01 08 14 24 28.0000000  0  6                                             
E02  27201748.019 6 142039288.824 6      1973.163 6        40.296               
E07  28375516.356 6 149112175.871 6     -2347.764 6        37.734               
E29  28987784.008 6 152450638.886 6      -228.730 6        36.554               
E30  26188155.192 7 137755117.757 7      -266.928 7        42.029               
E34  28185776.477 6 149238673.673 6     -2386.897 6        38.283               
E36  27882533.635 6 146523128.335 6      -129.515 6        39.241               
> 2025 01 08 14 24 29.0000000  0  6                                             
E02  27202125.949 6 142037316.656 6      1972.198 6        40.126               
E07  28375965.280 6 149114524.043 6     -2349.118 6        37.836               
E29  28987741.712 6 152450868.648 6      -230.578 6        36.557               
E30  26188108.465 7 137755386.302 7      -268.602 7        42.118               
E34  28185325.641 6 149241061.210 6     -2388.813 6        38.354               
E36  27882564.102 6 146523258.558 6      -129.823 6        38.971               
> 2025 01 08 14 24 30.0000000  0  6                                             
E02  27202501.860 6 142035344.580 6      1970.978 6        40.201               
E07  28376415.418 6 149116872.319 6     -2349.398 6        37.986               
E29  28987699.880 6 152451098.127 6      -231.996 6        36.452               
E30  26188058.610 7 137755654.871 7      -268.551 7        42.245               
E34  28184875.932 6 149243448.687 6     -2386.519 6        38.287               
E36  27882586.117 6 146523389.082 6      -129.966 6        39.065               
> 2025 01 08 14 24 31.0000000  0  6                                             
E02  27202879.522 6 142033372.144 6      1971.594 6        40.091               
E07  28376858.088 6 149119221.129 6     -2349.184 6        38.009               
E29  28987649.383 6 152451326.911 6      -228.497 6        36.359               
E30  26188006.093 7 137755923.034 7      -267.939 7        42.248               
E34  28184422.255 6 149245835.704 6     -2386.957 6        38.250               
E36  27882614.207 6 146523520.304 6      -130.825 6        39.316               
> 2025 01 08 14 24 32.0000000  0  6                                             
E02  27203255.057 6 142031400.208 6      1972.457 6        40.221               
E07  28377308.887 6 149121569.598 6     -2348.449 6        38.330               
E29  28987616.253 5 152451555.858 5      -229.321 5        35.843               
E30  26187958.526 7 137756191.649 7      -269.440 7        42.387               
E34  28183967.899 6 149248223.085 6     -2386.406 6        38.400               
E36  27882634.059 6 146523651.426 6      -131.311 6        39.163               
> 2025 01 08 14 24 33.0000000  0  6                                             
E02  27203631.504 6 142029428.086 6      1972.810 6        40.274               
E07  28377760.598 6 149123918.466 6     -2349.373 6        38.242               
E29  28987567.525 6 152451784.280 6      -226.731 6        36.112               
E30  26187907.974 7 137756459.981 7      -269.026 7        42.659               
E34  28183511.328 6 149250610.131 6     -2387.201 6        38.582               
E36  27882670.709 6 146523783.088 6      -131.857 6        38.667               
> 2025 01 08 14 24 34.0000000  0  6                                             
E02  27204010.059 6 142027455.849 6      1970.458 6        40.217               
E07  28378206.913 6 149126267.636 6     -2348.881 6        38.159               
E29  28987529.231 5 152452012.241 5      -228.437 5        35.987               
E30  26187859.996 7 137756728.132 7      -269.033 7        42.547               
E34  28183063.119 6 149252996.916 6     -2384.572 6        38.819               
E36  27882690.025 6 146523915.239 6      -133.159 6        38.587               
> 2025 01 08 14 24 35.0000000  0  6                                             
E02  27204390.008 6 142025483.317 6      1973.379 6        40.381               
E07  28378654.282 6 149128617.298 6     -2350.062 6        37.995               
E29  28987489.151 5 152452239.578 5      -227.200 5        35.783               
E30  26187810.463 7 137756995.952 7      -268.542 7        42.574               
E34  28182614.017 6 149255383.298 6     -2387.284 6        39.020               
E36  27882721.618 6 146524048.082 6      -131.385 6        39.020               
> 2025 01 08 14 24 36.0000000  0  6                                             
E02  27204764.578 6 142023510.662 6      1973.121 6        40.328               
E07  28379104.778 6 149130967.214 6     -2349.811 6        38.082               
E29  28987450.429 5 152452466.498 5      -225.741 5        35.726               
E30  26187761.806 7 137757263.596 7      -267.697 7        42.696               
E34  28182159.072 6 149257769.439 6     -2387.210 6        38.831               
E36  27882748.296 6 146524181.403 6      -132.149 6        39.047               
> 2025 01 08 14 24 37.0000000  0  6                                             
E02  27205141.776 6 142021537.914 6      1971.558 6        40.282               
E07  28379555.935 6 149133317.489 6     -2351.925 6        38.198               
E29  28987405.149 5 152452692.904 5      -226.844 5        35.878               
E30  26187714.310 7 137757531.047 7      -268.713 7        43.041               
E34  28181706.485 6 149260155.312 6     -2384.670 6        38.999               
E36  27882774.546 6 146524315.222 6      -135.722 6        38.508               
> 2025 01 08 14 24 38.0000000  0  6                                             
E02  27205521.600 6 142019564.890 6      1973.149 6        40.417               
E07  28380001.499 6 149135668.164 6     -2351.905 6        38.371               
E29  28987363.300 5 152452918.767 5      -220.606 5        35.939               
E30  26187664.687 7 137757798.192 7      -266.439 7        42.632               
E34  28181254.703 6 149262540.828 6     -2384.334 6        39.058               
E36  27882802.332 6 146524449.620 6      -133.226 6        38.497               
> 2025 01 08 14 24 39.0000000  0  6                                             
E02  27205898.207 6 142017591.683 6      1974.768 6        40.545               
E07  28380451.602 6 149138019.224 6     -2351.356 6        38.129               
E29  28987321.432 5 152453144.083 5      -224.419 5        35.621               
E30  26187615.226 7 137758065.069 7      -265.543 7        42.705               
E34  28180807.030 6 149264925.981 6     -2384.978 6        38.868               
E36  27882827.170 6 146524584.638 6      -136.028 6        38.412               
> 2025 01 08 14 24 40.0000000  0  6                                             
E02  27206274.064 6 142015618.142 6      1973.961 6        40.257               
E07  28380901.222 6 149140370.803 6     -2352.314 6        38.065               
E29  28987281.352 5 152453368.748 5      -222.462 5        35.553               
E30  26187566.390 7 137758331.577 7      -265.959 7        42.789               
E34  28180351.620 6 149267310.712 6     -2383.695 6        38.554               
E36  27882858.280 6 146524720.310 6      -134.299 6        38.479               
     3.02           OBSERVATION DATA    E                   RINEX VERSION / TYPE
G = GPS  R = GLONASS  E = GALILEO  S = GEO  M = MIXED       COMMENT             
GNSS-SDR            jmfriedt            20250108 151435 UTC PGM / RUN BY / DATE 
GALILEO OBSERVATION DATA FILE GENERATED BY GNSS-SDR         COMMENT             
GNSS-SDR VERSION 0.0.19.git-main-87fcfd237                  COMMENT             
See https://gnss-sdr.org                                    COMMENT             
DEFAULT MARKER NAME                                         MARKER NAME         
jmfriedt            CTTC                                    OBSERVER / AGENCY   
GNSS-SDR            Software Receiver   0.0.19.gi           REC # / TYPE / VERS 
Antenna number      Antenna type                            ANT # / TYPE        
        0.0000        0.0000        0.0000                  APPROX POSITION XYZ 
        0.0000        0.0000        0.0000                  ANTENNA: DELTA H/E/N
E    4 C1B L1B D1B S1B                                      SYS / # / OBS TYPES 
DBHZ                                                        SIGNAL STRENGTH UNIT
  2025    01    08    14    20   36.1600000     GAL         TIME OF FIRST OBS   
                                                            END OF HEADER       
> 2025 01 08 14 20 37.0000000  0  4                                             
E02  27115563.756 6 142489969.545 6      1929.122 6        40.092               
E07  28273780.253 6 148575918.113 6      2260.652 6        39.276               
E30  26200779.299 6 137686559.636 6      -325.063 6        40.384               
E34  28291870.280 6 148678926.350 6     -2458.488 6        39.115               
> 2025 01 08 14 20 38.0000000  0  4                                             
E02  27115931.643 6 142488039.847 6      1930.358 6        40.390               
E07  28274211.612 6 148573657.123 6      2261.873 6        39.060               
E30  26200717.955 6 137686884.688 6      -325.236 6        40.465               
E34  28291402.880 6 148681384.480 6     -2457.581 6        39.012               
> 2025 01 08 14 20 39.0000000  0  4                                             
E02  27116298.262 6 142486109.996 6      1929.453 6        40.450               
E07  28274645.436 6 148571395.771 6      2260.758 6        39.151               
E30  26200656.361 6 137687209.524 6      -323.502 6        40.397               
E34  28290938.929 6 148683842.346 6     -2456.175 6        38.923               
> 2025 01 08 14 20 40.0000000  0  4                                             
E02  27116668.115 6 142484179.724 6      1929.485 6        40.433               
E07  28275079.796 6 148569133.800 6      2262.538 6        39.179               
E30  26200599.215 6 137687533.877 6      -324.315 6        40.510               
E34  28290478.015 6 148686299.677 6     -2458.235 6        39.403               
> 2025 01 08 14 20 41.0000000  0  4                                             
E02  27117037.379 6 142482249.220 6      1930.490 6        40.497               
E07  28275512.780 6 148566871.408 6      2262.038 6        39.314               
E30  26200538.389 6 137687857.935 6      -324.108 6        40.256               
E34  28290009.293 6 148688756.670 6     -2456.260 6        39.495               
> 2025 01 08 14 20 42.0000000  0  4                                             
E02  27117406.017 6 142480318.110 6      1930.589 6        40.685               
E07  28275940.422 6 148564608.207 6      2264.419 6        39.229               
E30  26200477.456 6 137688181.337 6      -322.521 6        40.156               
E34  28289545.056 6 148691212.935 6     -2456.318 6        39.068               
> 2025 01 08 14 20 43.0000000  0  4                                             
E02  27117775.030 6 142478386.937 6      1930.699 6        40.866               
E07  28276374.067 6 148562344.757 6      2262.592 6        39.198               
E30  26200421.454 6 137688504.595 6      -321.153 6        40.276               
E34  28289076.369 6 148693669.011 6     -2454.452 6        38.872               
> 2025 01 08 14 20 44.0000000  0  4                                             
E02  27118144.007 6 142476455.646 6      1930.409 6        40.803               
E07  28276805.765 6 148560080.986 6      2264.245 6        39.400               
E30  26200360.253 6 137688827.720 6      -324.886 6        40.136               
E34  28288614.902 6 148696124.893 6     -2456.465 6        39.277               
> 2025 01 08 14 20 45.0000000  0  4                                             
E02  27118517.702 6 142474524.182 6      1931.363 6        40.734               
E07  28277240.822 6 148557816.828 6      2263.548 6        39.049               
E30  26200299.802 6 137689150.577 6      -321.782 6        39.954               
E34  28288143.713 6 148698580.465 6     -2456.191 6        39.285               
> 2025 01 08 14 20 46.0000000  0  4                                             
E02  27118885.554 6 142472592.648 6      1930.763 6        40.786               
E07  28277673.735 6 148555552.387 6      2264.189 6        39.035               
E30  26200241.013 6 137689473.315 6      -322.582 6        40.035               
E34  28287679.030 6 148701035.866 6     -2455.839 6        39.473               
> 2025 01 08 14 20 47.0000000  0  4                                             
E02  27119254.138 6 142470660.704 6      1932.160 6        40.802               
E07  28278106.469 6 148553287.364 6      2263.288 6        38.868               
E30  26200179.758 6 137689795.574 6      -322.411 6        39.990               
E34  28287212.773 6 148703490.731 6     -2455.850 6        39.414               
> 2025 01 08 14 20 48.0000000  0  4                                             
E02  27119624.456 6 142468728.756 6      1932.324 6        41.170               
E07  28278537.398 6 148551022.147 6      2264.613 6        39.179               
E30  26200119.379 6 137690117.794 6      -323.631 6        40.094               
E34  28286751.413 6 148705945.473 6     -2454.511 6        39.234               
> 2025 01 08 14 20 49.0000000  0  4                                             
E02  27119995.560 6 142466796.386 6      1932.075 6        41.031               
E07  28278966.523 6 148548756.276 6      2267.398 6        39.141               
E30  26200060.554 6 137690439.509 6      -320.131 6        40.052               
E34  28286286.139 6 148708399.690 6     -2453.653 6        39.316               
> 2025 01 08 14 20 50.0000000  0  4                                             
E02  27120363.679 6 142464863.168 6      1933.899 6        40.930               
E07  28279403.778 6 148546489.372 6      2267.003 6        39.119               
E30  26199998.584 6 137690760.326 6      -320.371 6        40.194               
E34  28285820.133 6 148710852.949 6     -2454.779 6        39.293               
> 2025 01 08 14 20 51.0000000  0  4                                             
E02  27120734.158 6 142462930.258 6      1933.682 6        40.747               
E07  28279833.224 6 148544222.596 6      2266.946 6        39.061               
E30  26199943.833 6 137691081.391 6      -319.826 6        40.015               
E34  28285353.841 6 148713306.390 6     -2452.186 6        39.342               
> 2025 01 08 14 20 52.0000000  0  4                                             
E02  27121102.474 6 142460997.307 6      1932.776 6        40.606               
E07  28280270.175 6 148541955.554 6      2267.436 6        39.306               
E30  26199881.327 6 137691402.343 6      -320.033 6        39.968               
E34  28284893.749 6 148715759.676 6     -2452.039 6        39.465               
> 2025 01 08 14 20 53.0000000  0  4                                             
E02  27121474.168 6 142459063.926 6      1932.660 6        40.221               
E07  28280704.410 6 148539687.886 6      2267.749 6        39.082               
E30  26199823.199 6 137691722.820 6      -320.983 6        40.053               
E34  28284424.669 6 148718212.407 6     -2452.674 6        39.280               
> 2025 01 08 14 20 54.0000000  0  4                                             
E02  27121839.464 6 142457130.030 6      1933.025 6        40.274               
E07  28281136.698 6 148537419.518 6      2268.741 6        38.931               
E30  26199766.197 6 137692042.699 6      -318.387 6        40.042               
E34  28283958.913 6 148720664.548 6     -2450.097 6        39.204               
> 2025 01 08 14 20 55.0000000  0  4                                             
E02  27122210.407 6 142455196.111 6      1935.211 6        40.465               
E07  28281571.255 6 148535150.927 6      2269.377 6        38.665               
E30  26199708.177 6 137692362.535 6      -321.502 6        40.095               
E34  28283493.372 6 148723116.539 6     -2452.041 6        38.988               
> 2025 01 08 14 20 56.0000000  0  4                                             
E02  27122582.387 6 142453262.279 6      1933.557 6        40.642               
E07  28282004.364 6 148532882.232 6      2267.997 6        38.615               
E30  26199645.975 6 137692682.378 6      -319.465 6        39.979               
E34  28283027.937 6 148725568.480 6     -2452.267 6        39.214               
> 2025 01 08 14 20 57.0000000  0  4                                             
E02  27122953.222 6 142451328.321 6      1932.520 6        40.758               
E07  28282435.901 6 148530613.198 6      2269.487 6        38.631               
E30  26199588.722 6 137693002.053 6      -318.620 6        39.974               
E34  28282560.895 6 148728020.228 6     -2452.452 6        39.330               
> 2025 01 08 14 20 58.0000000  0  4                                             
E02  27123324.148 6 142449394.170 6      1935.258 6        40.682               
E07  28282870.940 6 148528343.792 6      2268.191 6        38.529               
E30  26199528.378 6 137693321.464 6      -320.346 6        39.930               
E34  28282100.606 6 148730471.629 6     -2452.357 6        39.389               
> 2025 01 08 14 20 59.0000000  0  4                                             
E02  27123688.908 6 142447460.046 6      1933.444 6        40.921               
E07  28283305.890 6 148526074.170 6      2270.867 6        38.574               
E30  26199470.930 6 137693640.830 6      -318.208 6        39.825               
E34  28281635.226 6 148732922.964 6     -2450.988 6        39.306               
> 2025 01 08 14 21 00.0000000  0  4                                             
E02  27124059.905 6 142445525.627 6      1933.773 6        40.790               
E07  28283738.785 6 148523804.096 6      2269.638 6        38.830               
E30  26199411.622 6 137693959.844 6      -317.769 6        39.774               
E34  28281169.702 6 148735373.848 6     -2450.247 6        39.462               
> 2025 01 08 14 21 01.0000000  0  4                                             
E02  27124431.705 6 142443590.939 6      1934.697 6        40.574               
E07  28284175.397 6 148521533.544 6      2271.248 6        38.796               
E30  26199351.993 6 137694278.541 6      -317.467 6        39.842               
E34  28280708.967 6 148737824.391 6     -2448.802 6        39.396               
> 2025 01 08 14 21 02.0000000  0  4                                             
E02  27124796.412 6 142441656.206 6      1935.828 6        40.634               
E07  28284606.844 6 148519262.744 6      2269.216 6        38.982               
E30  26199293.472 6 137694597.131 6      -317.853 6        39.758               
E34  28280242.335 6 148740274.772 6     -2450.432 6        39.428               
> 2025 01 08 14 21 03.0000000  0  4                                             
E02  27125170.697 6 142439721.425 6      1934.421 6        40.918               
E07  28285042.813 6 148516991.712 6      2271.375 6        38.977               
E30  26199234.058 6 137694915.607 6      -317.626 6        39.806               
E34  28279777.348 6 148742724.977 6     -2450.077 6        39.379               
> 2025 01 08 14 21 04.0000000  0  4                                             
E02  27125542.337 6 142437786.145 6      1935.210 6        40.908               
E07  28285472.670 6 148514719.986 6      2272.402 6        38.730               
E30  26199176.001 6 137695233.522 6      -318.746 6        39.799               
E34  28279314.683 6 148745174.560 6     -2449.164 6        39.449               
> 2025 01 08 14 21 05.0000000  0  4                                             
E02  27125912.726 6 142435850.753 6      1935.103 6        40.954               
E07  28285909.228 6 148512447.933 6      2271.189 6        38.991               
E30  26199117.802 6 137695551.286 6      -317.323 6        40.060               
E34  28278849.784 6 148747623.929 6     -2448.855 6        39.275               
> 2025 01 08 14 21 06.0000000  0  4                                             
E02  27126279.362 6 142433915.291 6      1934.930 6        40.612               
E07  28286344.339 6 148510175.600 6      2272.653 6        39.417               
E30  26199057.691 6 137695868.891 6      -317.319 6        40.241               
E34  28278385.654 6 148750073.100 6     -2449.109 6        39.290               
> 2025 01 08 14 21 07.0000000  0  4                                             
E02  27126652.879 6 142431979.652 6      1935.485 6        40.835               
E07  28286780.486 6 148507902.908 6      2273.520 6        39.290               
E30  26198998.151 6 137696186.287 6      -317.520 6        40.082               
E34  28277920.095 6 148752522.014 6     -2449.336 6        39.404               
> 2025 01 08 14 21 08.0000000  0  4                                             
E02  27127021.927 6 142430044.124 6      1935.729 6        41.158               
E07  28287209.789 6 148505630.153 6      2275.155 6        39.305               
E30  26198942.257 6 137696503.713 6      -316.213 6        40.102               
E34  28277454.178 6 148754970.895 6     -2450.012 6        39.021               
> 2025 01 08 14 21 09.0000000  0  4                                             
E02  27127397.248 6 142428108.399 6      1936.910 6        40.949               
E07  28287642.166 6 148503356.992 6      2271.260 6        39.176               
E30  26198883.914 6 137696820.890 6      -316.214 6        39.821               
E34  28276992.139 6 148757419.460 6     -2448.994 6        39.571               
> 2025 01 08 14 21 10.0000000  0  4                                             
E02  27127761.491 6 142426172.147 6      1936.932 6        41.055               
E07  28288082.816 6 148501083.109 6      2273.023 6        39.060               
E30  26198826.340 6 137697137.491 6      -315.588 6        40.164               
E34  28276529.617 6 148759867.405 6     -2447.919 6        39.406               
> 2025 01 08 14 21 11.0000000  0  4                                             
E02  27128134.328 6 142424235.753 6      1935.802 6        40.617               
E07  28288516.980 6 148498808.858 6      2273.444 6        39.117               
E30  26198767.748 6 137697453.862 6      -317.322 6        40.022               
E34  28276066.041 6 148762315.063 6     -2447.891 6        39.084               
> 2025 01 08 14 21 12.0000000  0  4                                             
E02  27128504.217 6 142422299.065 6      1936.338 6        40.736               
E07  28288950.553 6 148496534.134 6      2274.810 6        39.413               
E30  26198707.690 6 137697769.918 6      -316.743 6        40.057               
E34  28275601.375 6 148764762.320 6     -2447.082 6        39.272               
> 2025 01 08 14 21 13.0000000  0  4                                             
E02  27128871.639 6 142420362.207 6      1935.955 6        40.656               
E07  28289384.270 6 148494259.035 6      2275.018 6        39.171               
E30  26198648.347 6 137698085.692 6      -315.567 6        39.904               
E34  28275134.529 6 148767209.298 6     -2448.614 6        39.416               
> 2025 01 08 14 21 14.0000000  0  4                                             
E02  27129240.438 6 142418425.333 6      1936.476 6        40.607               
E07  28289817.469 6 148491983.743 6      2275.052 6        39.429               
E30  26198592.899 6 137698401.437 6      -314.770 6        39.898               
E34  28274669.041 6 148769656.164 6     -2445.029 6        39.385               
> 2025 01 08 14 21 15.0000000  0  4                                             
E02  27129612.310 6 142416487.727 6      1937.236 6        40.555               
E07  28290252.187 6 148489707.503 6      2276.684 6        39.113               
E30  26198533.628 6 137698716.352 6      -313.873 6        39.816               
E34  28274208.788 6 148772102.144 6     -2444.625 6        39.589               
> 2025 01 08 14 21 16.0000000  0  4                                             
E02  27129984.201 6 142414549.706 6      1937.979 6        40.528               
E07  28290688.405 6 148487430.637 6      2277.751 6        38.958               
E30  26198476.358 6 137699030.824 6      -316.272 6        39.875               
E34  28273741.889 6 148774547.625 6     -2446.734 6        39.214               
> 2025 01 08 14 21 17.0000000  0  4                                             
E02  27130352.999 6 142412611.989 6      1937.441 6        40.566               
E07  28291127.429 6 148485153.902 6      2278.475 6        39.091               
E30  26198417.980 6 137699345.530 6      -315.426 6        39.872               
E34  28273279.992 6 148776993.280 6     -2444.502 6        39.458               
> 2025 01 08 14 21 18.0000000  0  4                                             
E02  27130723.603 6 142410674.301 6      1938.628 6        40.661               
E07  28291564.148 6 148482877.022 6      2278.692 6        39.121               
E30  26198358.190 6 137699660.220 6      -312.601 6        39.659               
E34  28272820.937 6 148779438.848 6     -2445.388 6        39.177               
> 2025 01 08 14 21 19.0000000  0  4                                             
E02  27131095.100 6 142408736.185 6      1937.572 6        40.693               
E07  28291991.075 6 148480599.500 6      2275.823 6        39.244               
E30  26198299.025 6 137699974.410 6      -311.756 6        39.767               
E34  28272353.108 6 148781883.882 6     -2442.823 6        39.389               
> 2025 01 08 14 21 20.0000000  0  4                                             
E02  27131464.810 6 142406797.727 6      1937.890 6        40.744               
E07  28292427.061 6 148478321.417 6      2278.721 6        39.222               
E30  26198243.006 6 137700288.174 6      -314.746 6        39.968               
E34  28271890.265 6 148784328.452 6     -2444.305 6        39.218               
> 2025 01 08 14 21 21.0000000  0  4                                             
E02  27131836.664 6 142404859.269 6      1940.407 6        40.416               
E07  28292866.032 6 148476043.154 6      2278.798 6        39.150               
E30  26198185.325 6 137700601.919 6      -314.274 6        39.959               
E34  28271425.473 6 148786772.912 6     -2444.631 6        38.914               
> 2025 01 08 14 21 22.0000000  0  4                                             
E02  27132205.749 6 142402920.475 6      1938.398 6        40.238               
E07  28293302.590 6 148473764.352 6      2279.454 6        39.078               
E30  26198128.519 6 137700915.235 6      -312.370 6        40.155               
E34  28270966.776 6 148789216.898 6     -2442.980 6        39.037               
> 2025 01 08 14 21 23.0000000  0  4                                             
E02  27132579.337 6 142400981.068 6      1940.427 6        40.058               
E07  28293736.807 6 148471484.750 6      2279.281 6        38.798               
E30  26198069.605 6 137701227.908 6      -311.816 6        40.098               
E34  28270501.073 6 148791660.187 6     -2442.860 6        39.107               
> 2025 01 08 14 21 24.0000000  0  4                                             
E02  27132951.602 6 142399041.758 6      1939.569 6        40.557               
E07  28294173.901 6 148469205.020 6      2281.080 6        38.749               
E30  26198013.711 6 137701540.581 6      -311.730 6        39.745               
E34  28270040.767 6 148794103.416 6     -2443.495 6        39.170               
> 2025 01 08 14 21 25.0000000  0  4                                             
E02  27133317.577 6 142397102.389 6      1939.562 6        40.791               
E07  28294604.545 6 148466925.060 6      2280.673 6        38.511               
E30  26197955.118 6 137701853.168 6      -312.337 6        39.027               
E34  28269573.081 6 148796546.521 6     -2442.789 6        39.219               
> 2025 01 08 14 21 26.0000000  0  4                                             
E02  27133691.612 6 142395162.803 6      1938.310 6        40.867               
E07  28295041.603 6 148464644.662 6      2279.447 6        38.607               
E30  26197896.579 6 137702165.470 6      -312.740 6        39.481               
E34  28269114.937 6 148798989.245 6     -2442.294 6        39.086               
> 2025 01 08 14 21 27.0000000  0  4                                             
E02  27134064.824 6 142393222.975 6      1940.323 6        40.941               
E07  28295476.964 6 148462363.878 6      2280.922 6        38.410               
E30  26197838.451 6 137702477.484 6      -311.855 6        39.850               
E34  28268651.165 6 148801431.661 6     -2442.092 6        39.494               
> 2025 01 08 14 21 28.0000000  0  5                                             
E02  27134432.479 6 142391282.951 6      1941.100 6        40.703               
E07  28295914.326 6 148460082.661 6      2280.094 6        38.703               
E27  29095728.149 6 152899098.476 6      1997.244 6        36.091               
E30  26197783.004 6 137702789.223 6      -311.995 6        39.846               
E34  28268185.695 6 148803873.721 6     -2440.252 6        39.429               
> 2025 01 08 14 21 29.0000000  0  5                                             
E02  27134805.299 6 142389342.405 6      1940.093 6        40.922               
E07  28296350.259 6 148457800.720 6      2281.543 6        38.901               
E27  29095353.418 5 152897099.504 5      1996.904 5        35.913               
E30  26197724.518 6 137703100.381 6      -311.668 6        40.031               
E34  28267726.228 6 148806315.148 6     -2441.785 6        39.505               
> 2025 01 08 14 21 30.0000000  0  5                                             
E02  27135174.723 6 142387401.636 6      1940.696 6        40.916               
E07  28296788.961 6 148455518.380 6      2281.583 6        38.492               
E27  29094974.791 6 152895100.614 6      2002.867 6        36.178               
E30  26197667.105 6 137703411.257 6      -311.380 6        40.062               
E34  28267258.346 6 148808756.247 6     -2438.618 6        39.445               
> 2025 01 08 14 21 31.0000000  0  5                                             
E02  27135550.205 6 142385460.952 6      1941.594 6        40.877               
E07  28297224.948 6 148453235.890 6      2283.415 6        38.516               
E27  29094596.825 6 152893101.650 6      1999.609 6        36.192               
E30  26197609.263 6 137703722.154 6      -310.304 6        40.045               
E34  28266802.078 6 148811197.299 6     -2442.014 6        39.204               
> 2025 01 08 14 21 32.0000000  0  5                                             
E02  27135920.218 6 142383520.224 6      1940.867 6        40.927               
E07  28297657.003 6 148450953.221 6      2282.317 6        38.322               
E27  29094218.842 5 152891102.580 5      2000.414 5        35.860               
E30  26197551.654 6 137704032.957 6      -310.779 6        40.121               
E34  28266337.376 6 148813638.215 6     -2440.921 6        39.263               
> 2025 01 08 14 21 33.0000000  0  5                                             
E02  27136289.464 6 142381579.312 6      1940.624 6        40.795               
E07  28298097.277 6 148448670.119 6      2283.607 6        38.572               
E27  29093840.429 5 152889103.631 5      1997.920 5        35.696               
E30  26197497.064 6 137704343.493 6      -309.052 6        40.168               
E34  28265874.086 6 148816078.795 6     -2440.959 6        39.144               
> 2025 01 08 14 21 34.0000000  0  5                                             
E02  27136663.355 6 142379638.406 6      1940.944 6        40.858               
E07  28298537.767 6 148446386.859 6      2283.960 6        38.699               
E27  29093463.214 5 152887104.589 5      2000.823 5        35.857               
E30  26197440.919 6 137704654.003 6      -309.896 6        40.147               
E34  28265411.404 6 148818519.310 6     -2440.306 6        39.142               
> 2025 01 08 14 21 35.0000000  0  5                                             
E02  27137033.923 6 142377697.491 6      1940.219 6        40.607               
E07  28298966.373 6 148444103.369 6      2284.798 6        38.858               
E27  29093076.582 5 152885105.474 5      1997.366 5        35.693               
E30  26197384.310 6 137704964.427 6      -309.973 6        40.204               
E34  28264950.687 6 148820959.659 6     -2439.934 6        39.392               
> 2025 01 08 14 21 36.0000000  0  5                                             
E02  27137405.456 6 142375756.151 6      1941.448 6        40.681               
E07  28299408.131 6 148441819.254 6      2285.798 6        38.558               
E27  29092698.116 5 152883106.732 5      1998.450 5        35.661               
E30  26197324.503 6 137705274.370 6      -309.320 6        40.093               
E34  28264489.916 6 148823399.467 6     -2440.235 6        39.370               
> 2025 01 08 14 21 37.0000000  0  5                                             
E02  27137776.238 6 142373814.232 6      1940.978 6        40.633               
E07  28299843.421 6 148439534.405 6      2284.061 6        38.578               
E27  29092319.186 5 152881108.432 5      1998.833 5        35.644               
E30  26197268.197 6 137705583.679 6      -310.160 6        40.023               
E34  28264023.910 6 148825838.622 6     -2440.819 6        39.566               
> 2025 01 08 14 21 38.0000000  0  5                                             
E02  27138149.040 6 142371872.402 6      1940.986 6        40.693               
E07  28300277.370 6 148437249.430 6      2287.782 6        38.677               
E27  29091943.865 5 152879109.981 5      1997.407 5        35.469               
E30  26197210.981 6 137705893.011 6      -307.749 6        39.813               
E34  28263559.798 6 148828277.693 6     -2438.340 6        39.625               
> 2025 01 08 14 21 39.0000000  0  5                                             
E02  27138511.495 6 142369930.453 6      1941.811 6        40.943               
E07  28300714.375 6 148434964.140 6      2284.196 6        38.476               
E27  29091565.721 5 152877111.598 5      1996.259 5        35.149               
E30  26197155.497 6 137706202.175 6      -307.675 6        40.008               
E34  28263100.296 6 148830716.562 6     -2439.547 6        39.648               
> 2025 01 08 14 21 40.0000000  0  5                                             
E02  27138888.174 6 142367989.014 6      1940.988 6        40.732               
E07  28301153.041 6 148432679.157 6      2285.100 6        38.480               
E27  29091184.914 5 152875112.600 5      2000.007 5        35.204               
E30  26197094.921 6 137706511.769 6      -308.830 6        39.914               
E34  28262641.151 6 148833155.803 6     -2439.214 6        39.711               
> 2025 01 08 14 21 41.0000000  0  5                                             
E02  27139259.278 6 142366046.321 6      1944.796 6        40.527               
E07  28301587.687 6 148430392.738 6      2288.520 6        38.393               
E27  29090804.947 5 152873114.777 5      1994.083 5        35.119               
E30  26197037.794 6 137706820.072 6      -306.997 6        39.735               
E34  28262172.715 6 148835593.705 6     -2436.086 6        39.677               
> 2025 01 08 14 21 42.0000000  0  5                                             
E02  27139632.722 6 142364102.353 6      1942.542 6        40.759               
E07  28302027.176 6 148428104.834 6      2286.542 6        38.248               
E27  29090424.587 5 152871118.138 5      1994.767 5        35.193               
E30  26196984.723 6 137707127.010 6      -305.935 6        39.900               
E34  28261714.249 6 148838030.179 6     -2437.139 6        39.807               
> 2025 01 08 14 21 43.0000000  0  5                                             
E02  27140000.914 6 142362159.156 6      1942.822 6        40.970               
E07  28302465.128 6 148425817.498 6      2286.620 6        38.431               
E27  29090047.247 5 152869120.673 5      1998.457 5        34.859               
E30  26196926.256 6 137707434.682 6      -307.608 6        40.049               
E34  28261253.568 6 148840467.300 6     -2438.003 6        39.440               
> 2025 01 08 14 21 44.0000000  0  5                                             
E02  27140373.769 6 142360217.572 6      1940.548 6        40.818               
E07  28302900.596 6 148423531.635 6      2284.627 6        38.758               
E27  29089672.373 5 152867121.466 5      2003.481 5        34.908               
E30  26196867.949 6 137707743.918 6      -311.867 6        40.115               
E34  28260786.293 6 148842905.959 6     -2438.746 6        39.549               
> 2025 01 08 14 21 45.0000000  0  5                                             
E02  27140746.088 6 142358274.849 6      1944.538 6        40.965               
E07  28303340.781 6 148421244.367 6      2289.684 6        38.651               
E27  29089291.441 5 152865123.377 5      1996.509 5        34.479               
E30  26196812.305 6 137708051.938 6      -307.035 6        39.992               
E34  28260325.397 6 148845343.324 6     -2435.799 6        39.646               
> 2025 01 08 14 21 46.0000000  0  5                                             
E02  27141117.084 6 142356332.430 6      1942.872 6        41.013               
E07  28303777.482 6 148418957.261 6      2286.042 6        38.777               
E27  29088913.779 5 152863124.890 5      2000.899 5        34.703               
E30  26196755.803 6 137708360.206 6      -310.191 6        39.885               
E34  28259863.662 6 148847780.888 6     -2439.055 6        39.678               
> 2025 01 08 14 21 47.0000000  0  5                                             
E02  27141487.652 6 142354389.402 6      1942.972 6        40.965               
E07  28304213.487 6 148416669.311 6      2287.870 6        38.678               
E27  29088534.884 5 152861126.929 5      1996.876 5        34.929               
E30  26196698.676 6 137708667.793 6      -309.910 6        39.786               
E34  28259403.445 6 148850217.725 6     -2436.551 6        39.824               
> 2025 01 08 14 21 48.0000000  0  5                                             
E02  27141857.791 6 142352445.015 6      1945.115 6        40.863               
E07  28304650.134 6 148414379.828 6      2291.300 6        38.654               
E27  29088157.026 5 152859130.243 5      1993.641 5        35.066               
E30  26196642.924 6 137708973.952 6      -305.099 6        39.713               
E34  28258941.048 6 148852653.085 6     -2433.738 6        39.936               
> 2025 01 08 14 21 49.0000000  0  5                                             
E02  27142230.021 6 142350500.994 6      1942.067 6        40.372               
E07  28305085.406 6 148412090.503 6      2289.613 6        39.020               
E27  29087781.097 5 152857133.096 5      1999.533 5        35.076               
E30  26196587.155 6 137709280.452 6      -308.387 6        39.738               
E34  28258480.671 6 148855088.697 6     -2435.982 6        39.909               
> 2025 01 08 14 21 50.0000000  0  5                                             
E02  27142602.643 6 142348559.937 6      1941.756 6        40.506               
E07  28305527.181 6 148409803.967 6      2289.323 6        38.944               
E27  29087394.644 5 152855132.889 5      1999.868 5        35.069               
E30  26196529.492 6 137709589.835 6      -308.535 6        39.853               
E34  28258015.969 6 148857527.156 6     -2438.804 6        39.763               
> 2025 01 08 14 21 51.0000000  0  5                                             
E02  27142970.942 6 142346617.410 6      1941.781 6        40.683               
E07  28305960.809 6 148407515.764 6      2289.786 6        39.086               
E27  29087026.971 5 152853134.115 5      1999.130 5        35.014               
E30  26196470.935 6 137709897.703 6      -309.313 6        39.774               
E34  28257554.394 6 148859964.031 6     -2437.374 6        39.883               
> 2025 01 08 14 21 52.0000000  0  5                                             
E02  27143343.082 6 142344674.178 6      1942.743 6        40.485               
E07  28306403.121 6 148405226.635 6      2288.656 6        39.343               
E27  29086638.123 5 152851135.922 5      1999.643 5        35.163               
E30  26196413.629 6 137710204.790 6      -308.879 6        39.849               
E34  28257099.717 6 148862400.051 6     -2435.782 6        39.985               
> 2025 01 08 14 21 53.0000000  0  5                                             
E02  27143715.097 6 142342730.723 6      1943.845 6        40.247               
E07  28306837.338 6 148402937.111 6      2288.722 6        39.137               
E27  29086260.336 5 152849137.882 5      2002.781 5        35.092               
E30  26196357.074 6 137710511.593 6      -305.801 6        40.089               
E34  28256635.694 6 148864835.751 6     -2435.641 6        39.641               
> 2025 01 08 14 21 54.0000000  0  5                                             
E02  27144089.185 6 142340787.067 6      1944.268 6        39.968               
E07  28307275.451 6 148400647.189 6      2291.071 6        38.969               
E27  29085886.320 5 152847139.982 5      1996.962 5        34.902               
E30  26196301.358 6 137710818.161 6      -306.226 6        39.832               
E34  28256172.082 6 148867271.154 6     -2435.922 6        39.548               
> 2025 01 08 14 21 55.0000000  0  5                                             
E02  27144460.182 6 142338843.117 6      1943.641 6        40.345               
E07  28307713.260 6 148398356.761 6      2290.398 6        39.094               
E27  29085504.530 5 152845142.297 5      1998.140 5        35.027               
E30  26196245.017 6 137711124.338 6      -305.267 6        39.705               
E34  28255710.829 6 148869706.113 6     -2436.581 6        39.791               
> 2025 01 08 14 21 56.0000000  0  5                                             
E02  27144830.839 6 142336899.260 6      1943.279 6        40.294               
E07  28308151.212 6 148396066.260 6      2293.005 6        39.231               
E27  29085123.795 5 152843144.451 5      1994.696 5        34.922               
E30  26196187.086 6 137711430.557 6      -305.138 6        39.719               
E34  28255245.913 6 148872141.043 6     -2434.191 6        39.895               
> 2025 01 08 14 21 57.0000000  0  5                                             
E02  27145206.303 6 142334954.350 6      1945.160 6        40.612               
E07  28308589.485 6 148393774.494 6      2291.691 6        38.884               
E27  29084750.458 5 152841147.526 5      1996.574 5        34.876               
E30  26196134.050 6 137711735.689 6      -304.897 6        39.657               
E34  28254785.142 6 148874574.842 6     -2434.591 6        39.989               
> 2025 01 08 14 21 58.0000000  0  5                                             
E02  27145576.424 6 142333009.582 6      1944.448 6        40.630               
E07  28309021.255 6 148391482.676 6      2292.334 6        38.640               
E27  29084370.080 5 152839150.424 5      1997.568 5        34.939               
E30  26196075.565 6 137712040.871 6      -306.890 6        39.849               
E34  28254325.158 6 148877008.626 6     -2436.683 6        39.798               
> 2025 01 08 14 21 59.0000000  0  5                                             
E02  27145949.690 6 142331064.952 6      1944.100 6        40.467               
E07  28309462.244 6 148389190.803 6      2292.223 6        38.531               
E27  29083996.635 5 152837153.094 5      1996.321 5        35.158               
E30  26196020.725 6 137712346.155 6      -305.649 6        39.727               
E34  28253862.279 6 148879442.431 6     -2432.942 6        39.772               
> 2025 01 08 14 22 00.0000000  0  5                                             
E02  27146320.043 6 142329119.949 6      1945.508 6        40.254               
E07  28309901.626 6 148386898.363 6      2292.032 6        38.833               
E27  29083615.864 5 152835156.024 5      1998.797 5        35.439               
E30  26195963.705 6 137712650.995 6      -304.331 6        39.815               
E34  28253400.525 6 148881875.766 6     -2433.888 6        39.562               
> 2025 01 08 14 22 01.0000000  0  5                                             
E02  27146694.435 6 142327174.970 6      1944.763 6        39.980               
E07  28310334.109 6 148384605.759 6      2290.919 6        38.648               
E27  29083238.524 5 152833158.915 5      1997.697 5        35.380               
E30  26195907.668 6 137712955.799 6      -306.435 6        39.761               
E34  28252938.915 6 148884308.984 6     -2433.299 6        39.630               
> 2025 01 08 14 22 02.0000000  0  5                                             
E02  27147065.325 6 142325230.116 6      1944.437 6        40.076               
E07  28310774.956 6 148382313.045 6      2293.773 6        38.477               
E27  29082854.340 5 152831161.528 5      1995.497 5        34.983               
E30  26195853.650 6 137713260.662 6      -303.066 6        39.961               
E34  28252481.915 6 148886742.208 6     -2434.061 6        39.607               
> 2025 01 08 14 22 03.0000000  0  5                                             
E02  27147437.787 6 142323285.009 6      1944.660 6        40.003               
E07  28311213.873 6 148380019.935 6      2292.198 6        38.616               
E27  29082478.608 5 152829164.354 5      1995.219 5        34.548               
E30  26195792.788 6 137713565.221 6      -302.640 6        40.081               
E34  28252018.464 6 148889175.071 6     -2431.545 6        39.317               
> 2025 01 08 14 22 04.0000000  0  5                                             
E02  27147807.872 6 142321339.510 6      1945.090 6        40.131               
E07  28311647.894 6 148377726.198 6      2296.674 6        38.791               
E27  29082099.302 5 152827167.494 5      1996.511 5        34.928               
E30  26195739.145 6 137713869.310 6      -303.417 6        39.889               
E34  28251558.229 6 148891607.415 6     -2431.475 6        39.382               
> 2025 01 08 14 22 05.0000000  0  5                                             
E02  27148182.442 6 142319393.794 6      1946.056 6        40.131               
E07  28312092.010 6 148375432.089 6      2294.996 6        38.548               
E27  29081724.053 5 152825170.748 5      1994.445 5        35.203               
E30  26195681.357 6 137714173.149 6      -302.135 6        39.872               
E34  28251094.528 6 148894039.438 6     -2431.716 6        39.618               
> 2025 01 08 14 22 06.0000000  0  5                                             
E02  27148553.493 6 142317448.484 6      1945.711 6        40.198               
E07  28312530.498 6 148373138.180 6      2293.317 6        38.602               
E27  29081344.783 5 152823173.513 5      1996.333 5        34.877               
E30  26195625.087 6 137714477.322 6      -305.796 6        39.545               
E34  28250636.902 6 148896471.708 6     -2431.555 6        39.747               
> 2025 01 08 14 22 07.0000000  0  5                                             
E02  27148920.987 6 142315503.049 6      1946.036 6        40.142               
E07  28312966.234 6 148370843.941 6      2294.220 6        38.376               
E27  29080969.033 5 152821176.355 5      1998.918 5        34.829               
E30  26195569.854 6 137714781.315 6      -303.024 6        39.477               
E34  28250174.452 6 148898903.780 6     -2431.769 6        39.569               
> 2025 01 08 14 22 08.0000000  0  5                                             
E02  27149295.307 6 142313557.639 6      1944.547 6        40.468               
E07  28313402.489 6 148368549.533 6      2295.008 6        38.151               
E27  29080588.548 5 152819179.046 5      1997.730 5        35.151               
E30  26195515.264 6 137715085.259 6      -303.273 6        39.646               
E34  28249714.468 6 148901335.739 6     -2433.259 6        39.592               
> 2025 01 08 14 22 09.0000000  0  5                                             
E02  27149666.965 6 142311612.292 6      1946.145 6        40.615               
E07  28313844.962 6 148366254.996 6      2293.880 6        38.235               
E27  29080214.335 5 152817181.624 5      1999.685 5        35.017               
E30  26195458.583 6 137715389.214 6      -305.442 6        39.690               
E34  28249252.232 6 148903767.640 6     -2432.366 6        39.703               
> 2025 01 08 14 22 10.0000000  0  5                                             
E02  27150039.302 6 142309667.099 6      1944.237 6        40.615               
E07  28314282.610 6 148363960.417 6      2294.815 6        38.091               
E27  29079832.849 5 152815183.984 5      1996.731 5        35.517               
E30  26195403.708 6 137715693.256 6      -304.523 6        39.674               
E34  28248792.015 6 148906199.576 6     -2432.886 6        39.685               
> 2025 01 08 14 22 11.0000000  0  5                                             
E02  27150409.494 6 142307721.409 6      1945.552 6        40.572               
E07  28314723.653 6 148361665.123 6      2296.832 6        38.144               
E27  29079459.654 5 152813186.741 5      1996.265 5        35.820               
E30  26195347.527 6 137715996.735 6      -302.195 6        39.946               
E34  28248330.780 6 148908630.890 6     -2431.878 6        39.780               
> 2025 01 08 14 22 12.0000000  0  5                                             
E02  27150785.137 6 142305774.785 6      1946.794 6        40.229               
E07  28315160.229 6 148359368.773 6      2296.043 6        38.260               
E27  29079077.275 5 152811190.338 5      1995.054 5        35.451               
E30  26195290.364 6 137716299.240 6      -300.981 6        40.003               
E34  28247868.562 6 148911061.153 6     -2429.663 6        39.683               
> 2025 01 08 14 22 13.0000000  0  5                                             
E02  27151151.273 6 142303827.286 6      1946.066 6        40.046               
E07  28315600.075 6 148357071.296 6      2296.431 6        38.605               
E27  29078697.898 5 152809194.766 5      1993.357 5        35.862               
E30  26195236.078 6 137716600.787 6      -301.366 6        40.068               
E34  28247407.595 6 148913490.408 6     -2429.453 6        39.597               
> 2025 01 08 14 22 14.0000000  0  5                                             
E02  27151527.774 6 142301879.507 6      1948.354 6        40.108               
E07  28316040.582 6 148354773.386 6      2296.803 6        38.856               
E27  29078318.145 5 152807199.309 5      1996.310 5        35.393               
E30  26195177.039 6 137716902.038 6      -301.330 6        39.979               
E34  28246949.111 6 148915919.316 6     -2428.365 6        39.779               
> 2025 01 08 14 22 15.0000000  0  5                                             
E02  27151900.736 6 142299931.714 6      1948.055 6        40.238               
E07  28316478.087 6 148352475.232 6      2298.461 6        38.644               
E27  29077947.810 5 152805203.871 5      1996.214 5        35.404               
E30  26195126.452 6 137717203.178 6      -301.223 6        39.830               
E34  28246487.822 6 148918348.047 6     -2428.929 6        39.708               
> 2025 01 08 14 22 16.0000000  0  5                                             
E02  27152273.841 6 142297984.297 6      1947.610 6        40.078               
E07  28316914.681 6 148350177.292 6      2298.097 6        38.185               
E27  29077564.144 5 152803207.962 5      1993.796 5        35.199               
E30  26195069.217 6 137717504.630 6      -301.206 6        39.604               
E34  28246029.053 6 148920777.031 6     -2428.212 6        39.211               
> 2025 01 08 14 22 17.0000000  0  5                                             
E02  27152650.592 6 142296036.873 6      1947.866 6        40.192               
E07  28317351.811 6 148347879.127 6      2299.204 6        38.012               
E27  29077188.251 5 152801211.939 5      1994.898 5        35.120               
E30  26195012.465 6 137717806.029 6      -302.252 6        39.582               
E34  28245566.764 6 148923205.900 6     -2428.149 6        39.740               
> 2025 01 08 14 22 18.0000000  0  5                                             
E02  27153017.550 6 142294089.087 6      1948.070 6        40.145               
E07  28317792.229 6 148345580.376 6      2298.221 6        37.747               
E27  29076809.982 5 152799216.267 5      1999.395 5        34.788               
E30  26194956.339 6 137718106.979 6      -300.161 6        39.662               
E34  28245110.585 6 148925634.271 6     -2428.545 6        39.691               
> 2025 01 08 14 22 19.0000000  0  5                                             
E02  27153392.889 6 142292140.917 6      1948.724 6        40.348               
E07  28318234.183 6 148343281.119 6      2299.965 6        37.765               
E27  29076433.267 5 152797220.841 5      1992.986 5        35.180               
E30  26194902.339 6 137718407.524 6      -298.686 6        39.769               
E34  28244643.650 6 148928062.156 6     -2426.087 6        39.545               
> 2025 01 08 14 22 20.0000000  0  5                                             
E02  27153763.260 6 142290192.527 6      1948.244 6        40.614               
E07  28318675.066 6 148340981.390 6      2300.058 6        37.934               
E27  29076057.678 5 152795225.586 5      1996.048 5        35.144               
E30  26194848.910 6 137718707.766 6      -300.537 6        39.788               
E34  28244187.239 6 148930489.675 6     -2427.714 6        39.649               
> 2025 01 08 14 22 21.0000000  0  5                                             
E02  27154137.491 6 142288243.815 6      1948.922 6        40.651               
E07  28319113.357 6 148338681.173 6      2300.484 6        38.060               
E27  29075678.337 5 152793230.566 5      1997.385 5        34.833               
E30  26194792.498 6 137719007.631 6      -300.230 6        39.867               
E34  28243724.324 6 148932916.780 6     -2426.535 6        39.550               
> 2025 01 08 14 22 22.0000000  0  5                                             
E02  27154509.774 6 142286294.844 6      1948.321 6        40.397               
E07  28319554.722 6 148336380.478 6      2301.232 6        38.082               
E27  29075291.294 5 152791235.680 5      1995.061 5        34.523               
E30  26194736.318 6 137719307.152 6      -300.574 6        39.935               
E34  28243261.320 6 148935343.467 6     -2426.440 6        39.593               
> 2025 01 08 14 22 23.0000000  0  5                                             
E02  27154884.827 6 142284345.340 6      1949.351 6        40.523               
E07  28319990.976 6 148334079.099 6      2300.125 6        38.284               
E27  29074912.917 5 152789241.286 5      1994.444 5        34.692               
E30  26194681.871 6 137719606.113 6      -298.738 6        40.041               
E34  28242806.000 6 148937769.556 6     -2425.723 6        39.343               
> 2025 01 08 14 22 24.0000000  0  5                                             
E02  27155258.057 6 142282395.607 6      1950.122 6        40.776               
E07  28320433.824 6 148331777.271 6      2302.457 6        38.253               
E27  29074545.173 5 152787247.089 5      1992.100 5        34.405               
E30  26194625.958 6 137719904.773 6      -298.930 6        40.123               
E34  28242346.641 6 148940195.258 6     -2424.222 6        39.332               
> 2025 01 08 14 22 25.0000000  0  5                                             
E02  27155627.303 6 142280445.785 6      1949.916 6        40.822               
E07  28320873.652 6 148329475.167 6      2303.259 6        38.219               
E27  29074158.791 5 152785252.835 5      1994.623 5        34.318               
E30  26194573.173 6 137720203.266 6      -298.738 6        40.227               
E34  28241885.656 6 148942620.747 6     -2425.324 6        39.002               
> 2025 01 08 14 22 26.0000000  0  5                                             
E02  27156003.910 6 142278495.817 6      1949.265 6        40.857               
E07  28321314.106 6 148327172.721 6      2302.120 6        38.039               
E27  29073774.660 5 152783258.635 5      1991.953 5        34.883               
E30  26194516.868 6 137720501.577 6      -298.129 6        40.153               
E34  28241427.798 6 148945045.987 6     -2426.446 6        38.876               
> 2025 01 08 14 22 27.0000000  0  5                                             
E02  27156376.247 6 142276545.734 6      1949.638 6        40.681               
E07  28321752.111 6 148324869.957 6      2301.646 6        37.811               
E27  29073402.842 5 152781264.494 5      1995.242 5        34.870               
E30  26194462.546 6 137720799.703 6      -298.373 6        39.872               
E34  28240967.152 6 148947470.979 6     -2424.970 6        39.282               
> 2025 01 08 14 22 28.0000000  0  5                                             
E02  27156750.407 6 142274595.738 6      1949.061 6        40.644               
E07  28322194.280 6 148322567.090 6      2302.599 6        38.074               
E27  29073032.167 5 152779270.195 5      1993.149 5        34.984               
E30  26194407.206 6 137721097.860 6      -298.532 6        39.764               
E34  28240507.043 6 148949895.941 6     -2424.640 6        39.433               
> 2025 01 08 14 22 29.0000000  0  5                                             
E02  27157122.690 6 142272645.787 6      1949.864 6        40.357               
E07  28322632.625 6 148320264.071 6      2304.019 6        38.096               
E27  29072653.022 5 152777275.807 5      1993.062 5        34.975               
E30  26194353.545 6 137721395.990 6      -297.979 6        39.848               
E34  28240048.041 6 148952320.813 6     -2425.129 6        39.298               
> 2025 01 08 14 22 30.0000000  0  5                                             
E02  27157492.311 6 142270695.306 6      1951.676 6        40.187               
E07  28323074.526 6 148317960.355 6      2303.078 6        37.905               
E27  29072275.199 5 152775281.811 5      1993.142 5        35.269               
E30  26194298.491 6 137721693.537 6      -299.151 6        40.209               
E34  28239588.557 6 148954745.038 6     -2423.374 6        39.186               
> 2025 01 08 14 22 31.0000000  0  5                                             
E02  27157870.348 6 142268744.548 6      1950.977 6        40.718               
E07  28323513.068 6 148315656.156 6      2304.877 6        38.052               
E27  29071892.194 5 152773288.024 5      1996.147 5        35.016               
E30  26194242.829 6 137721990.750 6      -296.651 6        40.200               
E34  28239128.394 6 148957168.876 6     -2424.034 6        39.156               
> 2025 01 08 14 22 32.0000000  0  5                                             
E02  27158239.736 6 142266793.667 6      1950.456 6        40.979               
E07  28323951.663 6 148313351.646 6      2304.776 6        37.899               
E27  29071519.465 5 152771294.287 5      1994.066 5        35.164               
E30  26194188.739 6 137722287.767 6      -296.918 6        40.113               
E34  28238672.859 6 148959592.457 6     -2422.790 6        39.333               
> 2025 01 08 14 22 33.0000000  0  5                                             
E02  27158613.753 6 142264842.561 6      1952.790 6        40.879               
E07  28324393.135 6 148311046.720 6      2303.331 6        38.222               
E27  29071141.481 5 152769300.686 5      1993.124 5        35.275               
E30  26194135.347 6 137722584.516 6      -296.647 6        40.230               
E34  28238213.035 6 148962015.700 6     -2424.196 6        39.264               
> 2025 01 08 14 22 34.0000000  0  5                                             
E02  27158988.180 6 142262891.395 6      1951.910 6        40.855               
E07  28324834.160 6 148308741.533 6      2305.403 6        38.199               
E27  29070766.196 5 152767307.055 5      1993.302 5        34.932               
E30  26194078.487 6 137722881.129 6      -295.817 6        39.707               
E34  28237757.375 6 148964438.774 6     -2423.816 6        39.221               
> 2025 01 08 14 22 35.0000000  0  5                                             
E02  27159360.839 6 142260940.069 6      1950.596 6        40.979               
E07  28325280.046 6 148306435.970 6      2305.774 6        38.276               
E27  29070382.566 5 152765313.539 5      1991.095 5        35.229               
E30  26194024.773 6 137723177.538 6      -296.594 6        39.858               
E34  28237295.050 6 148966861.536 6     -2422.715 6        39.169               
> 2025 01 08 14 22 36.0000000  0  5                                             
E02  27159729.834 6 142258988.253 6      1952.654 6        40.964               
E07  28325715.890 6 148304129.748 6      2306.671 6        38.266               
E27  29070011.105 5 152763320.414 5      1993.931 5        34.817               
E30  26193971.505 6 137723473.368 6      -294.370 6        39.877               
E34  28236832.939 6 148969283.701 6     -2422.643 6        39.393               
> 2025 01 08 14 22 37.0000000  0  5                                             
E02  27160106.817 6 142257036.209 6      1952.505 6        40.764               
E07  28326155.217 6 148301823.132 6      2305.303 6        38.084               
E27  29069637.517 5 152761327.427 5      1995.290 5        34.727               
E30  26193914.807 6 137723768.934 6      -295.175 6        39.946               
E34  28236377.672 6 148971705.522 6     -2422.795 6        39.422               
> 2025 01 08 14 22 38.0000000  0  5                                             
E02  27160478.582 6 142255084.695 6      1951.125 6        40.795               
E07  28326595.671 6 148299516.820 6      2307.907 6        38.070               
E27  29069256.764 5 152759333.852 5      1991.405 5        35.176               
E30  26193861.379 6 137724064.962 6      -295.161 6        39.732               
E34  28235915.579 6 148974127.747 6     -2422.345 6        39.267               
> 2025 01 08 14 22 39.0000000  0  5                                             
E02  27160853.134 6 142253132.690 6      1954.046 6        40.896               
E07  28327039.341 6 148297209.840 6      2305.218 6        38.238               
E27  29068881.264 5 152757340.642 5      1993.906 5        35.288               
E30  26193805.038 6 137724360.431 6      -295.883 6        39.807               
E34  28235458.686 6 148976549.340 6     -2420.692 6        39.638               
> 2025 01 08 14 22 40.0000000  0  5                                             
E02  27161225.507 6 142251180.241 6      1955.046 6        40.477               
E07  28327480.366 6 148294902.192 6      2308.604 6        38.499               
E27  29068499.689 5 152755347.855 5      1993.733 5        35.326               
E30  26193751.163 6 137724655.404 6      -293.853 6        40.012               
E34  28234997.558 6 148978970.393 6     -2421.572 6        39.161               
> 2025 01 08 14 22 41.0000000  0  5                                             
E02  27161600.578 6 142249227.352 6      1954.332 6        40.428               
E07  28327921.463 6 148292593.942 6      2308.895 6        38.687               
E27  29068122.385 5 152753355.375 5      1994.127 5        35.536               
E30  26193697.752 6 137724949.880 6      -293.235 6        40.003               
E34  28234539.575 6 148981390.878 6     -2421.113 6        39.236               
> 2025 01 08 14 22 42.0000000  0  5                                             
E02  27161973.236 6 142247274.987 6      1952.642 6        40.548               
E07  28328363.775 6 148290286.026 6      2307.480 6        38.273               
E27  29067748.708 5 152751362.347 5      1990.274 5        35.623               
E30  26193644.735 6 137725244.815 6      -297.093 6        39.918               
E34  28234081.413 6 148983811.764 6     -2420.141 6        39.020               
> 2025 01 08 14 22 43.0000000  0  5                                             
E02  27162344.447 6 142245322.750 6      1952.223 6        40.452               
E07  28328804.997 6 148287978.015 6      2308.323 6        38.242               
E27  29067367.079 5 152749369.081 5      1990.726 5        35.530               
E30  26193589.359 6 137725539.814 6      -293.746 6        39.865               
E34  28233621.876 6 148986232.646 6     -2418.384 6        38.902               
> 2025 01 08 14 22 44.0000000  0  5                                             
E02  27162719.500 6 142243369.549 6      1953.775 6        40.501               
E07  28329243.896 6 148285668.897 6      2309.056 6        37.998               
E27  29066993.384 5 152747376.705 5      1993.168 5        35.420               
E30  26193535.305 6 137725833.798 6      -293.567 6        39.989               
E34  28233163.178 6 148988652.456 6     -2420.827 6        39.087               
> 2025 01 08 14 22 45.0000000  0  5                                             
E02  27163091.515 6 142241416.647 6      1953.238 6        40.377               
E07  28329684.617 6 148283359.858 6      2309.284 6        38.108               
E27  29066614.525 5 152745383.927 5      1994.167 5        35.158               
E30  26193480.536 6 137726127.994 6      -293.265 6        40.127               
E34  28232704.837 6 148991072.420 6     -2418.818 6        39.253               
> 2025 01 08 14 22 46.0000000  0  5                                             
E02  27163466.068 6 142239463.378 6      1952.301 6        40.609               
E07  28330125.714 6 148281050.272 6      2309.323 6        38.329               
E27  29066238.096 5 152743391.503 5      1991.480 5        35.035               
E30  26193426.697 6 137726421.792 6      -294.079 6        40.028               
E34  28232241.476 6 148993491.921 6     -2419.204 6        39.111               
> 2025 01 08 14 22 47.0000000  0  5                                             
E02  27163836.171 6 142237509.669 6      1953.997 6        40.468               
E07  28330568.491 6 148278740.008 6      2310.225 6        38.447               
E27  29065855.878 5 152741399.334 5      1992.454 5        35.156               
E30  26193373.733 6 137726715.067 6      -291.690 6        40.162               
E34  28231791.069 6 148995910.826 6     -2419.495 6        39.394               
> 2025 01 08 14 22 48.0000000  0  5                                             
E02  27164212.421 6 142235555.695 6      1953.910 6        40.618               
E07  28331009.069 6 148276429.341 6      2311.021 6        38.560               
E27  29065487.258 5 152739407.448 5      1990.408 5        35.790               
E30  26193318.357 6 137727008.029 6      -294.915 6        40.205               
E34  28231329.209 6 148998329.371 6     -2418.969 6        39.344               
> 2025 01 08 14 22 49.0000000  0  5                                             
E02  27164587.671 6 142233601.832 6      1952.881 6        40.788               
E07  28331452.203 6 148274118.597 6      2312.469 6        38.521               
E27  29065104.021 5 152737415.301 5      1989.156 5        35.921               
E30  26193264.643 6 137727301.053 6      -295.436 6        40.438               
E34  28230873.066 6 149000747.922 6     -2418.652 6        39.349               
> 2025 01 08 14 22 50.0000000  0  5                                             
E02  27164963.456 6 142231647.148 6      1954.620 6        40.664               
E07  28331892.585 6 148271806.804 6      2313.107 6        38.617               
E27  29064728.039 6 152735423.924 6      1991.919 6        36.115               
E30  26193212.447 6 137727593.152 6      -293.302 6        40.436               
E34  28230412.063 6 149003165.488 6     -2417.872 6        39.508               
> 2025 01 08 14 22 51.0000000  0  5                                             
E02  27165336.150 6 142229692.513 6      1955.598 6        40.383               
E07  28332334.969 6 148269494.881 6      2313.528 6        38.594               
E27  29064352.735 5 152733432.448 5      1990.755 5        35.996               
E30  26193158.340 6 137727885.279 6      -292.295 6        40.431               
E34  28229954.026 6 149005582.994 6     -2419.217 6        39.783               
> 2025 01 08 14 22 52.0000000  0  5                                             
E02  27165709.220 6 142227737.877 6      1954.235 6        40.112               
E07  28332775.994 6 148267182.766 6      2311.094 6        38.622               
E27  29063979.327 6 152731440.841 6      1990.433 6        36.142               
E30  26193103.661 6 137728177.325 6      -292.329 6        40.526               
E34  28229495.400 6 149008000.384 6     -2417.784 6        39.776               
> 2025 01 08 14 22 53.0000000  0  5                                             
E02  27166080.985 6 142225783.244 6      1955.812 6        40.349               
E07  28333220.361 6 148264870.479 6      2310.811 6        38.756               
E27  29063603.344 6 152729449.191 6      1989.423 6        36.028               
E30  26193050.643 6 137728469.316 6      -291.142 6        40.599               
E34  28229041.170 6 149010417.631 6     -2415.794 6        39.663               
> 2025 01 08 14 22 54.0000000  0  5                                             
E02  27166454.894 6 142223828.492 6      1954.188 6        40.403               
E07  28333662.387 6 148262557.853 6      2313.426 6        38.932               
E27  29063222.216 6 152727457.570 6      1992.173 6        36.307               
E30  26192998.948 6 137728761.112 6      -292.958 6        40.571               
E34  28228575.681 6 149012834.659 6     -2417.408 6        39.777               
> 2025 01 08 14 22 55.0000000  0  5                                             
E02  27166830.555 6 142221873.656 6      1954.780 6        40.692               
E07  28334104.645 6 148260244.971 6      2313.881 6        38.753               
E27  29062844.054 6 152725465.907 6      1993.972 6        36.335               
E30  26192941.785 6 137729052.803 6      -292.656 6        40.429               
E34  28228120.647 6 149015251.480 6     -2415.625 6        39.632               
> 2025 01 08 14 22 56.0000000  0  5                                             
E02  27167201.105 6 142219918.618 6      1956.479 6        40.819               
E07  28334546.082 6 148257931.695 6      2313.341 6        38.450               
E27  29062468.858 6 152723474.423 6      1991.253 6        36.623               
E30  26192889.143 6 137729344.205 6      -291.009 6        40.017               
E34  28227665.469 6 149017667.966 6     -2415.943 6        39.309               
> 2025 01 08 14 22 57.0000000  0  5                                             
E02  27167577.283 6 142217963.463 6      1956.608 6        40.634               
E07  28334987.018 6 148255618.112 6      2312.163 6        38.453               
E27  29062091.875 6 152721482.953 6      1991.804 6        36.468               
E30  26192835.929 6 137729635.452 6      -292.678 6        40.252               
E34  28227203.555 6 149020084.221 6     -2415.977 6        39.467               
> 2025 01 08 14 22 58.0000000  0  5                                             
E02  27167952.283 6 142216008.462 6      1954.527 6        40.571               
E07  28335426.506 6 148253304.490 6      2313.424 6        38.848               
E27  29061712.230 6 152719491.269 6      1988.862 6        36.734               
E30  26192782.536 6 137729926.761 6      -290.278 6        40.133               
E34  28226744.250 6 149022500.487 6     -2414.365 6        39.287               
> 2025 01 08 14 22 59.0000000  0  5                                             
E02  27168325.102 6 142214053.417 6      1954.931 6        40.895               
E07  28335866.870 6 148250990.623 6      2314.188 6        38.680               
E27  29061331.012 6 152717499.539 6      1991.599 6        36.275               
E30  26192726.374 6 137730217.985 6      -289.600 6        40.197               
E34  28226290.555 6 149024916.605 6     -2416.487 6        39.485               
> 2025 01 08 14 23 00.0000000  0  5                                             
E02  27168699.976 6 142212097.379 6      1958.889 6        40.847               
E07  28336306.877 6 148248675.592 6      2316.515 6        38.527               
E27  29060960.427 6 152715508.683 6      1991.228 6        36.367               
E30  26192674.214 6 137730508.132 6      -286.484 6        40.236               
E34  28225831.911 6 149027331.580 6     -2411.942 6        39.330               
> 2025 01 08 14 23 01.0000000  0  5                                             
E02  27169073.189 6 142210141.442 6      1954.172 6        40.842               
E07  28336752.656 6 148246360.440 6      2313.398 6        38.344               
E27  29060577.887 6 152713517.740 6      1991.293 6        36.705               
E30  26192620.929 6 137730798.338 6      -291.979 6        40.304               
E34  28225369.478 6 149029746.577 6     -2418.185 6        39.542               
> 2025 01 08 14 23 02.0000000  0  5                                             
E02  27169449.117 6 142208185.517 6      1956.432 6        40.876               
E07  28337193.127 6 148244045.127 6      2315.817 6        38.363               
E27  29060205.192 6 152711526.636 6      1991.994 6        36.710               
E30  26192567.572 6 137731088.502 6      -290.217 6        40.448               
E34  28224917.964 6 149032161.417 6     -2412.269 6        39.306               
> 2025 01 08 14 23 03.0000000  0  5                                             
E02  27169821.615 6 142206228.956 6      1957.048 6        40.626               
E07  28337637.744 6 148241728.981 6      2317.607 6        38.132               
E27  29059822.206 6 152709536.090 6      1989.641 6        36.745               
E30  26192515.341 6 137731377.955 6      -287.965 6        40.396               
E34  28224459.284 6 149034575.518 6     -2415.875 6        39.595               
> 2025 01 08 14 23 04.0000000  0  5                                             
E02  27170195.238 6 142204272.515 6      1956.705 6        40.642               
E07  28338083.416 6 148239412.773 6      2315.932 6        37.899               
E27  29059453.300 6 152707545.384 6      1993.466 6        36.566               
E30  26192460.858 6 137731667.466 6      -289.732 6        40.297               
E34  28224002.498 6 149036989.606 6     -2415.037 6        39.531               
> 2025 01 08 14 23 05.0000000  0  5                                             
E02  27170568.325 6 142202316.226 6      1956.563 6        40.658               
E07  28338520.385 6 148237096.528 6      2316.747 6        37.624               
E27  29059073.136 6 152705554.413 6      1989.470 6        36.572               
E30  26192409.717 6 137731957.083 6      -289.745 6        40.387               
E34  28223544.783 6 149039403.719 6     -2413.598 6        39.751               
> 2025 01 08 14 23 06.0000000  0  6                                             
E02  27170939.429 6 142200359.594 6      1957.647 6        40.588               
E07  28338971.399 6 148234779.735 6      2317.482 6        37.698               
E27  29058692.615 6 152703563.704 6      1992.533 6        36.547               
E29  28991547.242 6 152351622.813 6       274.265 6        36.438               
E30  26192355.288 6 137732246.281 6      -288.114 6        40.248               
E34  28223084.513 6 149041817.397 6     -2413.176 6        39.828               
> 2025 01 08 14 23 07.0000000  0  6                                             
E02  27171319.521 6 142198401.936 6      1957.342 6        40.420               
E07  28339411.138 6 148232461.745 6      2317.740 6        37.664               
E27  29058312.059 5 152701573.955 5      1988.475 5        35.977               
E29  28991501.444 6 152351351.304 6       268.256 6        36.550               
E30  26192301.413 6 137732534.402 6      -286.872 6        40.288               
E34  28222628.478 6 149044229.888 6     -2414.434 6        39.813               
> 2025 01 08 14 23 08.0000000  0  6                                             
E02  27171693.752 6 142196444.718 6      1955.434 6        40.398               
E07  28339852.878 6 148230144.012 6      2316.470 6        37.886               
E27  29057935.558 5 152699583.665 5      1993.067 5        35.948               
E29  28991453.483 6 152351079.615 6       270.957 6        36.886               
E30  26192247.895 6 137732822.895 6      -288.177 6        40.349               
E34  28222174.050 6 149046642.689 6     -2412.050 6        39.867               
> 2025 01 08 14 23 09.0000000  0  6                                             
E02  27172064.945 6 142194488.021 6      1958.629 6        40.847               
E07  28340293.814 6 148227826.567 6      2316.864 6        38.315               
E27  29057554.394 5 152697592.751 5      1989.362 5        35.703               
E29  28991402.020 6 152350807.750 6       269.886 6        37.103               
E30  26192194.431 6 137733111.847 6      -288.858 6        40.196               
E34  28221715.174 6 149049055.926 6     -2411.476 6        39.642               
> 2025 01 08 14 23 10.0000000  0  6                                             
E02  27172440.517 6 142192530.227 6      1959.351 6        40.604               
E07  28340739.932 6 148225507.900 6      2319.212 6        38.258               
E27  29057186.811 5 152695602.892 5      1991.764 5        35.726               
E29  28991348.646 6 152350537.313 6       266.008 6        36.738               
E30  26192144.005 6 137733399.640 6      -285.858 6        40.323               
E34  28221259.889 6 149051467.922 6     -2411.097 6        39.745               
> 2025 01 08 14 23 11.0000000  0  6                                             
E02  27172816.266 6 142190572.282 6      1958.746 6        40.641               
E07  28341181.261 6 148223188.817 6      2320.256 6        38.264               
E27  29056804.771 5 152693613.104 5      1987.269 5        35.429               
E29  28991306.367 6 152350267.384 6       267.215 6        36.670               
E30  26192090.433 6 137733687.233 6      -286.643 6        40.344               
E34  28220798.153 6 149053879.645 6     -2411.201 6        39.735               
> 2025 01 08 14 23 12.0000000  0  6                                             
E02  27173192.284 6 142188613.820 6      1960.573 6        40.478               
E07  28341623.877 6 148220869.058 6      2318.945 6        38.089               
E27  29056432.095 5 152691623.749 5      1989.239 5        35.439               
E29  28991250.402 6 152349998.273 6       270.413 6        36.578               
E30  26192038.006 6 137733974.221 6      -286.195 6        40.199               
E34  28220342.690 6 149056290.722 6     -2411.458 6        39.811               
> 2025 01 08 14 23 13.0000000  0  6                                             
E02  27173562.673 6 142186655.347 6      1958.669 6        40.639               
E07  28342069.048 6 148218549.106 6      2320.092 6        38.111               
E27  29056060.383 5 152689634.330 5      1991.852 5        35.529               
E29  28991204.532 6 152349729.540 6       269.009 6        36.793               
E30  26191986.561 6 137734261.181 6      -286.541 6        40.422               
E34  28219883.688 6 149058701.679 6     -2410.990 6        39.703               
> 2025 01 08 14 23 14.0000000  0  6                                             
E02  27173940.156 6 142184696.377 6      1958.968 6        40.823               
E07  28342510.001 6 148216228.483 6      2320.871 6        38.232               
E27  29055678.057 5 152687645.333 5      1986.923 5        35.416               
E29  28991156.125 6 152349461.628 6       265.735 6        36.646               
E30  26191933.615 6 137734547.538 6      -285.358 6        40.193               
E34  28219427.260 6 149061111.981 6     -2409.464 6        39.757               
> 2025 01 08 14 23 15.0000000  0  6                                             
E02  27174314.191 6 142182737.254 6      1958.457 6        41.058               
E07  28342952.188 6 148213907.459 6      2321.852 6        37.826               
E27  29055296.232 5 152685656.380 5      1987.650 5        35.464               
E29  28991106.145 6 152349194.227 6       270.480 6        36.484               
E30  26191880.651 6 137734833.684 6      -285.073 6        40.252               
E34  28218968.991 6 149063522.012 6     -2410.155 6        39.652               
> 2025 01 08 14 23 16.0000000  0  6                                             
E02  27174692.925 6 142180777.662 6      1959.286 6        40.713               
E07  28343396.752 6 148211585.856 6      2324.163 6        37.733               
E27  29054920.411 5 152683667.851 5      1986.207 5        35.045               
E29  28991058.828 6 152348927.588 6       268.142 6        36.470               
E30  26191828.420 6 137735119.352 6      -285.030 6        40.494               
E34  28218520.943 6 149065931.455 6     -2409.335 6        39.702               
> 2025 01 08 14 23 17.0000000  0  6                                             
E02  27175063.100 6 142178818.424 6      1957.187 6        40.637               
E07  28343841.244 6 148209264.363 6      2319.051 6        37.601               
E27  29054545.823 5 152681678.892 5      1985.577 5        34.843               
E29  28991008.044 6 152348660.983 6       269.470 6        36.854               
E30  26191773.973 6 137735405.257 6      -287.300 6        40.483               
E34  28218059.136 6 149068341.139 6     -2411.725 6        39.971               
> 2025 01 08 14 23 18.0000000  0  6                                             
E02  27175437.241 6 142176859.090 6      1960.084 6        40.775               
E07  28344284.056 6 148206942.587 6      2322.334 6        37.762               
E27  29054166.016 5 152679689.915 5      1987.417 5        35.175               
E29  28990958.797 6 152348394.748 6       267.378 6        36.980               
E30  26191722.206 6 137735691.017 6      -283.449 6        40.542               
E34  28217604.280 6 149070750.594 6     -2407.574 6        39.918               
> 2025 01 08 14 23 19.0000000  0  6                                             
E02  27175811.990 6 142174899.619 6      1959.119 6        40.748               
E07  28344734.820 6 148204620.476 6      2321.656 6        37.772               
E27  29053789.230 5 152677701.007 5      1989.865 5        35.301               
E29  28990913.446 6 152348129.027 6       265.825 6        37.001               
E30  26191668.564 6 137735976.597 6      -284.958 6        40.718               
E34  28217144.885 6 149073159.793 6     -2409.132 6        39.935               
> 2025 01 08 14 23 20.0000000  0  6                                             
E02  27176183.041 6 142172940.531 6      1959.545 6        40.532               
E07  28345173.504 6 148202298.577 6      2323.813 6        37.936               
E27  29053412.301 5 152675711.648 5      1990.016 5        34.899               
E29  28990866.093 6 152347863.241 6       267.893 6        36.708               
E30  26191618.244 6 137736262.494 6      -287.562 6        40.813               
E34  28216689.386 6 149075569.244 6     -2408.514 6        39.773               
> 2025 01 08 14 23 21.0000000  0  6                                             
E02  27176564.455 6 142170979.803 6      1960.694 6        40.494               
E07  28345616.549 6 148199974.866 6      2322.943 6        38.130               
E27  29053041.483 5 152673723.832 5      1988.791 5        35.265               
E29  28990814.934 6 152347599.431 6       261.847 6        36.769               
E30  26191563.941 6 137736546.674 6      -285.495 6        40.830               
E34  28216230.653 6 149077976.927 6     -2408.225 6        39.552               
> 2025 01 08 14 23 22.0000000  0  6                                             
E02  27176935.469 6 142169020.706 6      1957.383 6        40.406               
E07  28346063.257 6 148197652.540 6      2321.810 6        38.194               
E27  29052660.516 5 152671734.350 5      1990.748 5        35.519               
E29  28990765.490 6 152347334.351 6       267.122 6        36.996               
E30  26191510.601 6 137736832.428 6      -286.564 6        40.595               
E34  28215773.241 6 149080386.109 6     -2409.821 6        39.490               
> 2025 01 08 14 23 23.0000000  0  6                                             
E02  27177308.825 6 142167061.245 6      1960.951 6        40.134               
E07  28346504.175 6 148195329.725 6      2323.213 6        38.172               
E27  29052282.889 5 152669745.113 5      1988.183 5        35.619               
E29  28990720.925 6 152347069.933 6       263.101 6        37.121               
E30  26191457.405 6 137737117.779 6      -286.147 6        40.662               
E34  28215319.904 6 149082794.830 6     -2408.467 6        39.759               
> 2025 01 08 14 23 24.0000000  0  6                                             
E02  27177688.506 6 142165101.258 6      1960.632 6        40.161               
E07  28346951.419 6 148193006.150 6      2325.173 6        38.024               
E27  29051910.803 5 152667756.316 5      1989.207 5        35.289               
E29  28990670.409 6 152346806.394 6       262.258 6        36.978               
E30  26191406.229 6 137737402.518 6      -282.811 6        40.714               
E34  28214862.832 6 149085202.859 6     -2407.368 6        39.866               
> 2025 01 08 14 23 25.0000000  0  6                                             
E02  27178061.879 6 142163140.096 6      1961.220 6        40.137               
E07  28347396.518 6 148190681.235 6      2324.937 6        38.066               
E27  29051526.726 5 152665768.652 5      1990.184 5        35.313               
E29  28990621.752 6 152346544.392 6       262.899 6        37.136               
E30  26191354.623 6 137737686.017 6      -285.034 6        40.690               
E34  28214404.760 6 149087609.612 6     -2406.870 6        40.012               
> 2025 01 08 14 23 26.0000000  0  6                                             
E02  27178436.038 6 142161179.113 6      1961.106 6        40.414               
E07  28347836.918 6 148188356.293 6      2325.469 6        37.878               
E27  29051153.996 5 152663780.680 5      1987.425 5        35.241               
E29  28990571.075 6 152346282.497 6       261.002 6        36.938               
E30  26191303.178 6 137737969.658 6      -284.170 6        40.634               
E34  28213951.191 6 149090016.417 6     -2407.174 6        39.984               
> 2025 01 08 14 23 27.0000000  0  6                                             
E02  27178811.377 6 142159219.082 6      1961.186 6        40.340               
E07  28348282.625 6 148186032.131 6      2325.262 6        37.861               
E27  29050781.999 5 152661791.724 5      1989.809 5        35.284               
E29  28990526.242 6 152346020.013 6       260.984 6        37.021               
E30  26191253.037 6 137738254.159 6      -283.241 6        40.772               
E34  28213491.153 6 149092424.033 6     -2407.863 6        40.091               
> 2025 01 08 14 23 28.0000000  0  6                                             
E02  27179186.037 6 142157258.259 6      1961.498 6        40.605               
E07  28348730.548 6 148183706.956 6      2323.731 6        37.687               
E27  29050403.586 5 152659803.464 5      1985.096 5        35.073               
E29  28990477.013 6 152345758.658 6       263.558 6        37.182               
E30  26191200.663 6 137738537.827 6      -283.708 6        40.738               
E34  28213033.974 6 149094830.749 6     -2406.326 6        40.329               
> 2025 01 08 14 23 29.0000000  0  6                                             
E02  27179561.429 6 142155297.492 6      1959.910 6        41.021               
E07  28349175.218 6 148181381.678 6      2324.689 6        37.899               
E27  29050024.227 5 152657815.077 5      1988.949 5        35.289               
E29  28990428.302 6 152345497.588 6       260.650 6        37.223               
E30  26191149.790 6 137738821.493 6      -283.688 6        40.730               
E34  28212580.029 6 149097237.383 6     -2405.243 6        40.399               
> 2025 01 08 14 23 30.0000000  0  6                                             
E02  27179937.930 6 142153336.208 6      1961.091 6        40.910               
E07  28349614.493 6 148179055.674 6      2325.247 6        37.867               
E27  29049648.066 5 152655827.111 5      1987.636 5        35.527               
E29  28990385.184 6 152345237.352 6       263.346 6        37.786               
E30  26191096.165 6 137739104.552 6      -284.002 6        40.937               
E34  28212125.209 6 149099643.372 6     -2406.254 6        40.258               
> 2025 01 08 14 23 31.0000000  0  6                                             
E02  27180314.359 6 142151375.912 6      1959.427 6        40.571               
E07  28350061.254 6 148176730.513 6      2324.614 6        37.783               
E27  29049274.890 5 152653838.067 5      1988.242 5        35.555               
E29  28990338.045 6 152344976.459 6       263.093 6        37.783               
E30  26191039.896 6 137739388.588 6      -284.210 6        41.031               
E34  28211668.780 6 149102050.239 6     -2406.683 6        39.851               
> 2025 01 08 14 23 32.0000000  0  6                                             
E02  27180687.589 6 142149414.963 6      1961.990 6        40.744               
E07  28350503.494 6 148174404.432 6      2327.409 6        37.555               
E27  29048897.389 5 152651849.609 5      1988.159 5        35.739               
E29  28990285.099 6 152344716.583 6       257.417 6        37.953               
E30  26190991.346 6 137739671.869 6      -284.284 6        40.940               
E34  28211212.531 6 149104456.305 6     -2405.028 6        40.214               
> 2025 01 08 14 23 33.0000000  0  6                                             
E02  27181059.175 6 142147453.029 6      1959.432 6        40.708               
E07  28350949.773 6 148172077.256 6      2325.398 6        37.574               
E27  29048524.355 5 152649862.070 5      1988.673 5        35.679               
E29  28990241.731 6 152344458.006 6       259.684 6        37.817               
E30  26190938.400 6 137739954.118 6      -283.553 6        40.957               
E34  28210758.550 6 149106861.280 6     -2406.098 6        40.333               
> 2025 01 08 14 23 34.0000000  0  6                                             
E02  27181436.408 6 142145491.745 6      1962.964 6        40.790               
E07  28351397.106 6 148169750.474 6      2328.287 6        37.499               
E27  29048146.175 5 152647873.776 5      1987.844 5        35.527               
E29  28990191.787 6 152344199.121 6       258.032 6        37.709               
E30  26190889.117 6 137740236.953 6      -282.235 6        41.101               
E34  28210300.674 6 149109266.788 6     -2405.207 6        40.170               
> 2025 01 08 14 23 35.0000000  0  6                                             
E02  27181812.069 6 142143529.521 6      1961.761 6        40.920               
E07  28351838.757 6 148167422.603 6      2328.152 6        37.191               
E27  29047772.963 5 152645886.376 5      1988.491 5        35.618               
E29  28990143.416 6 152343941.524 6       257.972 6        37.779               
E30  26190836.350 6 137740518.789 6      -283.114 6        41.204               
E34  28209846.908 6 149111671.198 6     -2403.628 6        39.983               
> 2025 01 08 14 23 36.0000000  0  7                                             
E02  27182185.889 6 142141567.227 6      1962.812 6        40.517               
E07  28352286.090 6 148165094.445 6      2326.757 6        37.388               
E08  30581580.830 5 160707285.311 5     -3370.158 5        35.120               
E27  29047398.017 5 152643898.955 5      1986.281 5        35.435               
E29  28990100.905 6 152343684.324 6       255.837 6        37.746               
E30  26190783.815 6 137740800.472 6      -280.904 6        41.009               
E34  28209389.586 6 149114075.415 6     -2403.383 6        39.704               
> 2025 01 08 14 23 37.0000000  0  7                                             
E02  27182560.816 6 142139604.724 6      1963.402 6        40.604               
E07  28352723.435 6 148162765.943 6      2328.189 6        37.305               
E08  30582224.955 5 160710658.268 5     -3373.687 5        35.418               
E27  29047016.388 5 152641911.653 5      1989.991 5        35.448               
E29  28990045.083 6 152343427.619 6       257.685 6        38.023               
E30  26190733.067 6 137741081.919 6      -282.146 6        41.035               
E34  28208935.409 6 149116479.325 6     -2403.824 6        39.784               
> 2025 01 08 14 23 38.0000000  0  7                                             
E02  27182936.709 6 142137642.159 6      1962.709 6        40.634               
E07  28353169.856 6 148160437.126 6      2330.380 6        37.268               
E08  30582867.829 5 160714031.123 5     -3372.136 5        35.312               
E27  29046634.402 5 152639924.350 5      1985.592 5        35.798               
E29  28990003.144 6 152343171.400 6       255.451 6        37.844               
E30  26190679.960 6 137741363.211 6      -280.853 6        41.108               
E34  28208478.927 6 149118882.995 6     -2403.925 6        39.847               
> 2025 01 08 14 23 39.0000000  0  7                                             
E02  27183312.495 6 142135679.042 6      1963.995 6        40.554               
E07  28353614.134 6 148158107.605 6      2331.079 6        37.248               
E08  30583509.023 5 160717404.340 5     -3373.513 5        35.236               
E27  29046263.852 5 152637937.472 5      1985.042 5        35.675               
E29  28989958.507 6 152342916.046 6       254.652 6        37.756               
E30  26190627.068 6 137741643.904 6      -279.211 6        41.258               
E34  28208025.858 6 149121286.027 6     -2402.525 6        39.770               
> 2025 01 08 14 23 40.0000000  0  7                                             
E02  27183687.155 6 142133715.875 6      1963.238 6        40.592               
E07  28354059.537 6 148155777.826 6      2328.798 6        37.386               
E08  30584155.274 5 160720777.388 5     -3374.120 5        35.158               
E27  29045882.420 5 152635950.645 5      1986.054 5        35.311               
E29  28989908.563 6 152342661.056 6       255.124 6        37.562               
E30  26190578.625 6 137741924.485 6      -278.856 6        41.329               
E34  28207567.232 6 149123688.876 6     -2402.902 6        39.871               
> 2025 01 08 14 23 41.0000000  0  7                                             
E02  27184064.102 6 142131752.297 6      1963.937 6        40.455               
E07  28354507.764 6 148153447.441 6      2331.944 6        36.949               
E08  30584801.596 5 160724150.676 5     -3371.648 5        35.155               
E27  29045506.974 5 152633964.096 5      1987.350 5        35.386               
E29  28989860.621 6 152342406.830 6       254.920 6        37.409               
E30  26190524.589 6 137742204.575 6      -279.321 6        41.107               
E34  28207110.929 6 149126091.189 6     -2402.915 6        39.932               
> 2025 01 08 14 23 42.0000000  0  7                                             
E02  27184435.456 6 142129788.529 6      1963.488 6        40.370               
E07  28354952.970 6 148151116.698 6      2330.657 6        37.361               
E08  30585439.056 5 160727523.895 5     -3372.260 5        35.214               
E27  29045126.810 5 152631977.671 5      1987.687 5        35.477               
E29  28989816.967 6 152342153.089 6       253.610 6        37.718               
E30  26190474.681 6 137742484.449 6      -281.757 6        41.199               
E34  28206654.768 6 149128493.177 6     -2402.769 6        39.715               
> 2025 01 08 14 23 43.0000000  0  7                                             
E02  27184813.779 6 142127825.322 6      1965.194 6        40.432               
E07  28355402.770 6 148148786.318 6      2333.239 6        37.390               
E08  30586093.223 5 160730896.424 5     -3375.501 5        35.263               
E27  29044762.336 5 152629990.613 5      1984.616 5        35.297               
E29  28989769.435 6 152341899.162 6       250.287 6        37.866               
E30  26190422.467 6 137742764.807 6      -278.813 6        41.359               
E34  28206203.379 6 149130895.606 6     -2401.380 6        40.028               
> 2025 01 08 14 23 44.0000000  0  7                                             
E02  27185185.526 6 142125861.203 6      1964.732 6        40.314               
E07  28355840.918 6 148146454.848 6      2330.808 6        37.436               
E08  30586733.452 5 160734269.660 5     -3372.693 5        35.272               
E27  29044378.938 5 152628004.356 5      1984.524 5        35.349               
E29  28989722.993 6 152341646.492 6       251.715 6        38.227               
E30  26190370.647 6 137743044.175 6      -280.710 6        41.418               
E34  28205748.165 6 149133296.982 6     -2400.712 6        39.844               
> 2025 01 08 14 23 45.0000000  0  7                                             
E02  27185563.045 6 142123897.078 6      1963.489 6        40.027               
E07  28356288.323 6 148144123.169 6      2331.496 6        37.454               
E08  30587377.398 5 160737642.685 5     -3374.007 5        35.541               
E27  29044008.013 5 152626018.073 5      1987.876 5        35.186               
E29  28989678.124 6 152341394.122 6       252.123 6        38.234               
E30  26190318.684 6 137743323.502 6      -277.954 6        41.494               
E34  28205292.791 6 149135698.234 6     -2399.980 6        39.779               
> 2025 01 08 14 23 46.0000000  0  7                                             
E02  27185941.225 6 142121932.711 6      1964.665 6        40.182               
E07  28356737.871 6 148141791.079 6      2332.240 6        37.441               
E08  30588019.647 5 160741015.776 5     -3371.708 5        35.670               
E27  29043627.278 5 152624031.902 5      1987.432 5        35.540               
E29  28989632.433 6 152341142.342 6       250.715 6        38.352               
E30  26190270.188 6 137743602.530 6      -279.132 6        41.344               
E34  28204835.005 6 149138099.120 6     -2400.190 6        39.905               
> 2025 01 08 14 23 47.0000000  0  7                                             
E02  27186316.313 6 142119968.556 6      1964.652 6        40.322               
E07  28357187.188 6 148139458.999 6      2332.720 6        37.616               
E08  30588661.145 5 160744388.432 5     -3373.098 5        35.353               
E27  29043246.310 5 152622045.487 5      1986.884 5        35.448               
E29  28989583.526 6 152340890.719 6       250.435 6        38.226               
E30  26190216.277 6 137743881.675 6      -279.258 6        41.139               
E34  28204383.437 6 149140500.076 6     -2400.062 6        39.746               
> 2025 01 08 14 23 48.0000000  0  7                                             
E02  27186690.723 6 142118004.176 6      1962.315 6        40.415               
E07  28357629.178 6 148137126.528 6      2333.456 6        37.674               
E08  30589294.869 5 160747761.140 5     -3375.339 5        35.406               
E27  29042882.032 5 152620059.200 5      1985.525 5        35.760               
E29  28989537.960 6 152340639.631 6       251.693 6        38.188               
E30  26190163.867 6 137744160.560 6      -278.866 6        41.440               
E34  28203929.206 6 149142900.703 6     -2401.549 6        39.446               
> 2025 01 08 14 23 49.0000000  0  7                                             
E02  27187064.471 6 142116039.511 6      1966.291 6        40.275               
E07  28358070.168 6 148134793.581 6      2333.959 6        37.538               
E08  30589956.452 5 160751133.912 5     -3374.160 5        35.053               
E27  29042494.489 5 152618073.079 5      1987.604 5        35.330               
E29  28989490.696 6 152340389.141 6       250.805 6        38.194               
E30  26190113.834 6 137744439.100 6      -277.414 6        41.279               
E34  28203469.794 6 149145300.921 6     -2398.945 6        39.553               
> 2025 01 08 14 23 50.0000000  0  7                                             
E02  27187441.955 6 142114074.280 6      1965.870 6        40.299               
E07  28358516.018 6 148132459.850 6      2334.908 6        37.355               
E08  30590587.515 5 160754507.092 5     -3373.844 5        35.183               
E27  29042119.436 5 152616087.486 5      1984.472 5        35.652               
E29  28989442.110 6 152340139.571 6       249.306 6        37.941               
E30  26190064.640 6 137744716.985 6      -276.818 6        41.521               
E34  28203018.118 6 149147700.418 6     -2399.149 6        39.552               
> 2025 01 08 14 23 51.0000000  0  7                                             
E02  27187816.918 6 142112108.674 6      1965.319 6        40.316               
E07  28358964.495 6 148130125.556 6      2334.834 6        37.706               
E08  30591233.658 5 160757880.443 5     -3373.821 5        34.982               
E27  29041745.705 5 152614102.194 5      1982.468 5        35.380               
E29  28989402.941 6 152339890.755 6       248.331 6        37.627               
E30  26190011.801 6 137744994.461 6      -277.489 6        41.656               
E34  28202562.333 6 149150099.412 6     -2398.056 6        39.833               
> 2025 01 08 14 23 52.0000000  0  7                                             
E02  27188193.454 6 142110143.283 6      1966.122 6        40.015               
E07  28359411.095 6 148127791.318 6      2335.302 6        37.878               
E08  30591881.393 5 160761253.356 5     -3370.253 5        35.253               
E27  29041372.475 5 152612116.598 5      1987.249 5        35.655               
E29  28989353.766 6 152339642.006 6       247.114 6        37.748               
E30  26189960.178 6 137745272.079 6      -279.430 6        41.586               
E34  28202101.670 6 149152498.538 6     -2399.601 6        39.813               
> 2025 01 08 14 23 53.0000000  0  7                                             
E02  27188572.939 6 142108178.292 6      1963.701 6        40.194               
E07  28359854.193 6 148125457.276 6      2334.664 6        37.791               
E08  30592522.355 5 160764625.696 5     -3373.209 5        35.362               
E27  29040991.400 5 152610130.519 5      1987.625 5        35.455               
E29  28989307.807 6 152339393.219 6       249.336 6        37.874               
E30  26189910.859 6 137745550.032 6      -277.998 6        41.464               
E34  28201650.781 6 149154897.887 6     -2399.023 6        39.750               
> 2025 01 08 14 23 54.0000000  0  7                                             
E02  27188946.240 6 142106212.662 6      1965.907 6        40.005               
E07  28360302.563 6 148123122.408 6      2336.030 6        38.135               
E08  30593163.370 5 160767998.410 5     -3372.731 5        35.250               
E27  29040615.847 5 152608144.977 5      1986.070 5        35.242               
E29  28989263.706 6 152339145.406 6       247.950 6        37.724               
E30  26189859.003 6 137745827.307 6      -277.514 6        41.531               
E34  28201195.603 6 149157296.498 6     -2398.656 6        39.602               
> 2025 01 08 14 23 55.0000000  0  7                                             
E02  27189322.759 6 142104246.361 6      1966.667 6        39.978               
E07  28360747.734 6 148120786.674 6      2335.015 6        38.001               
E08  30593805.404 5 160771371.702 5     -3373.248 5        35.186               
E27  29040249.997 5 152606160.076 5      1985.237 5        35.267               
E29  28989217.497 6 152338898.585 6       245.451 6        37.794               
E30  26189808.398 6 137746103.812 6      -276.774 6        41.361               
E34  28200742.981 6 149159694.290 6     -2398.954 6        39.393               
> 2025 01 08 14 23 56.0000000  0  7                                             
E02  27189702.815 6 142102280.184 6      1965.405 6        39.965               
E07  28361194.442 6 148118450.888 6      2334.809 6        37.827               
E08  30594452.316 5 160774744.630 5     -3373.205 5        35.415               
E27  29039866.224 5 152604174.948 5      1986.164 5        35.501               
E29  28989172.485 6 152338651.980 6       245.385 6        37.192               
E30  26189757.793 6 137746380.406 6      -277.588 6        41.486               
E34  28200287.338 6 149162092.089 6     -2397.542 6        39.325               
> 2025 01 08 14 23 57.0000000  0  7                                             
E02  27190074.973 6 142100314.039 6      1967.062 6        40.068               
E07  28361638.683 6 148116114.955 6      2335.836 6        37.498               
E08  30595099.139 5 160778117.340 5     -3371.031 5        35.578               
E27  29039490.384 5 152602189.713 5      1986.258 5        35.389               
E29  28989128.134 6 152338405.702 6       245.751 6        37.224               
E30  26189707.563 6 137746656.947 6      -275.961 6        41.347               
E34  28199833.841 6 149164489.776 6     -2397.980 6        39.254               
> 2025 01 08 14 23 58.0000000  0  7                                             
E02  27190448.918 6 142098347.883 6      1965.709 6        40.033               
E07  28362086.767 6 148113778.808 6      2336.667 6        37.757               
E08  30595741.262 5 160781489.843 5     -3371.399 5        35.701               
E27  29039117.440 5 152600204.390 5      1983.575 5        35.701               
E29  28989087.982 6 152338159.741 6       247.433 6        37.585               
E30  26189654.421 6 137746933.443 6      -277.033 6        41.358               
E34  28199383.309 6 149166887.350 6     -2397.381 6        39.069               
> 2025 01 08 14 23 59.0000000  0  7                                             
E02  27190822.130 6 142096381.226 6      1966.307 6        40.005               
E07  28362534.493 6 148111441.989 6      2337.337 6        37.769               
E08  30596385.977 5 160784862.667 5     -3372.158 5        35.677               
E27  29038740.046 5 152598219.532 5      1984.218 5        35.833               
E29  28989037.681 6 152337914.648 6       245.343 6        37.479               
E30  26189605.102 6 137747209.357 6      -277.235 6        41.460               
E34  28198925.362 6 149169284.277 6     -2397.690 6        39.401               
> 2025 01 08 14 24 00.0000000  0  7                                             
E02  27191203.545 6 142094414.512 6      1965.800 6        40.056               
E07  28362984.542 6 148109104.917 6      2336.033 6        37.822               
E08  30597032.585 5 160788235.322 5     -3371.629 5        35.912               
E27  29038362.796 5 152596234.594 5      1984.740 5        35.855               
E29  28988995.831 6 152337669.900 6       243.604 6        37.749               
E30  26189555.516 6 137747485.166 6      -274.934 6        41.668               
E34  28198470.863 6 149171681.016 6     -2395.669 6        39.061               
> 2025 01 08 14 24 01.0000000  0  7                                             
E02  27191579.527 6 142092447.490 6      1965.471 6        40.380               
E07  28363426.801 6 148106767.335 6      2335.052 6        38.014               
E08  30597675.012 5 160791608.158 5     -3371.664 5        35.828               
E27  29037980.720 5 152594249.958 5      1982.904 5        35.654               
E29  28988946.674 6 152337425.838 6       246.085 6        38.027               
E30  26189503.767 6 137747760.582 6      -275.652 6        41.822               
E34  28198016.454 6 149174077.321 6     -2396.301 6        38.675               
> 2025 01 08 14 24 02.0000000  0  7                                             
E02  27191952.078 6 142090480.242 6      1967.438 6        40.175               
E07  28363875.295 6 148104429.349 6      2337.818 6        37.763               
E08  30598321.925 5 160794980.952 5     -3374.369 5        35.729               
E27  29037612.511 5 152592265.428 5      1982.789 5        35.216               
E29  28988901.948 6 152337182.336 6       242.159 6        37.837               
E30  26189452.179 6 137748035.736 6      -275.285 6        41.881               
E34  28197557.309 6 149176473.287 6     -2396.159 6        38.878               
> 2025 01 08 14 24 03.0000000  0  7                                             
E02  27192330.312 6 142088512.523 6      1967.364 6        40.294               
E07  28364322.450 6 148102090.687 6      2339.199 6        37.963               
E08  30598959.080 5 160798354.057 5     -3374.690 5        35.749               
E27  29037232.097 5 152590281.281 5      1984.833 5        35.100               
E29  28988857.900 6 152336939.630 6       242.080 6        37.564               
E30  26189403.040 6 137748310.349 6      -274.867 6        41.944               
E34  28197111.298 6 149178868.616 6     -2395.125 6        38.889               
> 2025 01 08 14 24 04.0000000  0  7                                             
E02  27192706.615 6 142086544.890 6      1965.859 6        40.315               
E07  28364768.085 6 148099751.947 6      2340.054 6        37.644               
E08  30599607.637 5 160801726.856 5     -3371.870 5        35.962               
E27  29036858.760 5 152588296.973 5      1986.751 5        35.011               
E29  28988816.569 6 152336697.173 6       242.239 6        37.695               
E30  26189351.523 6 137748584.983 6      -275.655 6        41.706               
E34  28196655.853 6 149181263.930 6     -2396.038 6        39.148               
> 2025 01 08 14 24 05.0000000  0  7                                             
E02  27193081.275 6 142084577.418 6      1967.542 6        40.005               
E07  28365216.937 6 148097413.165 6      2339.360 6        37.959               
E08  30600249.474 5 160805099.325 5     -3372.563 5        35.736               
E27  29036481.956 5 152586312.445 5      1986.000 5        35.026               
E29  28988773.326 6 152336454.903 6       241.631 6        36.989               
E30  26189303.259 6 137748859.705 6      -273.568 6        41.677               
E34  28196201.318 6 149183659.285 6     -2395.408 6        39.151               
> 2025 01 08 14 24 06.0000000  0  7                                             
E02  27193458.794 6 142082609.677 6      1967.386 6        40.028               
E07  28365660.250 6 148095073.959 6      2339.620 6        37.935               
E08  30600889.578 5 160808471.849 5     -3372.943 5        35.602               
E27  29036103.901 5 152584328.131 5      1981.469 5        35.022               
E29  28988727.135 6 152336213.220 6       243.745 6        37.022               
E30  26189252.422 6 137749134.126 6      -277.399 6        41.656               
E34  28195743.996 6 149186054.237 6     -2395.189 6        38.989               
> 2025 01 08 14 24 07.0000000  0  7                                             
E02  27193834.026 6 142080641.873 6      1968.637 6        40.126               
E07  28366111.854 6 148092734.473 6      2338.303 6        37.486               
E08  30601536.651 5 160811844.212 5     -3374.084 5        35.237               
E27  29035725.578 5 152582343.730 5      1987.758 5        34.799               
E29  28988685.625 6 152335971.945 6       241.649 6        36.939               
E30  26189201.781 6 137749408.396 6      -273.840 6        41.514               
E34  28195289.819 6 149188448.990 6     -2394.877 6        38.934               
> 2025 01 08 14 24 08.0000000  0  7                                             
E02  27194212.277 6 142078673.888 6      1969.181 6        39.982               
E07  28366555.113 6 148090394.627 6      2341.296 6        37.246               
E08  30602176.541 5 160815216.611 5     -3372.748 5        35.359               
E27  29035351.097 5 152580359.466 5      1984.248 5        34.527               
E29  28988642.597 6 152335731.218 6       241.241 6        37.032               
E30  26189151.247 6 137749682.430 6      -272.199 6        41.512               
E34  28194840.431 6 149190843.435 6     -2392.604 6        39.008               
> 2025 01 08 14 24 09.0000000  0  7                                             
E02  27194587.544 6 142076705.137 6      1969.044 6        40.010               
E07  28366999.855 6 148088053.868 6      2340.683 6        37.206               
E08  30602823.060 5 160818589.537 5     -3372.807 5        35.430               
E27  29034978.760 5 152578375.861 5      1982.133 5        34.673               
E29  28988596.280 6 152335491.530 6       240.253 6        36.716               
E30  26189099.927 6 137749955.647 6      -272.207 6        41.458               
E34  28194385.915 6 149193236.986 6     -2394.049 6        38.936               
> 2025 01 08 14 24 10.0000000  0  7                                             
E02  27194961.293 6 142074736.844 6      1969.313 6        40.141               
E07  28367446.884 6 148085713.310 6      2341.969 6        37.253               
E08  30603460.466 5 160821961.815 5     -3373.128 5        35.202               
E27  29034604.958 5 152576391.761 5      1985.843 5        34.804               
E29  28988549.463 6 152335251.760 6       239.586 6        37.200               
E30  26189051.056 6 137750229.245 6      -272.558 6        41.401               
E34  28193932.220 6 149195630.860 6     -2393.541 6        38.757               
> 2025 01 08 14 24 11.0000000  0  7                                             
E02  27195341.439 6 142072768.405 6      1969.715 6        40.171               
E07  28367902.044 6 148083372.416 6      2341.957 6        37.313               
E08  30604106.699 5 160825334.078 5     -3373.234 5        35.008               
E27  29034227.957 5 152574407.725 5      1981.813 5        34.828               
E29  28988513.082 6 152335012.500 6       240.142 6        36.747               
E30  26189001.558 6 137750502.625 6      -274.641 6        41.662               
E34  28193480.724 6 149198024.428 6     -2393.629 6        38.938               
> 2025 01 08 14 24 12.0000000  0  7                                             
E02  27195717.367 6 142070799.930 6      1968.885 6        40.314               
E07  28368341.658 6 148081031.355 6      2341.220 6        37.365               
E08  30604753.040 5 160828706.167 5     -3374.642 5        35.146               
E27  29033856.853 5 152572423.621 5      1981.827 5        34.754               
E29  28988469.070 6 152334773.558 6       238.371 6        36.910               
E30  26188950.792 6 137750775.939 6      -273.935 6        41.759               
E34  28193023.062 6 149200417.893 6     -2394.292 6        38.939               
> 2025 01 08 14 24 13.0000000  0  7                                             
E02  27196094.225 6 142068831.317 6      1970.479 6        40.780               
E07  28368793.190 6 148078689.947 6      2341.513 6        37.461               
E08  30605395.020 5 160832078.177 5     -3372.841 5        34.914               
E27  29033482.801 5 152570439.586 5      1985.254 5        34.632               
E29  28988420.038 6 152334535.098 6       236.982 6        36.879               
E30  26188898.758 6 137751049.031 6      -274.240 6        41.868               
E34  28192571.566 6 149202811.066 6     -2393.664 6        38.475               
> 2025 01 08 14 24 14.0000000  0  7                                             
E02  27196471.154 6 142066862.500 6      1969.455 6        41.053               
E07  28369237.843 6 148076348.164 6      2341.887 6        37.761               
E08  30606037.465 5 160835450.186 5     -3369.867 5        35.124               
E27  29033097.366 5 152568455.665 5      1986.468 5        34.256               
E29  28988383.317 6 152334297.187 6       238.060 6        37.167               
E30  26188848.242 6 137751321.871 6      -272.457 6        41.892               
E34  28192121.266 6 149205203.908 6     -2392.050 6        38.485               
> 2025 01 08 14 24 15.0000000  0  7                                             
E02  27196843.866 6 142064893.192 6      1970.307 6        40.781               
E07  28369685.104 6 148074005.673 6      2345.005 6        37.775               
E08  30606679.124 5 160838822.510 5     -3373.272 5        34.920               
E27  29032729.425 5 152566472.181 5      1983.841 5        34.399               
E29  28988338.323 6 152334060.138 6       236.183 6        37.058               
E30  26188798.763 7 137751594.143 7      -271.564 7        42.012               
E34  28191664.731 6 149207596.091 6     -2391.629 6        38.540               
> 2025 01 08 14 24 16.0000000  0  7                                             
E02  27197221.546 6 142062923.128 6      1971.747 6        40.682               
E07  28370131.276 6 148071662.249 6      2345.265 6        37.845               
E08  30607322.158 5 160842195.397 5     -3372.770 5        35.129               
E27  29032345.724 5 152564489.386 5      1982.312 5        34.307               
E29  28988292.578 6 152333824.145 6       233.718 6        36.828               
E30  26188748.193 7 137751865.592 7      -270.742 7        42.148               
E34  28191211.501 6 149209987.412 6     -2389.735 6        38.767               
> 2025 01 08 14 24 17.0000000  0  7                                             
E02  27197599.029 6 142060953.263 6      1969.847 6        40.356               
E07  28370586.740 6 148069318.834 6      2343.410 6        37.799               
E08  30607965.354 5 160845567.881 5     -3372.788 5        35.057               
E27  29031980.302 5 152562506.296 5      1983.737 5        34.351               
E29  28988245.815 6 152333588.317 6       233.286 6        36.829               
E30  26188697.445 7 137752137.187 7      -271.882 7        42.115               
E34  28190757.771 6 149212378.828 6     -2390.758 6        38.852               
> 2025 01 08 14 24 18.0000000  0  7                                             
E02  27197974.922 6 142058983.184 6      1969.314 6        40.285               
E07  28371028.873 6 148066975.017 6      2344.583 6        37.545               
E08  30608614.250 5 160848940.383 5     -3372.594 5        35.275               
E27  29031603.123 5 152560523.342 5      1982.854 5        34.498               
E29  28988208.397 6 152333353.036 6       233.493 6        37.031               
E30  26188650.039 6 137752408.509 6      -271.389 6        41.667               
E34  28190306.953 6 149214769.870 6     -2393.815 6        38.710               
> 2025 01 08 14 24 19.0000000  0  7                                             
E02  27198358.105 6 142057012.865 6      1971.600 6        40.315               
E07  28371471.292 6 148064630.791 6      2344.258 6        37.934               
E08  30609254.783 5 160852312.903 5     -3373.295 5        35.445               
E27  29031224.014 5 152558540.525 5      1981.868 5        34.653               
E29  28988159.114 6 152333118.274 6       233.785 6        36.788               
E30  26188600.452 6 137752679.541 6      -272.016 6        41.987               
E34  28189852.633 6 149217160.571 6     -2390.197 6        38.756               
> 2025 01 08 14 24 20.0000000  0  7                                             
E02  27198727.154 6 142055042.405 6      1970.298 6        40.230               
E07  28371924.182 6 148062286.201 6      2343.536 6        37.738               
E08  30609901.141 5 160855685.405 5     -3373.465 5        35.780               
E27  29030853.142 5 152556557.806 5      1984.407 5        34.585               
E29  28988119.320 6 152332884.062 6       233.164 6        36.653               
E30  26188549.347 6 137752950.348 6      -270.271 6        41.844               
E34  28189393.542 6 149219550.963 6     -2390.622 6        38.686               
> 2025 01 08 14 24 21.0000000  0  7                                             
E02  27199108.121 6 142053071.711 6      1970.374 6        40.661               
E07  28372375.286 6 148059941.261 6      2344.280 6        37.601               
E08  30610540.191 5 160859057.867 5     -3373.195 5        35.776               
E27  29030471.603 5 152554575.197 5      1983.165 5        34.698               
E29  28988078.364 6 152332650.357 6       232.664 6        36.550               
E30  26188500.511 7 137753220.879 7      -270.935 7        42.066               
E34  28188942.492 6 149221941.021 6     -2389.926 6        38.637               
> 2025 01 08 14 24 22.0000000  0  7                                             
E02  27199482.531 6 142051100.833 6      1970.167 6        40.208               
E07  28372825.281 6 148057595.894 6      2345.283 6        37.691               
E08  30611182.028 5 160862430.439 5     -3373.907 5        35.874               
E27  29030093.959 5 152552592.762 5      1979.710 5        34.901               
E29  28988033.352 6 152332417.222 6       229.603 6        36.685               
E30  26188449.870 7 137753491.137 7      -269.373 7        42.170               
E34  28188491.085 6 149224330.748 6     -2389.504 6        38.937               
> 2025 01 08 14 24 23.0000000  0  7                                             
E02  27199861.158 6 142049129.486 6      1971.747 6        40.360               
E07  28373267.200 6 148055249.891 6      2345.469 6        37.430               
E08  30611825.527 5 160865803.153 5     -3372.008 5        35.935               
E27  29029723.623 5 152550610.649 5      1983.326 5        34.988               
E29  28987986.375 6 152332184.872 6       232.478 6        36.930               
E30  26188401.338 7 137753760.895 7      -270.103 7        42.272               
E34  28188038.355 6 149226719.892 6     -2389.066 6        38.868               
> 2025 01 08 14 24 24.0000000  0  7                                             
E02  27200238.641 6 142047158.448 6      1971.061 6        40.793               
E07  28373721.788 6 148052903.992 6      2346.556 6        37.563               
E08  30612476.192 5 160869175.478 5     -3371.023 5        35.476               
E27  29029350.929 5 152548628.188 5      1980.971 5        35.192               
E29  28987943.328 6 152331952.554 6       231.400 6        36.493               
E30  26188353.520 7 137754030.867 7      -268.700 7        42.078               
E34  28187585.465 6 149229109.202 6     -2389.592 6        38.752               
> 2025 01 08 14 24 25.0000000  0  7                                             
E02  27200615.105 6 142045187.676 6      1971.172 6        40.312               
E07  28374165.833 6 148050558.203 6      2344.331 6        38.003               
E08  30613117.547 5 160872547.222 5     -3370.459 5        35.286               
E27  29028969.997 5 152546645.352 5      1985.577 5        35.032               
E29  28987908.680 6 152331720.313 6       231.222 6        36.225               
E30  26188301.843 7 137754301.081 7      -270.478 7        42.200               
E34  28187133.450 6 149231498.657 6     -2390.275 6        38.786               
> 2025 01 08 14 24 26.0000000  0  7                                             
E02  27200995.144 6 142043216.842 6      1971.707 6        40.413               
E07  28374616.812 6 148048212.163 6      2345.140 6        38.042               
E08  30613756.043 5 160875918.902 5     -3372.327 5        35.413               
E27  29028594.372 5 152544662.562 5      1978.982 5        35.380               
E29  28987866.563 6 152331488.455 6       231.701 6        36.383               
E30  26188252.114 7 137754571.159 7      -268.682 7        42.318               
E34  28186675.860 6 149233887.911 6     -2387.938 6        38.560               
> 2025 01 08 14 24 27.0000000  0  7                                             
E02  27201371.251 6 142041244.795 6      1973.072 6        40.498               
E07  28375066.575 6 148045864.704 6      2347.967 6        38.157               
E08  30614405.117 5 160879291.583 5     -3373.032 5        35.574               
E27  29028226.449 5 152542680.823 5      1981.366 5        35.245               
E29  28987819.156 6 152331258.128 6       229.832 6        36.534               
E30  26188201.634 7 137754839.960 7      -268.591 7        42.197               
E34  28186231.243 6 149236275.824 6     -2386.141 6        39.117               
> 2025 01 08 14 24 28.0000000  0  7                                             
E02  27201744.392 6 142039272.485 6      1972.504 6        40.384               
E07  28375515.927 6 148043516.773 6      2349.505 6        38.102               
E08  30615046.883 5 160882664.363 5     -3373.734 5        35.822               
E27  29027843.677 5 152540699.341 5      1979.386 5        35.309               
E29  28987779.612 6 152331028.457 6       228.643 6        36.640               
E30  26188154.692 7 137755108.397 7      -268.818 7        42.050               
E34  28185774.225 6 149238663.323 6     -2388.462 6        39.172               
> 2025 01 08 14 24 29.0000000  0  7                                             
E02  27202125.985 6 142037300.307 6      1972.883 6        40.138               
E07  28375961.295 6 148041168.843 6      2349.554 6        37.967               
E08  30615691.598 5 160886036.766 5     -3372.768 5        35.543               
E27  29027472.126 5 152538717.606 5      1981.828 5        35.321               
E29  28987734.260 6 152330798.951 6       229.320 6        36.636               
E30  26188107.267 7 137755376.943 7      -267.766 7        42.097               
E34  28185321.442 6 149241050.855 6     -2388.157 6        38.980               
> 2025 01 08 14 24 30.0000000  0  7                                             
E02  27202499.376 6 142035328.223 6      1971.442 6        40.416               
E07  28376414.132 6 148038820.791 6      2348.205 6        38.395               
E08  30616332.470 5 160889408.888 5     -3373.631 5        35.408               
E27  29027097.538 5 152536735.720 5      1983.157 5        35.266               
E29  28987695.735 6 152330569.708 6       228.917 6        36.631               
E30  26188055.465 7 137755645.514 7      -267.745 7        42.088               
E34  28184871.893 6 149243438.324 6     -2386.893 6        38.600               
> 2025 01 08 14 24 31.0000000  0  7                                             
E02  27202877.628 6 142033355.799 6      1971.529 6        40.455               
E07  28376856.998 6 148036472.222 6      2348.517 6        38.355               
E08  30616980.812 5 160892781.151 5     -3370.585 5        35.353               
E27  29026718.572 5 152534754.070 5      1983.758 5        34.981               
E29  28987651.813 6 152330341.126 6       229.116 6        36.653               
E30  26188006.164 7 137755913.681 7      -268.532 7        42.183               
E34  28184421.790 6 149245825.343 6     -2387.376 6        38.339               
> 2025 01 08 14 24 32.0000000  0  7                                             
E02  27203253.163 6 142031383.873 6      1972.272 6        40.358               
E07  28377307.368 6 148034123.953 6      2348.864 6        38.339               
E08  30617622.167 5 160896152.737 5     -3372.536 5        35.471               
E27  29026345.878 5 152532771.869 5      1982.164 5        35.040               
E29  28987611.107 6 152330112.415 6       229.189 6        36.316               
E30  26187957.346 7 137756182.294 7      -267.639 7        42.088               
E34  28183966.470 6 149248212.719 6     -2386.727 6        38.615               
> 2025 01 08 14 24 33.0000000  0  7                                             
E02  27203628.913 6 142029411.744 6      1971.116 6        40.881               
E07  28377758.543 6 148031775.312 6      2350.280 6        38.289               
E08  30618262.521 5 160899524.293 5     -3369.914 5        35.488               
E27  29025970.181 5 152530789.802 5      1982.344 5        35.334               
E29  28987569.955 6 152329884.187 6       230.364 6        36.165               
E30  26187907.367 6 137756450.625 6      -268.600 6        41.979               
E34  28183510.756 6 149250599.767 6     -2386.340 6        39.032               
> 2025 01 08 14 24 34.0000000  0  7                                             
E02  27204009.952 6 142027439.482 6      1972.881 6        40.750               
E07  28378207.163 6 148029426.350 6      2349.251 6        38.346               
E08  30618902.089 5 160902895.814 5     -3370.752 5        35.382               
E27  29025600.418 5 152528807.769 5      1980.158 5        35.111               
E29  28987528.713 6 152329656.494 6       226.229 6        36.219               
E30  26187859.013 7 137756718.764 7      -267.809 7        42.325               
E34  28183063.191 6 149252986.556 6     -2386.499 6        38.974               
> 2025 01 08 14 24 35.0000000  0  7                                             
E02  27204385.291 6 142025466.975 6      1971.804 6        40.626               
E07  28378652.942 6 148027076.930 6      2350.272 6        38.233               
E08  30619544.910 5 160906267.370 5     -3371.830 5        35.111               
E27  29025221.934 5 152526825.888 5      1983.765 5        35.286               
E29  28987488.007 6 152329429.352 6       226.133 6        36.289               
E30  26187809.802 7 137756986.597 7      -267.288 7        42.657               
E34  28182609.925 6 149255372.947 6     -2386.975 6        38.909               
> 2025 01 08 14 24 36.0000000  0  7                                             
E02  27204763.703 6 142023494.309 6      1972.857 6        40.448               
E07  28379105.939 6 148024727.210 6      2350.977 6        38.251               
E08  30620193.001 5 160909638.874 5     -3369.816 5        34.948               
E27  29024842.557 5 152524844.102 5      1982.646 5        35.424               
E29  28987443.942 5 152329202.683 5       224.448 5        35.929               
E30  26187762.913 7 137757254.216 7      -266.978 7        42.470               
E34  28182157.303 6 149257759.068 6     -2388.003 6        38.847               
> 2025 01 08 14 24 37.0000000  0  7                                             
E02  27205139.238 6 142021521.538 6      1972.632 6        40.353               
E07  28379554.970 6 148022377.179 6      2352.182 6        37.952               
E08  30620835.696 5 160913010.298 5     -3370.872 5        34.849               
E27  29024468.236 5 152522862.341 5      1982.194 5        35.489               
E29  28987403.201 6 152328976.486 6       226.140 6        36.122               
E30  26187712.701 7 137757521.677 7      -268.205 7        42.567               
E34  28181703.626 6 149260144.940 6     -2385.211 6        39.307               
> 2025 01 08 14 24 38.0000000  0  7                                             
E02  27205519.527 6 142019548.539 6      1974.487 6        40.415               
E07  28380003.107 6 148020026.717 6      2351.830 6        38.369               
E08  30621468.510 5 160916381.746 5     -3370.725 5        35.118               
E27  29024092.433 5 152520880.721 5      1981.414 5        35.590               
E29  28987360.441 6 152328750.806 6       227.624 6        36.004               
E30  26187662.543 7 137757788.843 7      -264.997 7        42.426               
E34  28181253.023 6 149262530.483 6     -2384.284 6        39.294               
> 2025 01 08 14 24 39.0000000  0  7                                             
E02  27205896.760 6 142017575.330 6      1973.790 6        40.624               
E07  28380451.637 6 148017675.875 6      2351.285 6        38.324               
E08  30622120.801 5 160919753.209 5     -3372.015 5        35.012               
E27  29023718.202 5 152518899.259 5      1980.988 5        35.659               
E29  28987319.788 5 152328525.751 5       224.415 5        35.822               
E30  26187613.296 7 137758055.714 7      -266.370 7        42.400               
E34  28180799.185 6 149264915.649 6     -2385.186 6        39.153               
> 2025 01 08 14 24 40.0000000  0  7                                             
E02  27206272.813 6 142015601.795 6      1974.540 6        40.426               
E07  28380898.595 6 148015324.531 6      2352.489 6        37.998               
E08  30622767.784 5 160923124.799 5     -3372.910 5        35.138               
E27  29023345.043 5 152516918.040 5      1980.046 5        35.910               
E29  28987280.494 5 152328301.301 5       223.564 5        35.454               
E30  26187565.139 7 137758322.213 7      -266.131 7        42.673               
E34  28180349.797 6 149267300.343 6     -2384.084 6        39.191               
