     3.02           OBSERVATION DATA    G                   RINEX VERSION / TYPE
G = GPS  R = GLONASS  E = GALILEO  S = GEO  M = MIXED       COMMENT             
GNSS-SDR            jmfriedt            20250108 154501 UTC PGM / RUN BY / DATE 
GPS OBSERVATION DATA FILE GENERATED BY GNSS-SDR             COMMENT             
GNSS-SDR VERSION 0.0.19.git-main-87fcfd237                  COMMENT             
See https://gnss-sdr.org                                    COMMENT             
DEFAULT MARKER NAME                                         MARKER NAME         
jmfriedt            CTTC                                    OBSERVER / AGENCY   
GNSS-SDR            Software Receiver   0.0.19.gi           REC # / TYPE / VERS 
Antenna number      Antenna type                            ANT # / TYPE        
        0.0000        0.0000        0.0000                  APPROX POSITION XYZ 
        0.0000        0.0000        0.0000                  ANTENNA: DELTA H/E/N
G    4 C1C L1C D1C S1C                                      SYS / # / OBS TYPES 
DBHZ                                                        SIGNAL STRENGTH UNIT
  2025    01    08    14    20   48.1200000     GPS         TIME OF FIRST OBS   
    18    18   137     7                                    LEAP SECONDS        
    18    18   137     7                                    LEAP SECONDS        
                                                            END OF HEADER       
> 2025 01 08 14 20 49.0000000  0  4                                             
G25  22406091.675 7 117742926.921 7      1065.345 7        45.368               
G11  25591073.655 6 134482000.735 6     -1211.690 6        39.546               
G28  23862302.774 7 125399921.724 7     -1523.483 7        43.543               
G29  23192349.253 7 121878837.689 7     -1252.553 7        43.179               
> 2025 01 08 14 20 50.0000000  0  4                                             
G25  22406292.898 7 117741860.899 7      1066.531 7        45.666               
G11  25591314.350 6 134483210.032 6     -1210.469 6        39.214               
G28  23862020.086 7 125401443.876 7     -1523.091 7        43.463               
G29  23192119.314 7 121880090.952 7     -1254.158 7        43.336               
> 2025 01 08 14 20 51.0000000  0  4                                             
G25  22406502.216 7 117740794.902 7      1067.778 7        45.152               
G11  25591546.183 6 134484419.508 6     -1208.155 6        39.106               
G28  23861731.627 7 125402965.953 7     -1523.640 7        43.567               
G29  23191874.902 7 121881344.162 7     -1256.630 7        43.896               
> 2025 01 08 14 20 52.0000000  0  4                                             
G25  22406706.280 7 117739728.569 7      1064.350 7        45.095               
G11  25591766.330 6 134485629.517 6     -1212.037 6        39.047               
G28  23861440.987 7 125404487.619 7     -1523.858 7        43.565               
G29  23191640.192 7 121882596.923 7     -1252.986 7        43.928               
> 2025 01 08 14 20 53.0000000  0  4                                             
G25  22406914.133 7 117738661.514 7      1068.062 7        45.384               
G11  25592009.384 6 134486840.482 6     -1215.837 6        39.471               
G28  23861151.974 7 125406008.432 7     -1520.153 7        43.122               
G29  23191404.821 7 121883848.863 7     -1253.223 7        43.272               
> 2025 01 08 14 20 54.0000000  0  4                                             
G25  22407113.658 7 117737593.665 7      1070.122 7        45.573               
G11  25592235.534 6 134488052.401 6     -1214.768 6        39.491               
G28  23860866.998 7 125407528.377 7     -1519.379 7        43.300               
G29  23191171.899 7 121885099.906 7     -1251.437 7        43.365               
> 2025 01 08 14 20 55.0000000  0  4                                             
G25  22407323.512 7 117736525.531 7      1067.520 7        45.581               
G11  25592469.261 6 134489264.858 6     -1212.174 6        39.320               
G28  23860577.377 7 125409047.935 7     -1520.900 7        43.460               
G29  23190936.242 7 121886350.569 7     -1252.451 7        43.043               
> 2025 01 08 14 20 56.0000000  0  4                                             
G25  22407526.772 7 117735457.163 7      1067.511 7        45.250               
G11  25592702.845 6 134490477.770 6     -1213.494 6        38.816               
G28  23860293.832 7 125410567.150 7     -1515.056 7        43.249               
G29  23190693.974 7 121887600.894 7     -1246.532 7        42.677               
> 2025 01 08 14 20 57.0000000  0  4                                             
G25  22407731.497 7 117734388.399 7      1069.925 7        45.570               
G11  25592930.961 6 134491691.246 6     -1209.507 6        38.887               
G28  23860008.124 7 125412085.871 7     -1520.341 7        43.359               
G29  23190462.302 7 121888850.731 7     -1249.310 7        43.379               
> 2025 01 08 14 20 58.0000000  0  4                                             
G25  22407935.651 7 117733319.172 7      1070.229 7        45.278               
G11  25593171.371 6 134492905.402 6     -1216.689 6        38.298               
G28  23859718.342 7 125413604.023 7     -1520.610 7        43.050               
G29  23190227.431 7 121890099.974 7     -1251.085 7        43.487               
> 2025 01 08 14 20 59.0000000  0  4                                             
G25  22408141.520 7 117732249.647 7      1070.389 7        45.534               
G11  25593394.501 6 134494120.080 6     -1213.597 6        38.814               
G28  23859424.772 7 125415121.794 7     -1519.325 7        42.977               
G29  23189987.504 7 121891348.850 7     -1246.606 7        43.202               
> 2025 01 08 14 21 00.0000000  0  4                                             
G25  22408348.693 7 117731179.551 7      1068.200 7        44.902               
G11  25593632.570 6 134495335.517 6     -1212.985 6        39.023               
G28  23859136.151 7 125416638.880 7     -1517.897 7        42.678               
G29  23189756.082 7 121892597.049 7     -1245.408 7        43.717               
> 2025 01 08 14 21 01.0000000  0  4                                             
G25  22408552.472 7 117730108.904 7      1072.499 7        45.092               
G11  25593867.494 6 134496551.714 6     -1220.854 6        39.117               
G28  23858854.017 7 125418155.339 7     -1514.756 7        43.272               
G29  23189519.282 7 121893844.589 7     -1247.191 7        43.774               
> 2025 01 08 14 21 02.0000000  0  4                                             
G25  22408757.876 7 117729037.930 7      1070.447 7        45.847               
G11  25594109.673 6 134497768.477 6     -1219.811 6        39.502               
G28  23858565.826 7 125419671.350 7     -1519.907 7        42.994               
G29  23189282.928 7 121895091.710 7     -1248.761 7        43.341               
> 2025 01 08 14 21 03.0000000  0  4                                             
G25  22408965.568 7 117727966.619 7      1071.914 7        45.956               
G11  25594338.182 6 134498985.768 6     -1217.356 6        39.229               
G28  23858283.995 7 125421186.916 7     -1513.557 7        43.041               
G29  23189050.256 7 121896338.380 7     -1243.746 7        42.980               
> 2025 01 08 14 21 04.0000000  0  4                                             
G25  22409169.811 7 117726894.543 7      1070.434 7        45.625               
G11  25594566.477 6 134500204.036 6     -1223.912 6        38.452               
G28  23857990.300 7 125422701.637 7     -1515.149 7        42.921               
G29  23188814.474 7 121897584.197 7     -1248.501 7        43.185               
> 2025 01 08 14 21 05.0000000  0  4                                             
G25  22409377.520 7 117725822.029 7      1072.018 7        45.599               
G11  25594803.081 6 134501422.943 6     -1219.594 6        38.740               
G28  23857706.361 7 125424215.814 7     -1514.754 7        43.231               
G29  23188574.904 7 121898829.478 7     -1241.161 7        43.123               
> 2025 01 08 14 21 06.0000000  0  5                                             
G12  24864132.406 6 130661887.375 6     -2995.823 6        41.576               
G25  22409581.245 7 117724749.177 7      1074.014 7        45.579               
G11  25595036.700 6 134502642.371 6     -1222.860 6        38.393               
G28  23857421.601 7 125425729.553 7     -1515.026 7        42.819               
G29  23188345.591 7 121900074.310 7     -1244.984 7        43.125               
> 2025 01 08 14 21 07.0000000  0  5                                             
G12  24864698.032 6 130664885.163 6     -2997.927 6        41.549               
G25  22409787.293 7 117723675.870 7      1074.285 7        45.313               
G11  25595268.783 6 134503862.484 6     -1223.527 6        39.154               
G28  23857134.999 7 125427242.738 7     -1511.955 7        42.811               
G29  23188111.006 7 121901318.583 7     -1242.490 7        43.035               
> 2025 01 08 14 21 08.0000000  0  5                                             
G12  24865269.376 7 130667882.918 7     -2997.387 7        42.372               
G25  22409993.984 7 117722602.375 7      1072.843 7        45.954               
G11  25595505.083 6 134505083.004 6     -1222.922 6        39.439               
G28  23856847.076 7 125428755.633 7     -1514.081 7        42.271               
G29  23187869.185 7 121902562.583 7     -1245.334 7        43.776               
> 2025 01 08 14 21 09.0000000  0  5                                             
G12  24865846.045 7 130670880.939 7     -2999.790 7        42.077               
G25  22410199.442 7 117721528.411 7      1073.454 7        45.522               
G11  25595729.250 6 134506304.188 6     -1222.765 6        39.085               
G28  23856563.155 6 125430267.960 6     -1511.297 6        41.892               
G29  23187640.569 7 121903806.005 7     -1243.286 7        43.395               
> 2025 01 08 14 21 10.0000000  0  5                                             
G12  24866417.497 6 130673879.544 6     -2996.163 6        41.625               
G25  22410402.863 7 117720453.655 7      1073.804 7        45.369               
G11  25595969.981 6 134507526.375 6     -1223.213 6        38.953               
G28  23856275.678 7 125431779.380 7     -1510.511 7        42.205               
G29  23187403.500 7 121905048.526 7     -1241.182 7        43.538               
> 2025 01 08 14 21 11.0000000  0  5                                             
G12  24866982.390 6 130676878.397 6     -3003.339 6        41.785               
G25  22410611.519 7 117719378.406 7      1074.293 7        45.818               
G11  25596211.535 6 134508749.249 6     -1220.407 6        38.342               
G28  23855982.447 7 125433290.231 7     -1510.424 7        42.841               
G29  23187172.043 7 121906290.469 7     -1241.631 7        43.285               
> 2025 01 08 14 21 12.0000000  0  5                                             
G12  24867559.863 6 130679877.597 6     -2998.816 6        41.454               
G25  22410819.443 7 117718302.623 7      1076.709 7        45.633               
G11  25596440.955 6 134509972.888 6     -1221.587 6        38.387               
G28  23855703.172 7 125434800.438 7     -1508.588 7        42.416               
G29  23186936.601 7 121907531.764 7     -1240.734 7        43.664               
> 2025 01 08 14 21 13.0000000  0  5                                             
G12  24868133.191 6 130682877.057 6     -2998.080 6        41.803               
G25  22411025.455 7 117717226.349 7      1077.448 7        45.250               
G11  25596683.777 6 134511197.214 6     -1224.384 6        38.744               
G28  23855422.861 7 125436310.054 7     -1507.060 7        42.406               
G29  23186701.158 7 121908772.477 7     -1242.622 7        43.815               
> 2025 01 08 14 21 14.0000000  0  5                                             
G12  24868700.282 6 130685876.580 6     -3000.161 6        41.646               
G25  22411235.649 7 117716149.820 7      1077.468 7        45.305               
G11  25596907.569 6 134512422.024 6     -1225.056 6        38.447               
G28  23855132.007 7 125437819.305 7     -1509.248 7        42.330               
G29  23186464.251 7 121910012.834 7     -1239.192 7        43.699               
> 2025 01 08 14 21 15.0000000  0  5                                             
G12  24869273.771 6 130688876.927 6     -3002.315 6        41.497               
G25  22411440.320 7 117715072.229 7      1077.108 7        45.300               
G11  25597141.939 6 134513648.088 6     -1223.624 6        38.004               
G28  23854844.941 7 125439327.412 7     -1508.312 7        42.435               
G29  23186229.988 7 121911252.014 7     -1235.436 7        43.933               
> 2025 01 08 14 21 16.0000000  0  5                                             
G12  24869851.941 6 130691877.742 6     -3001.836 6        41.585               
G25  22411645.350 7 117713993.962 7      1078.496 7        45.870               
G11  25597380.651 6 134514875.026 6     -1232.838 6        38.084               
G28  23854569.097 7 125440834.716 7     -1506.091 7        42.255               
G29  23185998.495 7 121912490.418 7     -1238.815 7        43.744               
> 2025 01 08 14 21 17.0000000  0  5                                             
G12  24870421.569 7 130694878.340 7     -3000.020 7        42.238               
G25  22411853.559 7 117712915.685 7      1078.764 7        45.732               
G11  25597619.668 6 134516102.184 6     -1231.825 6        38.267               
G28  23854279.118 7 125442341.946 7     -1506.007 7        42.717               
G29  23185767.430 7 121913728.728 7     -1237.586 7        43.638               
> 2025 01 08 14 21 18.0000000  0  5                                             
G12  24871000.865 7 130697878.964 7     -2998.206 7        42.098               
G25  22412060.197 7 117711837.191 7      1081.434 7        45.441               
G11  25597852.197 6 134517329.756 6     -1230.012 6        37.628               
G28  23853991.642 7 125443848.818 7     -1507.019 7        42.821               
G29  23185532.596 7 121914966.706 7     -1234.958 7        43.523               
> 2025 01 08 14 21 19.0000000  0  5                                             
G12  24871564.311 6 130700880.091 6     -3003.723 6        40.948               
G25  22412273.017 7 117710757.985 7      1081.517 7        44.999               
G11  25598087.925 6 134518558.278 6     -1235.218 6        38.278               
G28  23853711.634 7 125445354.889 7     -1501.938 7        42.319               
G29  23185300.334 7 121916203.864 7     -1238.183 7        43.642               
> 2025 01 08 14 21 20.0000000  0  5                                             
G12  24872140.141 6 130703881.668 6     -3003.908 6        41.464               
G25  22412474.919 7 117709678.117 7      1077.913 7        45.001               
G11  25598317.757 6 134519787.670 6     -1236.597 6        38.904               
G28  23853424.818 7 125446860.205 7     -1505.863 7        42.653               
G29  23185068.966 7 121917440.264 7     -1235.758 7        43.618               
> 2025 01 08 14 21 21.0000000  0  5                                             
G12  24872713.540 6 130706883.283 6     -3003.023 6        41.362               
G25  22412679.448 7 117708597.978 7      1080.005 7        44.875               
G11  25598553.324 6 134521017.514 6     -1230.232 6        37.966               
G28  23853134.876 7 125448365.136 7     -1505.118 7        42.247               
G29  23184830.415 7 121918676.299 7     -1235.981 7        43.630               
> 2025 01 08 14 21 22.0000000  0  5                                             
G12  24873286.260 6 130709885.307 6     -3001.936 6        41.832               
G25  22412888.015 7 117707517.219 7      1081.274 7        44.674               
G11  25598804.080 6 134522248.194 6     -1236.544 6        38.865               
G28  23852850.454 6 125449869.351 6     -1502.614 6        41.664               
G29  23184598.028 7 121919911.598 7     -1235.635 7        43.825               
> 2025 01 08 14 21 23.0000000  0  5                                             
G12  24873859.855 6 130712888.024 6     -2999.974 6        41.759               
G25  22413094.670 7 117706435.565 7      1081.284 7        45.368               
G11  25599031.553 6 134523479.973 6     -1231.574 6        38.195               
G28  23852569.357 7 125451372.587 7     -1505.311 7        42.402               
G29  23184370.055 7 121921145.914 7     -1230.057 7        43.735               
> 2025 01 08 14 21 24.0000000  0  5                                             
G12  24874433.773 6 130715890.723 6     -3004.477 6        41.402               
G25  22413304.167 7 117705353.699 7      1082.143 7        45.475               
G11  25599271.587 6 134524712.185 6     -1228.850 6        38.477               
G28  23852282.863 7 125452875.482 7     -1500.728 7        42.430               
G29  23184132.826 7 121922379.911 7     -1233.200 7        43.962               
> 2025 01 08 14 21 25.0000000  0  5                                             
G12  24875004.170 6 130718893.540 6     -3006.037 6        41.726               
G25  22413510.465 7 117704271.514 7      1082.782 7        45.656               
G11  25599509.978 6 134525944.935 6     -1234.473 6        38.099               
G28  23852004.553 7 125454377.973 7     -1502.153 7        42.565               
G29  23183897.687 7 121923613.491 7     -1234.040 7        43.541               
> 2025 01 08 14 21 26.0000000  0  5                                             
G12  24875579.016 7 130721896.661 7     -3005.968 7        42.036               
G25  22413717.263 7 117703188.792 7      1083.101 7        45.251               
G11  25599738.683 6 134527178.385 6     -1231.550 6        38.656               
G28  23851717.916 7 125455879.832 7     -1499.971 7        42.591               
G29  23183667.695 7 121924846.423 7     -1231.047 7        43.936               
> 2025 01 08 14 21 27.0000000  0  5                                             
G12  24876153.773 7 130724900.071 7     -3004.308 7        42.044               
G25  22413924.365 7 117702105.594 7      1083.234 7        44.526               
G11  25599970.069 6 134528412.556 6     -1233.195 6        38.445               
G28  23851435.263 7 125457381.082 7     -1495.612 7        42.424               
G29  23183435.023 7 121926078.786 7     -1231.335 7        43.742               
> 2025 01 08 14 21 28.0000000  0  5                                             
G12  24876723.080 6 130727903.782 6     -3004.877 6        41.956               
G25  22414136.649 7 117701021.865 7      1085.026 7        44.841               
G11  25600206.852 6 134529647.441 6     -1236.621 6        38.213               
G28  23851147.429 7 125458881.735 7     -1496.083 7        42.963               
G29  23183201.921 7 121927310.531 7     -1229.585 7        43.719               
> 2025 01 08 14 21 29.0000000  0  5                                             
G12  24877298.749 6 130730908.067 6     -3003.276 6        41.566               
G25  22414339.712 7 117699937.334 7      1082.529 7        44.659               
G11  25600454.338 6 134530883.357 6     -1236.364 6        38.397               
G28  23850871.138 7 125460381.474 7     -1501.278 7        43.061               
G29  23182968.623 7 121928541.356 7     -1233.026 7        44.093               
> 2025 01 08 14 21 30.0000000  0  5                                             
G12  24877873.363 6 130733912.652 6     -3006.091 6        41.576               
G25  22414550.924 7 117698852.319 7      1084.791 7        44.745               
G11  25600686.957 6 134532119.950 6     -1232.124 6        38.988               
G28  23850587.271 7 125461880.605 7     -1497.256 7        43.207               
G29  23182737.059 7 121929771.607 7     -1230.726 7        43.856               
> 2025 01 08 14 21 31.0000000  0  5                                             
G12  24878447.763 7 130736917.243 7     -3002.379 7        42.020               
G25  22414761.493 7 117697767.072 7      1084.874 7        44.481               
G11  25600923.507 6 134533356.979 6     -1240.545 6        38.594               
G28  23850298.168 7 125463379.441 7     -1497.206 7        42.796               
G29  23182501.992 7 121931001.522 7     -1231.765 7        43.668               
> 2025 01 08 14 21 32.0000000  0  5                                             
G12  24879020.179 6 130739921.914 6     -3004.730 6        41.438               
G25  22414969.274 7 117696681.519 7      1084.591 7        44.606               
G11  25601174.978 6 134534594.539 6     -1239.935 6        38.645               
G28  23850023.521 7 125464877.831 7     -1497.053 7        43.225               
G29  23182269.962 7 121932231.046 7     -1229.656 7        43.482               
> 2025 01 08 14 21 33.0000000  0  5                                             
G12  24879590.826 6 130742926.863 6     -3003.644 6        41.790               
G25  22415173.624 7 117695595.501 7      1085.147 7        44.787               
G11  25601399.877 6 134535832.766 6     -1239.255 6        38.858               
G28  23849734.794 7 125466375.676 7     -1502.790 7        42.585               
G29  23182042.240 7 121933459.976 7     -1225.665 7        43.609               
> 2025 01 08 14 21 34.0000000  0  5                                             
G12  24880170.426 6 130745931.881 6     -3008.235 6        41.552               
G25  22415382.531 7 117694509.186 7      1087.184 7        44.683               
G11  25601627.797 6 134537071.494 6     -1237.244 6        38.417               
G28  23849449.801 7 125467873.115 7     -1496.675 7        43.004               
G29  23181804.850 7 121934688.523 7     -1228.643 7        43.195               
> 2025 01 08 14 21 35.0000000  0  5                                             
G12  24880737.392 6 130748936.976 6     -3003.263 6        41.826               
G25  22415590.973 7 117693422.578 7      1085.829 7        44.611               
G11  25601879.035 6 134538310.733 6     -1236.751 6        38.296               
G28  23849172.116 7 125469370.158 7     -1498.594 7        42.930               
G29  23181575.465 7 121935916.664 7     -1225.136 7        43.308               
> 2025 01 08 14 21 36.0000000  0  5                                             
G12  24881315.437 7 130751942.590 7     -3005.791 7        42.225               
G25  22415806.044 7 117692335.233 7      1089.121 7        44.467               
G11  25602113.119 6 134539550.898 6     -1236.248 6        37.800               
G28  23848886.158 7 125470866.364 7     -1499.802 7        42.944               
G29  23181340.291 7 121937143.985 7     -1228.592 7        43.028               
> 2025 01 08 14 21 37.0000000  0  5                                             
G12  24881888.318 7 130754948.801 7     -3008.617 7        42.065               
G25  22416009.769 7 117691247.069 7      1087.107 7        44.451               
G11  25602353.672 6 134540792.090 6     -1238.542 6        38.235               
G28  23848605.507 7 125472361.651 7     -1497.186 7        42.673               
G29  23181112.014 7 121938370.371 7     -1224.896 7        43.400               
> 2025 01 08 14 21 38.0000000  0  5                                             
G12  24882458.715 6 130757955.031 6     -3005.627 6        41.801               
G25  22416219.980 7 117690158.688 7      1089.440 7        44.378               
G11  25602597.459 6 134542033.734 6     -1243.961 6        38.435               
G28  23848324.034 7 125473856.599 7     -1493.714 7        42.953               
G29  23180879.985 7 121939596.440 7     -1226.433 7        43.090               
> 2025 01 08 14 21 39.0000000  0  5                                             
G12  24883036.385 6 130760961.444 6     -3006.831 6        41.554               
G25  22416432.103 7 117689069.892 7      1090.824 7        44.344               
G11  25602838.101 6 134543275.956 6     -1244.993 6        38.490               
G28  23848038.737 7 125475351.052 7     -1493.604 7        42.976               
G29  23180649.296 7 121940821.998 7     -1228.182 7        43.551               
> 2025 01 08 14 21 40.0000000  0  5                                             
G12  24883608.515 7 130763967.408 7     -3001.049 7        42.394               
G25  22416639.170 7 117687981.334 7      1087.886 7        44.710               
G11  25603061.142 6 134544518.190 6     -1247.176 6        38.677               
G28  23847755.621 7 125476845.630 7     -1498.825 7        42.453               
G29  23180415.104 7 121942047.682 7     -1226.767 7        43.741               
> 2025 01 08 14 21 41.0000000  0  5                                             
G12  24884183.397 6 130766974.718 6     -3007.280 6        41.771               
G25  22416847.737 7 117686891.236 7      1092.617 7        44.681               
G11  25603301.052 6 134545762.129 6     -1246.825 6        38.708               
G28  23847472.683 7 125478338.561 7     -1492.630 7        42.584               
G29  23180185.130 7 121943271.731 7     -1224.300 7        43.467               
> 2025 01 08 14 21 42.0000000  0  5                                             
G12  24884756.618 6 130769983.370 6     -3011.722 6        41.724               
G25  22417056.125 7 117685799.567 7      1089.348 7        44.787               
G11  25603552.380 6 134547007.881 6     -1243.580 6        39.000               
G28  23847192.335 7 125479829.819 7     -1492.970 7        42.789               
G29  23179951.582 7 121944494.107 7     -1221.775 7        43.410               
> 2025 01 08 14 21 43.0000000  0  5                                             
G12  24885338.916 6 130772991.308 6     -3006.658 6        41.979               
G25  22417261.494 7 117684708.386 7      1091.369 7        44.503               
G11  25603791.360 6 134548253.328 6     -1248.575 6        39.444               
G28  23846909.415 7 125481321.474 7     -1487.965 7        42.755               
G29  23179725.431 7 121945716.881 7     -1226.716 7        43.295               
> 2025 01 08 14 21 44.0000000  0  5                                             
G12  24885908.616 7 130775997.696 7     -3006.288 7        42.101               
G25  22417475.333 7 117683618.542 7      1090.311 7        44.771               
G11  25604014.633 6 134549497.650 6     -1242.848 6        39.404               
G28  23846626.173 7 125482814.358 7     -1494.614 7        42.791               
G29  23179487.684 7 121946940.895 7     -1226.243 7        43.288               
> 2025 01 08 14 21 45.0000000  0  5                                             
G12  24886482.569 7 130779005.325 7     -3013.934 7        42.560               
G25  22417687.509 7 117682527.263 7      1093.637 7        44.835               
G11  25604255.401 6 134550743.625 6     -1247.434 6        38.959               
G28  23846345.790 7 125484305.688 7     -1490.083 7        43.007               
G29  23179262.373 7 121948163.345 7     -1219.352 7        43.092               
> 2025 01 08 14 21 46.0000000  0  5                                             
G12  24887061.418 7 130782012.705 7     -3011.576 7        42.640               
G25  22417897.417 7 117681436.003 7      1089.463 7        44.845               
G11  25604503.226 6 134551989.777 6     -1243.650 6        39.433               
G28  23846062.870 7 125485796.951 7     -1488.578 7        43.195               
G29  23179031.649 7 121949385.733 7     -1224.343 7        43.552               
> 2025 01 08 14 21 47.0000000  0  5                                             
G12  24887633.441 6 130785020.772 6     -3008.071 6        41.954               
G25  22418100.087 7 117680343.846 7      1091.620 7        44.660               
G11  25604730.895 6 134553237.052 6     -1243.007 6        39.076               
G28  23845783.595 7 125487287.208 7     -1492.461 7        42.830               
G29  23178801.782 7 121950607.108 7     -1219.183 7        43.918               
> 2025 01 08 14 21 48.0000000  0  5                                             
G12  24888206.394 6 130788030.281 6     -3012.696 6        41.636               
G25  22418314.391 7 117679250.049 7      1098.789 7        44.293               
G11  25604968.947 6 134554486.161 6     -1246.375 6        39.682               
G28  23845502.212 7 125488775.718 7     -1483.602 7        43.102               
G29  23178572.111 7 121951826.738 7     -1215.998 7        43.523               
> 2025 01 08 14 21 49.0000000  0  5                                             
G12  24888775.576 6 130791039.467 6     -3008.277 6        41.851               
G25  22418525.084 7 117678156.337 7      1090.787 7        44.304               
G11  25605210.911 6 134555735.386 6     -1248.950 6        38.939               
G28  23845220.328 7 125490264.211 7     -1488.696 7        42.956               
G29  23178343.245 7 121953046.357 7     -1219.336 7        43.660               
> 2025 01 08 14 21 50.0000000  0  5                                             
G12  24889350.744 6 130794045.764 6     -3006.155 6        41.781               
G25  22418735.921 7 117677065.310 7      1091.692 7        44.529               
G11  25605456.485 6 134556982.150 6     -1248.403 6        38.997               
G28  23844937.533 7 125491755.274 7     -1490.532 7        43.250               
G29  23178109.321 7 121954268.551 7     -1218.618 7        43.763               
> 2025 01 08 14 21 51.0000000  0  5                                             
G12  24889927.145 6 130797053.606 6     -3008.430 6        41.962               
G25  22418940.896 7 117675972.517 7      1091.749 7        44.283               
G11  25605694.447 6 134558230.883 6     -1248.935 6        38.456               
G28  23844656.632 7 125493244.470 7     -1489.517 7        43.503               
G29  23177882.242 7 121955488.878 7     -1218.988 7        43.825               
> 2025 01 08 14 21 52.0000000  0  5                                             
G12  24890501.955 6 130800062.244 6     -3009.219 6        41.561               
G25  22419153.413 7 117674878.718 7      1096.295 7        44.482               
G11  25605934.553 6 134559480.807 6     -1253.146 6        38.954               
G28  23844378.268 7 125494732.576 7     -1490.010 7        43.516               
G29  23177649.551 7 121956708.111 7     -1216.511 7        43.328               
> 2025 01 08 14 21 53.0000000  0  5                                             
G12  24891076.927 7 130803071.161 7     -3009.775 7        42.322               
G25  22419360.872 7 117673784.421 7      1095.570 7        45.109               
G11  25606175.338 6 134560731.466 6     -1254.518 6        38.807               
G28  23844091.309 7 125496220.073 7     -1487.368 7        43.110               
G29  23177419.202 7 121957926.729 7     -1216.285 7        43.672               
> 2025 01 08 14 21 54.0000000  0  5                                             
G12  24891649.665 7 130806080.334 7     -3011.297 7        42.080               
G25  22419573.138 7 117672689.663 7      1098.334 7        44.544               
G11  25606406.652 6 134561982.780 6     -1253.631 6        38.053               
G28  23843812.249 7 125497706.987 7     -1486.797 7        43.057               
G29  23177187.440 7 121959144.776 7     -1219.136 7        43.734               
> 2025 01 08 14 21 55.0000000  0  5                                             
G12  24892227.281 7 130809089.901 7     -3007.915 7        42.392               
G25  22419785.226 7 117671594.279 7      1096.011 7        44.942               
G11  25606656.854 6 134563234.930 6     -1253.302 6        38.413               
G28  23843537.155 7 125499193.190 7     -1484.858 7        43.558               
G29  23176955.322 7 121960362.117 7     -1217.522 7        43.704               
> 2025 01 08 14 21 56.0000000  0  5                                             
G12  24892795.427 7 130812099.432 7     -3010.076 7        42.173               
G25  22419996.902 7 117670498.725 7      1095.657 7        45.062               
G11  25606893.976 6 134564487.466 6     -1253.757 6        38.890               
G28  23843249.911 7 125500679.101 7     -1482.903 7        43.137               
G29  23176728.475 7 121961579.173 7     -1217.345 7        43.637               
> 2025 01 08 14 21 57.0000000  0  5                                             
G12  24893367.057 7 130815110.078 7     -3005.485 7        42.355               
G25  22420206.059 7 117669401.849 7      1096.402 7        44.760               
G11  25607138.907 6 134565741.496 6     -1255.191 6        38.514               
G28  23842973.548 7 125502163.593 7     -1486.114 7        43.381               
G29  23176500.341 7 121962794.797 7     -1217.693 7        44.117               
> 2025 01 08 14 21 58.0000000  0  5                                             
G12  24893946.406 7 130818120.684 7     -3010.247 7        42.154               
G25  22420414.197 7 117668304.794 7      1094.011 7        44.237               
G11  25607371.061 6 134566995.949 6     -1257.771 6        38.216               
G28  23842695.935 7 125503647.799 7     -1482.549 7        43.376               
G29  23176272.600 7 121964010.147 7     -1215.579 7        43.788               
> 2025 01 08 14 21 59.0000000  0  5                                             
G12  24894522.289 7 130821131.199 7     -3011.511 7        42.331               
G25  22420624.480 7 117667207.603 7      1096.582 7        44.342               
G11  25607614.312 6 134568250.727 6     -1257.668 6        38.034               
G28  23842410.924 7 125505131.775 7     -1486.129 7        42.810               
G29  23176042.233 7 121965225.273 7     -1215.152 7        43.613               
> 2025 01 08 14 22 00.0000000  0  5                                             
G12  24895091.257 6 130824142.159 6     -3009.369 6        41.535               
G25  22420835.942 7 117666109.746 7      1098.274 7        44.204               
G11  25607860.530 6 134569506.354 6     -1254.646 6        38.418               
G28  23842132.614 7 125506615.003 7     -1484.599 7        43.174               
G29  23175812.651 7 121966439.630 7     -1210.944 7        43.431               
> 2025 01 08 14 22 01.0000000  0  5                                             
G12  24895671.660 6 130827153.177 6     -3008.822 6        41.991               
G25  22421046.028 7 117665011.635 7      1098.523 7        44.629               
G11  25608102.601 6 134570762.469 6     -1257.561 6        38.732               
G28  23841853.053 7 125508097.834 7     -1482.194 7        42.942               
G29  23175587.645 7 121967653.622 7     -1211.274 7        43.622               
> 2025 01 08 14 22 02.0000000  0  5                                             
G12  24896247.329 7 130830164.130 7     -3006.898 7        42.483               
G25  22421257.544 7 117663913.374 7      1099.582 7        44.488               
G11  25608339.062 6 134572018.936 6     -1258.699 6        38.602               
G28  23841568.364 7 125509580.422 7     -1483.894 7        42.807               
G29  23175354.007 7 121968867.366 7     -1214.009 7        43.378               
> 2025 01 08 14 22 03.0000000  0  5                                             
G12  24896818.244 7 130833175.408 7     -3011.756 7        42.099               
G25  22421468.523 7 117662814.556 7      1098.477 7        44.209               
G11  25608580.741 6 134573276.180 6     -1255.852 6        38.377               
G28  23841289.536 7 125511062.356 7     -1480.972 7        42.530               
G29  23175126.016 7 121970080.446 7     -1212.724 7        43.737               
> 2025 01 08 14 22 04.0000000  0  5                                             
G12  24897395.431 6 130836187.146 6     -3013.914 6        41.514               
G25  22421676.733 7 117661715.065 7      1101.370 7        44.512               
G11  25608823.205 6 134574534.282 6     -1259.505 6        38.051               
G28  23841008.671 7 125512543.502 7     -1480.080 7        42.617               
G29  23174897.829 7 121971292.749 7     -1212.607 7        43.679               
> 2025 01 08 14 22 05.0000000  0  5                                             
G12  24897968.759 7 130839199.163 7     -3013.327 7        42.296               
G25  22421890.304 7 117660615.102 7      1097.830 7        44.428               
G11  25609054.466 6 134575793.097 6     -1256.533 6        38.379               
G28  23840730.486 7 125514024.060 7     -1476.408 7        42.799               
G29  23174667.033 7 121972504.465 7     -1211.975 7        43.640               
> 2025 01 08 14 22 06.0000000  0  5                                             
G12  24898543.802 6 130842210.866 6     -3008.212 6        41.643               
G25  22422100.747 7 117659515.213 7      1098.122 7        44.116               
G11  25609302.703 6 134577052.014 6     -1263.219 6        38.313               
G28  23840448.781 7 125515504.593 7     -1479.167 7        42.845               
G29  23174438.577 7 121973716.157 7     -1210.884 7        43.730               
> 2025 01 08 14 22 07.0000000  0  5                                             
G12  24899127.690 6 130845222.747 6     -3011.707 6        41.864               
G25  22422314.997 7 117658414.942 7      1098.938 7        43.808               
G11  25609545.203 6 134578311.546 6     -1262.031 6        38.250               
G28  23840168.273 7 125516984.649 7     -1480.325 7        43.117               
G29  23174211.658 7 121974927.372 7     -1209.823 7        43.873               
> 2025 01 08 14 22 08.0000000  0  5                                             
G12  24899690.386 6 130848234.680 6     -3007.850 6        41.741               
G25  22422523.135 7 117657314.405 7      1100.546 7        44.076               
G11  25609778.251 6 134579571.541 6     -1261.173 6        37.657               
G28  23839881.385 7 125518464.318 7     -1480.906 7        42.790               
G29  23173979.325 7 121976138.212 7     -1210.757 7        44.004               
> 2025 01 08 14 22 09.0000000  0  5                                             
G12  24900269.860 6 130851246.604 6     -3009.228 6        41.022               
G25  22422733.418 7 117656213.634 7      1102.636 7        43.967               
G11  25610029.454 6 134580831.963 6     -1258.318 6        38.137               
G28  23839602.468 7 125519943.667 7     -1483.555 7        42.471               
G29  23173751.031 7 121977348.719 7     -1214.810 7        43.426               
> 2025 01 08 14 22 11.0000000  0  5                                             
G12  24901419.107 7 130857270.900 7     -3014.719 7        42.010               
G25  22423160.005 7 117654011.050 7      1102.498 7        44.664               
G11  25610505.306 6 134583354.476 6     -1261.954 6        37.839               
G28  23839044.007 7 125522900.988 7     -1480.971 7        43.186               
G29  23173294.513 7 121979768.374 7     -1210.967 7        43.500               
> 2025 01 08 14 22 12.0000000  0  5                                             
G12  24901986.001 6 130860284.302 6     -3014.148 6        41.105               
G25  22423373.111 7 117652908.162 7      1103.717 7        44.459               
G11  25610747.914 6 134584617.634 6     -1266.862 6        38.177               
G28  23838767.198 7 125524377.906 7     -1477.183 7        42.340               
G29  23173068.202 7 121980976.469 7     -1204.537 7        43.143               
> 2025 01 08 14 22 13.0000000  0  5                                             
G12  24902569.621 6 130863298.694 6     -3014.895 6        41.489               
G25  22423582.232 7 117651804.090 7      1103.350 7        44.429               
G11  25610995.453 6 134585882.210 6     -1267.204 6        38.361               
G28  23838492.909 7 125525853.505 7     -1476.799 7        42.296               
G29  23172842.552 7 121982183.251 7     -1207.209 7        43.600               
> 2025 01 08 14 22 14.0000000  0  5                                             
G12  24903140.519 6 130866313.392 6     -3015.488 6        41.672               
G25  22423794.284 7 117650699.483 7      1107.876 7        44.366               
G11  25611237.150 6 134587147.477 6     -1261.121 6        38.896               
G28  23838218.047 7 125527328.479 7     -1470.176 7        42.524               
G29  23172613.667 7 121983389.424 7     -1206.528 7        43.420               
> 2025 01 08 14 22 15.0000000  0  5                                             
G12  24903715.651 6 130869328.216 6     -3014.079 6        41.397               
G25  22424007.372 7 117649594.558 7      1106.731 7        44.105               
G11  25611481.723 6 134588413.317 6     -1269.041 6        38.530               
G28  23837938.451 7 125528803.032 7     -1470.376 7        42.865               
G29  23172384.962 7 121984595.151 7     -1204.462 7        42.994               
> 2025 01 08 14 22 16.0000000  0  5                                             
G12  24904294.125 7 130872342.714 7     -3017.418 7        42.370               
G25  22424219.638 7 117648489.730 7      1105.614 7        43.998               
G11  25611728.512 6 134589679.236 6     -1264.366 6        39.722               
G28  23837653.297 7 125530277.549 7     -1475.517 7        42.913               
G29  23172157.418 7 121985800.870 7     -1204.971 7        43.521               
> 2025 01 08 14 22 17.0000000  0  5                                             
G12  24904875.083 6 130875357.298 6     -3013.034 6        41.694               
G25  22424428.634 7 117647384.594 7      1106.899 7        44.421               
G11  25611968.582 6 134590945.695 6     -1264.366 6        38.922               
G28  23837376.274 7 125531751.680 7     -1471.285 7        43.008               
G29  23171927.390 7 121987006.200 7     -1204.366 7        43.438               
> 2025 01 08 14 22 18.0000000  0  5                                             
G12  24905448.571 6 130878372.324 6     -3017.517 6        41.516               
G25  22424644.099 7 117646278.794 7      1106.317 7        44.476               
G11  25612200.737 6 134592212.960 6     -1261.907 6        38.328               
G28  23837097.463 7 125533225.047 7     -1468.370 7        42.921               
G29  23171699.363 7 121988210.772 7     -1206.943 7        43.488               
> 2025 01 08 14 22 19.0000000  0  5                                             
G12  24906016.681 6 130881387.782 6     -3014.256 6        41.816               
G25  22424856.758 7 117645172.358 7      1108.172 7        44.468               
G11  25612457.854 6 134593481.118 6     -1265.856 6        38.524               
G28  23836819.761 7 125534697.665 7     -1469.670 7        43.046               
G29  23171475.232 7 121989414.605 7     -1202.206 7        43.518               
> 2025 01 08 14 22 20.0000000  0  5                                             
G12  24906601.445 6 130884403.547 6     -3015.660 6        41.847               
G25  22425069.578 7 117644065.417 7      1106.233 7        44.575               
G11  25612701.427 6 134594750.017 6     -1261.538 6        38.346               
G28  23836542.416 6 125536169.649 6     -1470.155 6        41.980               
G29  23171247.706 7 121990617.799 7     -1199.710 7        43.752               
> 2025 01 08 14 22 21.0000000  0  5                                             
G12  24907168.054 6 130887419.690 6     -3012.285 6        41.504               
G25  22425279.164 7 117642957.836 7      1107.516 7        44.214               
G11  25612937.244 6 134596019.703 6     -1269.976 6        38.509               
G28  23836259.263 7 125537640.924 7     -1470.954 7        42.944               
G29  23171022.770 7 121991820.295 7     -1201.738 7        43.695               
> 2025 01 08 14 22 22.0000000  0  5                                             
G12  24907749.101 6 130890436.194 6     -3017.032 6        41.825               
G25  22425489.804 7 117641849.709 7      1109.761 7        44.455               
G11  25613188.054 6 134597290.174 6     -1270.783 6        39.028               
G28  23835980.488 7 125539111.530 7     -1471.342 7        42.875               
G29  23170792.296 7 121993022.118 7     -1201.378 7        43.520               
> 2025 01 08 14 22 23.0000000  0  5                                             
G12  24908326.109 6 130893453.264 6     -3015.065 6        41.870               
G25  22425701.373 7 117640740.804 7      1109.843 7        44.368               
G11  25613418.457 6 134598561.619 6     -1268.238 6        38.963               
G28  23835708.361 7 125540581.247 7     -1471.019 7        42.957               
G29  23170567.879 7 121994223.057 7     -1200.764 7        43.218               
> 2025 01 08 14 22 24.0000000  0  5                                             
G12  24908901.903 6 130896470.657 6     -3018.560 6        41.088               
G25  22425919.250 7 117639631.353 7      1109.139 7        44.300               
G11  25613676.343 6 134599833.807 6     -1275.461 6        38.909               
G28  23835427.621 7 125542050.319 7     -1464.970 7        42.756               
G29  23170338.583 7 121995423.360 7     -1202.106 7        43.054               
> 2025 01 08 14 22 25.0000000  0  5                                             
G12  24909482.718 6 130899488.208 6     -3019.512 6        41.364               
G25  22426132.017 7 117638521.543 7      1110.305 7        44.150               
G11  25613919.218 6 134601106.587 6     -1270.177 6        38.836               
G28  23835153.439 7 125543518.910 7     -1470.250 7        43.135               
G29  23170116.918 7 121996623.162 7     -1200.598 7        43.698               
> 2025 01 08 14 22 26.0000000  0  5                                             
G12  24910058.886 6 130902505.954 6     -3017.803 6        41.965               
G25  22426349.304 7 117637411.297 7      1109.518 7        43.937               
G11  25614159.593 6 134602380.001 6     -1275.037 6        38.968               
G28  23834876.612 7 125544986.955 7     -1469.548 7        43.365               
G29  23169887.909 7 121997822.446 7     -1196.832 7        43.325               
> 2025 01 08 14 22 27.0000000  0  5                                             
G12  24910629.623 6 130905523.892 6     -3015.576 6        41.739               
G25  22426558.264 7 117636300.659 7      1109.530 7        44.274               
G11  25614403.844 6 134603654.002 6     -1272.982 6        38.719               
G28  23834600.785 7 125546454.513 7     -1462.212 7        42.768               
G29  23169661.723 7 121999021.230 7     -1200.024 7        43.484               
> 2025 01 08 14 22 28.0000000  0  5                                             
G12  24911209.348 6 130908541.828 6     -3017.635 6        41.577               
G25  22426770.513 7 117635189.820 7      1112.129 7        43.660               
G11  25614655.494 6 134604928.420 6     -1273.227 6        38.767               
G28  23834321.242 7 125547921.759 7     -1467.259 7        43.229               
G29  23169440.611 7 122000219.710 7     -1195.704 7        43.617               
> 2025 01 08 14 22 29.0000000  0  5                                             
G12  24911782.282 6 130911559.803 6     -3018.429 6        41.712               
G25  22426986.906 7 117634078.711 7      1110.991 7        44.375               
G11  25614889.399 6 134606203.324 6     -1276.207 6        38.673               
G28  23834037.482 7 125549388.627 7     -1468.446 7        42.649               
G29  23169206.992 7 122001417.824 7     -1196.817 7        43.826               
> 2025 01 08 14 22 30.0000000  0  5                                             
G12  24912354.806 6 130914578.371 6     -3014.792 6        41.817               
G25  22427198.172 7 117632966.790 7      1112.448 7        44.855               
G11  25615139.619 6 134607479.218 6     -1276.938 6        38.775               
G28  23833763.675 7 125550854.577 7     -1466.007 7        42.905               
G29  23168983.272 7 122002615.012 7     -1192.651 7        43.500               
> 2025 01 08 14 22 31.0000000  0  5                                             
G12  24912939.962 6 130917597.254 6     -3016.488 6        41.386               
G25  22427414.459 7 117631854.341 7      1113.053 7        44.633               
G11  25615386.015 6 134608755.850 6     -1271.647 6        38.556               
G28  23833485.115 7 125552319.899 7     -1467.475 7        42.819               
G29  23168756.371 7 122003811.587 7     -1192.616 7        43.429               
> 2025 01 08 14 22 32.0000000  0  5                                             
G12  24913506.661 6 130920616.383 6     -3022.137 6        41.340               
G25  22427630.209 7 117630741.459 7      1114.161 7        44.321               
G11  25615632.250 6 134610033.141 6     -1276.823 6        38.787               
G28  23833211.505 7 125553784.663 7     -1465.429 7        42.952               
G29  23168530.721 7 122005007.598 7     -1194.028 7        43.105               
> 2025 01 08 14 22 33.0000000  0  5                                             
G12  24914090.906 6 130923635.753 6     -3017.528 6        41.651               
G25  22427841.010 7 117629628.075 7      1115.519 7        44.545               
G11  25615866.692 6 134611311.124 6     -1276.606 6        38.841               
G28  23832929.960 7 125555248.833 7     -1461.892 7        42.705               
G29  23168309.252 7 122006203.037 7     -1196.835 7        43.415               
> 2025 01 08 14 22 34.0000000  0  5                                             
G12  24914668.951 6 130926655.293 6     -3020.142 6        41.819               
G25  22428056.975 7 117628514.349 7      1113.111 7        44.511               
G11  25616112.587 6 134612589.658 6     -1274.582 6        38.480               
G28  23832659.781 7 125556712.542 7     -1463.951 7        42.729               
G29  23168074.149 7 122007398.008 7     -1194.099 7        43.403               
> 2025 01 08 14 22 35.0000000  0  5                                             
G12  24915245.049 6 130929675.050 6     -3018.000 6        41.969               
G25  22428265.935 7 117627400.158 7      1115.208 7        44.341               
G11  25616370.866 6 134613868.874 6     -1281.241 6        38.664               
G28  23832381.578 7 125558175.686 7     -1463.812 7        42.125               
G29  23167854.736 7 122008592.415 7     -1194.376 7        43.627               
> 2025 01 08 14 22 36.0000000  0  5                                             
G12  24915819.359 6 130932695.370 6     -3021.663 6        41.553               
G25  22428487.118 7 117626285.203 7      1115.189 7        44.706               
G11  25616604.843 6 134615149.029 6     -1277.502 6        38.977               
G28  23832103.268 7 125559637.946 7     -1463.624 7        42.391               
G29  23167629.818 7 122009785.953 7     -1191.809 7        43.404               
> 2025 01 08 14 22 37.0000000  0  5                                             
G12  24916389.184 6 130935715.978 6     -3020.587 6        40.615               
G25  22428697.848 7 117625169.731 7      1114.870 7        43.909               
G11  25616847.987 6 134616429.961 6     -1275.976 6        38.761               
G28  23831830.872 7 125561099.593 7     -1461.223 7        42.967               
G29  23167401.023 7 122010978.887 7     -1194.540 7        43.168               
> 2025 01 08 14 22 38.0000000  0  5                                             
G12  24916971.839 6 130938736.116 6     -3021.211 6        41.130               
G25  22428911.954 7 117624054.518 7      1116.851 7        43.838               
G11  25617098.153 6 134617710.769 6     -1281.818 6        38.498               
G28  23831551.258 7 125562561.388 7     -1458.951 7        42.597               
G29  23167174.230 7 122012171.955 7     -1191.032 7        42.603               
> 2025 01 08 14 22 39.0000000  0  5                                             
G12  24917551.528 6 130941756.824 6     -3023.107 6        41.172               
G25  22429121.826 7 117622938.521 7      1114.593 7        44.377               
G11  25617341.744 6 134618992.593 6     -1279.811 6        39.343               
G28  23831278.094 7 125564022.296 7     -1461.655 7        43.095               
G29  23166950.241 7 122013364.136 7     -1194.083 7        43.289               
> 2025 01 08 14 22 40.0000000  0  5                                             
G12  24918120.853 6 130944778.059 6     -3022.787 6        41.436               
G25  22429339.042 7 117621821.790 7      1118.051 7        44.437               
G11  25617594.787 6 134620275.398 6     -1284.610 6        39.415               
G28  23830997.747 7 125565482.361 7     -1460.269 7        43.026               
G29  23166725.092 7 122014555.472 7     -1188.560 7        42.945               
> 2025 01 08 14 22 41.0000000  0  5                                             
G12  24918698.934 6 130947799.775 6     -3024.493 6        40.941               
G25  22429556.704 7 117620704.348 7      1120.003 7        44.903               
G11  25617833.589 6 134621559.088 6     -1283.235 6        39.086               
G28  23830728.139 7 125566941.603 7     -1456.254 7        43.116               
G29  23166503.444 7 122015746.012 7     -1190.381 7        43.413               
> 2025 01 08 14 22 42.0000000  0  5                                             
G12  24919279.570 6 130950821.069 6     -3021.789 6        41.645               
G25  22429769.274 7 117619587.106 7      1118.122 7        44.810               
G11  25618083.326 6 134622842.778 6     -1285.642 6        38.458               
G28  23830454.225 7 125568400.949 7     -1459.034 7        43.715               
G29  23166277.705 7 122016936.650 7     -1192.229 7        43.293               
> 2025 01 08 14 22 43.0000000  0  5                                             
G12  24919852.755 6 130953842.289 6     -3018.940 6        41.341               
G25  22429987.151 7 117618469.744 7      1116.928 7        44.740               
G11  25618327.971 6 134624126.816 6     -1285.613 6        38.957               
G28  23830174.146 7 125569860.038 7     -1457.004 7        42.870               
G29  23166052.520 7 122018127.025 7     -1189.528 7        43.509               
> 2025 01 08 14 22 44.0000000  0  5                                             
G12  24920431.497 6 130956864.532 6     -3022.946 6        41.283               
G25  22430196.898 7 117617351.132 7      1120.002 7        44.218               
G11  25618571.436 6 134625412.286 6     -1286.425 6        38.008               
G28  23829900.821 7 125571317.783 7     -1458.595 7        43.064               
G29  23165827.692 7 122019316.076 7     -1187.055 7        42.976               
> 2025 01 08 14 22 45.0000000  0  5                                             
G12  24921005.628 6 130959886.582 6     -3023.372 6        41.432               
G25  22430412.184 7 117616232.516 7      1119.495 7        44.432               
G11  25618823.586 6 134626697.989 6     -1286.082 6        38.462               
G28  23829628.212 7 125572775.404 7     -1459.126 7        43.510               
G29  23165607.509 7 122020505.019 7     -1189.967 7        43.795               
> 2025 01 08 14 22 46.0000000  0  5                                             
G12  24921590.946 6 130962909.048 6     -3023.830 6        41.485               
G25  22430625.433 7 117615113.254 7      1119.911 7        44.415               
G11  25619070.768 6 134627984.545 6     -1281.556 6        39.341               
G28  23829349.937 7 125574232.281 7     -1460.557 7        43.028               
G29  23165382.806 7 122021693.202 7     -1189.000 7        43.072               
> 2025 01 08 14 22 47.0000000  0  5                                             
G12  24922161.790 6 130965932.042 6     -3022.040 6        41.705               
G25  22430843.453 7 117613993.260 7      1118.150 7        44.147               
G11  25619314.323 6 134629272.008 6     -1282.913 6        38.899               
G28  23829074.808 7 125575688.314 7     -1454.347 7        43.473               
G29  23165154.315 7 122022880.563 7     -1185.233 7        43.153               
> 2025 01 08 14 22 48.0000000  0  5                                             
G12  24922743.177 6 130968955.354 6     -3026.889 6        41.500               
G25  22431053.253 7 117612872.706 7      1122.817 7        44.095               
G11  25619561.077 6 134630560.234 6     -1287.592 6        38.307               
G28  23828796.141 7 125577143.706 7     -1454.220 7        43.222               
G29  23164930.881 7 122024067.268 7     -1183.849 7        43.628               
> 2025 01 08 14 22 49.0000000  0  5                                             
G12  24923312.930 6 130971978.572 6     -3022.021 6        41.798               
G25  22431271.291 7 117611752.011 7      1119.490 7        44.309               
G11  25619806.972 6 134631848.843 6     -1286.260 6        38.770               
G28  23828524.263 7 125578598.811 7     -1456.225 7        42.953               
G29  23164707.161 7 122025253.714 7     -1186.299 7        43.337               
> 2025 01 08 14 22 50.0000000  0  5                                             
G12  24923901.161 6 130975002.784 6     -3022.611 6        41.528               
G25  22431486.648 7 117610630.167 7      1119.488 7        44.325               
G11  25620057.013 6 134633138.768 6     -1291.599 6        38.828               
G28  23828250.492 7 125580052.679 7     -1452.267 7        43.345               
G29  23164486.800 7 122026438.903 7     -1184.142 7        43.939               
> 2025 01 08 14 22 51.0000000  0  5                                             
G12  24924475.596 7 130978026.972 7     -3023.994 7        42.082               
G25  22431699.093 7 117609508.105 7      1123.194 7        44.099               
G11  25620297.441 6 134634429.137 6     -1294.896 6        38.820               
G28  23827976.685 7 125581506.199 7     -1452.787 7        43.476               
G29  23164263.205 7 122027623.782 7     -1183.430 7        43.498               
> 2025 01 08 14 22 52.0000000  0  5                                             
G12  24925057.983 6 130981051.205 6     -3024.930 6        41.937               
G25  22431914.879 7 117608385.753 7      1122.236 7        44.340               
G11  25620553.987 6 134635720.009 6     -1288.460 6        38.684               
G28  23827696.713 7 125582959.335 7     -1455.222 7        43.704               
G29  23164037.573 7 122028808.263 7     -1182.631 7        43.715               
> 2025 01 08 14 22 53.0000000  0  5                                             
G12  24925629.899 6 130984075.526 6     -3025.055 6        41.889               
G25  22432133.221 7 117607263.122 7      1122.379 7        44.137               
G11  25620793.914 6 134637011.346 6     -1294.171 6        37.819               
G28  23827427.731 7 125584412.086 7     -1450.053 7        43.235               
G29  23163820.178 7 122029992.368 7     -1181.783 7        43.694               
> 2025 01 08 14 22 54.0000000  0  5                                             
G12  24926206.122 6 130987100.031 6     -3023.930 6        41.548               
G25  22432346.077 7 117606140.090 7      1121.892 7        44.268               
G11  25621046.904 6 134638303.306 6     -1295.107 6        37.426               
G28  23827150.850 7 125585864.317 7     -1449.906 7        43.255               
G29  23163592.080 7 122031175.954 7     -1181.888 7        43.502               
> 2025 01 08 14 22 55.0000000  0  5                                             
G12  24926788.384 6 130990124.688 6     -3023.330 6        41.798               
G25  22432565.365 7 117605016.695 7      1123.256 7        44.275               
G11  25621294.336 6 134639595.829 6     -1296.726 6        38.177               
G28  23826875.149 7 125587316.092 7     -1451.502 7        43.499               
G29  23163369.468 7 122032359.078 7     -1181.793 7        43.738               
> 2025 01 08 14 22 56.0000000  0  5                                             
G12  24927360.085 6 130993149.622 6     -3026.485 6        41.891               
G25  22432778.203 7 117603892.795 7      1121.335 7        44.342               
G11  25621548.326 6 134640889.063 6     -1292.023 6        38.741               
G28  23826598.894 7 125588767.225 7     -1454.620 7        43.150               
G29  23163149.322 7 122033541.586 7     -1181.970 7        43.735               
> 2025 01 08 14 22 57.0000000  0  5                                             
G12  24927937.022 7 130996174.728 7     -3024.565 7        42.000               
G25  22432991.130 7 117602768.508 7      1124.754 7        44.009               
G11  25621785.198 6 134642182.891 6     -1295.404 6        38.179               
G28  23826325.194 7 125590217.890 7     -1448.191 7        42.934               
G29  23162922.939 7 122034723.599 7     -1182.590 7        43.947               
> 2025 01 08 14 22 58.0000000  0  5                                             
G12  24928514.549 7 130999199.782 7     -3029.854 7        42.260               
G25  22433209.258 7 117601644.072 7      1125.298 7        44.004               
G11  25622037.616 6 134643477.054 6     -1297.114 6        38.239               
G28  23826050.369 7 125591668.277 7     -1449.978 7        43.568               
G29  23162704.526 7 122035905.379 7     -1180.444 7        43.743               
> 2025 01 08 14 22 59.0000000  0  5                                             
G12  24929087.001 6 131002224.923 6     -3025.658 6        41.780               
G25  22433422.596 7 117600519.328 7      1123.409 7        44.300               
G11  25622292.500 6 134644771.769 6     -1297.100 6        38.556               
G28  23825779.188 7 125593118.223 7     -1448.122 7        43.020               
G29  23162476.696 7 122037086.717 7     -1182.975 7        44.021               
> 2025 01 08 14 23 00.0000000  0  5                                             
G12  24929670.139 6 131005251.136 6     -3025.365 6        41.687               
G25  22433643.707 7 117599393.284 7      1128.196 7        43.998               
G11  25622534.732 6 134646067.964 6     -1301.061 6        38.912               
G28  23825503.612 7 125594566.807 7     -1442.749 7        43.068               
G29  23162255.549 7 122038266.661 7     -1176.583 7        43.560               
> 2025 01 08 14 23 01.0000000  0  5                                             
G12  24930245.361 7 131008277.316 7     -3024.163 7        42.002               
G25  22433860.583 7 117598267.049 7      1126.592 7        44.187               
G11  25622782.111 6 134647364.549 6     -1298.505 6        38.562               
G28  23825228.590 7 125596015.076 7     -1453.172 7        43.208               
G29  23162032.293 7 122039446.327 7     -1178.635 7        44.157               
> 2025 01 08 14 23 02.0000000  0  5                                             
G12  24930824.853 7 131011303.551 7     -3025.837 7        42.080               
G25  22434074.368 7 117597140.573 7      1126.847 7        43.798               
G11  25623036.602 6 134648661.592 6     -1296.738 6        38.457               
G28  23824957.606 7 125597462.980 7     -1447.488 7        43.135               
G29  23161807.912 7 122040625.628 7     -1180.468 7        44.126               
> 2025 01 08 14 23 03.0000000  0  5                                             
G12  24931399.878 6 131014330.466 6     -3025.531 6        41.832               
G25  22434292.031 7 117596013.154 7      1127.520 7        44.256               
G11  25623282.247 6 134649959.763 6     -1295.013 6        38.660               
G28  23824684.210 7 125598909.842 7     -1447.148 7        42.960               
G29  23161587.212 7 122041803.889 7     -1176.612 7        43.727               
> 2025 01 08 14 23 04.0000000  0  5                                             
G12  24931976.333 6 131017357.398 6     -3026.689 6        41.059               
G25  22434505.351 7 117594885.573 7      1127.867 7        44.438               
G11  25623525.355 6 134651258.329 6     -1297.355 6        38.380               
G28  23824411.886 7 125600356.420 7     -1444.582 7        43.432               
G29  23161363.045 7 122042981.890 7     -1178.794 7        43.394               
> 2025 01 08 14 23 05.0000000  0  5                                             
G12  24932553.145 6 131020384.191 6     -3030.165 6        41.733               
G25  22434724.676 7 117593757.869 7      1127.568 7        44.384               
G11  25623770.268 6 134652557.228 6     -1301.614 6        38.523               
G28  23824130.449 7 125601802.760 7     -1444.107 7        43.028               
G29  23161137.913 7 122044159.650 7     -1174.976 7        43.856               
> 2025 01 08 14 23 06.0000000  0  5                                             
G12  24933128.134 6 131023411.408 6     -3024.924 6        41.452               
G25  22434938.818 7 117592629.517 7      1126.638 7        44.169               
G11  25624026.581 6 134653856.968 6     -1296.838 6        38.009               
G28  23823861.914 7 125603248.370 7     -1445.805 7        42.693               
G29  23160918.839 7 122045336.679 7     -1175.096 7        44.294               
> 2025 01 08 14 23 07.0000000  0  5                                             
G12  24933714.471 6 131026439.730 6     -3026.544 6        41.943               
G25  22435157.249 7 117591499.860 7      1132.085 7        44.366               
G11  25624273.156 6 134655158.204 6     -1298.513 6        37.947               
G28  23823589.911 7 125604692.544 7     -1438.571 7        42.684               
G29  23160695.011 7 122046512.281 7     -1174.777 7        43.968               
> 2025 01 08 14 23 08.0000000  0  5                                             
G12  24934282.045 6 131029467.664 6     -3029.322 6        41.329               
G25  22435374.447 7 117590370.369 7      1130.123 7        44.212               
G11  25624532.971 6 134656459.508 6     -1303.974 6        38.075               
G28  23823312.316 7 125606136.770 7     -1444.288 7        42.458               
G29  23160475.758 7 122047687.940 7     -1174.429 7        43.884               
> 2025 01 08 14 23 09.0000000  0  5                                             
G12  24934856.945 6 131032495.158 6     -3027.825 6        41.380               
G25  22435590.770 7 117589241.096 7      1130.441 7        44.195               
G11  25624773.453 6 134657760.773 6     -1305.260 6        38.361               
G28  23823042.404 7 125607581.117 7     -1443.158 7        42.721               
G29  23160254.915 7 122048863.735 7     -1174.665 7        44.202               
> 2025 01 08 14 23 10.0000000  0  5                                             
G12  24935444.317 7 131035523.814 7     -3025.930 7        42.125               
G25  22435809.433 7 117588110.444 7      1132.594 7        43.802               
G11  25625028.354 6 134659063.627 6     -1305.084 6        38.030               
G28  23822769.366 7 125609023.984 7     -1442.184 7        42.210               
G29  23160031.338 7 122050038.050 7     -1176.554 7        43.350               
> 2025 01 08 14 23 11.0000000  0  5                                             
G12  24936016.233 7 131038552.686 7     -3029.055 7        42.244               
G25  22436024.379 7 117586979.365 7      1128.547 7        44.433               
G11  25625276.269 6 134660367.117 6     -1300.066 6        38.051               
G28  23822495.112 7 125610466.298 7     -1441.911 7        42.978               
G29  23159807.510 7 122051211.802 7     -1173.417 7        43.386               
> 2025 01 08 14 23 12.0000000  0  5                                             
G12  24936595.904 6 131041582.172 6     -3028.421 6        41.689               
G25  22436239.880 7 117585847.471 7      1133.253 7        43.937               
G11  25625517.537 6 134661671.621 6     -1303.194 6        37.420               
G28  23822227.327 7 125611907.690 7     -1437.454 7        42.622               
G29  23159586.078 7 122052384.639 7     -1172.360 7        43.879               
> 2025 01 08 14 23 13.0000000  0  5                                             
G12  24937176.237 6 131044611.696 6     -3027.051 6        41.550               
G25  22436456.542 7 117584715.296 7      1131.261 7        43.684               
G11  25625773.046 6 134662976.618 6     -1303.942 6        37.608               
G28  23821954.199 7 125613348.684 7     -1442.013 7        42.864               
G29  23159364.770 7 122053557.115 7     -1170.587 7        43.807               
> 2025 01 08 14 23 14.0000000  0  5                                             
G12  24937757.301 6 131047641.810 6     -3028.476 6        41.622               
G25  22436669.916 7 117583582.338 7      1133.736 7        44.215               
G11  25626011.043 6 134664282.613 6     -1306.110 6        37.558               
G28  23821672.762 7 125614788.777 7     -1441.310 7        42.551               
G29  23159144.266 7 122054728.666 7     -1170.008 7        43.559               
> 2025 01 08 14 23 15.0000000  0  5                                             
G12  24938338.098 6 131050672.167 6     -3041.440 6        41.672               
G25  22436891.170 7 117582448.916 7      1133.406 7        44.127               
G11  25626272.235 6 134665589.257 6     -1305.626 6        37.355               
G28  23821413.661 7 125616228.299 7     -1440.536 7        42.974               
G29  23158923.423 7 122055899.662 7     -1172.180 7        43.745               
> 2025 01 08 14 23 16.0000000  0  5                                             
G12  24938910.497 6 131053702.992 6     -3030.124 6        41.920               
G25  22437110.137 7 117581314.777 7      1136.019 7        43.901               
G11  25626515.629 6 134666896.828 6     -1303.948 6        38.173               
G28  23821138.156 7 125617666.994 7     -1437.288 7        42.741               
G29  23158700.078 7 122057069.854 7     -1168.196 7        43.287               
> 2025 01 08 14 23 17.0000000  0  5                                             
G12  24939493.259 6 131056733.601 6     -3024.815 6        41.438               
G25  22437331.659 7 117580180.677 7      1133.845 7        43.729               
G11  25626771.513 6 134668204.589 6     -1304.381 6        38.130               
G28  23820860.364 7 125619105.611 7     -1440.063 7        42.643               
G29  23158481.004 7 122058239.954 7     -1170.523 7        43.475               
> 2025 01 08 14 23 18.0000000  0  5                                             
G12  24940070.375 6 131059764.341 6     -3030.894 6        41.587               
G25  22437543.032 7 117579046.218 7      1133.569 7        43.922               
G11  25627023.770 6 134669512.872 6     -1305.587 6        38.454               
G28  23820594.241 7 125620543.766 7     -1436.765 7        42.935               
G29  23158265.199 7 122059409.611 7     -1166.022 7        43.499               
> 2025 01 08 14 23 19.0000000  0  5                                             
G12  24940650.600 6 131062795.285 6     -3028.684 6        41.545               
G25  22437765.179 7 117577911.322 7      1130.740 7        44.360               
G11  25627274.258 6 134670821.835 6     -1307.130 6        37.748               
G28  23820323.043 7 125621981.361 7     -1438.099 7        42.834               
G29  23158045.089 7 122060578.728 7     -1169.310 7        43.817               
> 2025 01 08 14 23 20.0000000  0  5                                             
G12  24941236.043 6 131065825.932 6     -3033.703 6        41.449               
G25  22437975.730 7 117576776.535 7      1136.178 7        44.386               
G11  25627526.819 6 134672130.875 6     -1306.548 6        38.391               
G28  23820045.323 7 125623418.967 7     -1435.770 7        42.923               
G29  23157823.674 7 122061747.829 7     -1170.353 7        43.789               
> 2025 01 08 14 23 21.0000000  0  5                                             
G12  24941810.282 6 131068858.283 6     -3033.309 6        41.740               
G25  22438198.289 7 117575639.803 7      1137.278 7        44.200               
G11  25627777.450 6 134673442.058 6     -1309.218 6        38.834               
G28  23819776.108 7 125624854.523 7     -1433.073 7        42.575               
G29  23157594.807 7 122062914.910 7     -1168.583 7        43.649               
> 2025 01 08 14 23 22.0000000  0  5                                             
G12  24942390.793 7 131071889.074 7     -3030.861 7        42.272               
G25  22438415.594 7 117574504.423 7      1135.616 7        44.068               
G11  25628023.649 6 134674752.122 6     -1311.735 6        38.294               
G28  23819503.998 7 125626291.297 7     -1440.530 7        42.435               
G29  23157375.912 7 122064083.214 7     -1168.725 7        43.769               
> 2025 01 08 14 23 23.0000000  0  5                                             
G12  24942970.446 6 131074920.305 6     -3034.477 6        41.616               
G25  22438636.437 7 117573368.398 7      1137.860 7        44.048               
G11  25628281.213 6 134676062.998 6     -1308.633 6        38.392               
G28  23819235.016 7 125627727.328 7     -1432.468 7        42.131               
G29  23157161.573 7 122065250.770 7     -1166.163 7        43.897               
> 2025 01 08 14 23 24.0000000  0  5                                             
G12  24943546.097 6 131077952.139 6     -3032.618 6        41.579               
G25  22438856.208 7 117572231.560 7      1139.627 7        43.966               
G11  25628530.576 6 134677374.903 6     -1311.033 6        38.823               
G28  23818959.047 6 125629162.444 6     -1433.794 6        41.933               
G29  23156932.939 7 122066417.407 7     -1164.129 7        43.777               
> 2025 01 08 14 23 25.0000000  0  5                                             
G12  24944128.787 7 131080985.219 7     -3031.081 7        42.171               
G25  22439075.586 7 117571093.255 7      1135.290 7        43.958               
G11  25628775.328 6 134678688.498 6     -1315.099 6        38.616               
G28  23818692.477 7 125630595.959 7     -1435.692 7        42.130               
G29  23156717.492 7 122067582.467 7     -1165.721 7        43.164               
> 2025 01 08 14 23 26.0000000  0  5                                             
G12  24944702.026 7 131084018.145 7     -3034.545 7        42.318               
G25  22439289.586 7 117569954.870 7      1138.845 7        43.680               
G11  25629031.480 6 134680002.371 6     -1314.563 6        38.959               
G28  23818420.135 7 125632029.297 7     -1429.793 7        42.604               
G29  23156498.507 7 122068747.345 7     -1165.696 7        43.866               
> 2025 01 08 14 23 27.0000000  0  5                                             
G12  24945277.569 6 131087050.246 6     -3034.249 6        41.802               
G25  22439507.070 7 117568817.120 7      1136.755 7        44.146               
G11  25629280.020 6 134681315.803 6     -1310.317 6        38.623               
G28  23818142.540 7 125633463.170 7     -1430.348 7        42.065               
G29  23156275.662 7 122069912.750 7     -1165.643 7        43.994               
> 2025 01 08 14 23 28.0000000  0  5                                             
G12  24945865.746 6 131090083.161 6     -3034.497 6        41.685               
G25  22439728.074 7 117567678.320 7      1138.324 7        43.944               
G11  25629531.831 6 134682630.506 6     -1315.112 6        38.172               
G28  23817881.920 7 125634895.829 7     -1434.298 7        42.631               
G29  23156059.429 7 122071077.005 7     -1165.548 7        43.969               
> 2025 01 08 14 23 29.0000000  0  5                                             
G12  24946441.450 6 131093116.123 6     -3036.018 6        41.576               
G25  22439945.969 7 117566539.258 7      1139.809 7        44.134               
G11  25629779.209 6 134683945.646 6     -1316.897 6        38.414               
G28  23817608.149 7 125636328.165 7     -1428.407 7        42.332               
G29  23155841.338 7 122072240.895 7     -1163.871 7        44.241               
> 2025 01 08 14 23 30.0000000  0  5                                             
G12  24947012.097 7 131096149.661 7     -3036.982 7        42.128               
G25  22440164.578 7 117565399.405 7      1138.868 7        44.625               
G11  25630045.815 6 134685261.817 6     -1312.537 6        38.880               
G28  23817334.038 7 125637759.575 7     -1429.440 7        42.159               
G29  23155619.369 7 122073403.881 7     -1160.605 7        44.327               
> 2025 01 08 14 23 31.0000000  0  5                                             
G12  24947592.197 7 131099182.265 7     -3032.278 7        42.272               
G25  22440383.831 7 117564260.261 7      1138.642 7        44.148               
G11  25630293.462 6 134686577.463 6     -1318.877 6        39.002               
G28  23817066.181 7 125639191.591 7     -1438.001 7        42.269               
G29  23155403.779 7 122074567.484 7     -1164.120 7        43.920               
> 2025 01 08 14 23 32.0000000  0  5                                             
G12  24948177.819 6 131102215.619 6     -3032.776 6        41.702               
G25  22440603.638 7 117563120.166 7      1141.546 7        44.261               
G11  25630543.825 6 134687894.255 6     -1311.371 6        39.035               
G28  23816800.165 7 125640622.518 7     -1428.642 7        42.222               
G29  23155181.631 7 122075730.011 7     -1160.818 7        44.120               
> 2025 01 08 14 23 33.0000000  0  5                                             
G12  24948752.361 6 131105249.985 6     -3032.726 6        41.966               
G25  22440821.426 7 117561978.831 7      1138.870 7        44.582               
G11  25630798.226 6 134689212.497 6     -1311.488 6        38.551               
G28  23816527.805 7 125642052.104 7     -1434.052 7        42.403               
G29  23154963.451 7 122076891.213 7     -1161.524 7        44.201               
> 2025 01 08 14 23 34.0000000  0  5                                             
G12  24949338.322 7 131108283.780 7     -3036.662 7        42.299               
G25  22441038.552 7 117560837.856 7      1140.315 7        43.903               
G11  25631051.055 6 134690530.618 6     -1314.478 6        38.502               
G28  23816258.090 7 125643481.940 7     -1428.578 7        42.293               
G29  23154745.413 7 122078052.648 7     -1162.308 7        43.984               
> 2025 01 08 14 23 35.0000000  0  5                                             
G12  24949913.616 6 131111318.588 6     -3034.102 6        41.869               
G25  22441260.289 7 117559695.637 7      1143.103 7        43.962               
G11  25631310.049 6 134691850.145 6     -1316.612 6        38.714               
G28  23815987.750 7 125644910.444 7     -1430.674 7        42.208               
G29  23154523.444 7 122079212.753 7     -1160.685 7        44.032               
> 2025 01 08 14 23 36.0000000  0  5                                             
G12  24950493.054 6 131114353.555 6     -3038.290 6        41.852               
G25  22441479.202 7 117558553.068 7      1141.276 7        44.543               
G11  25631555.497 6 134693170.242 6     -1318.285 6        39.156               
G28  23815718.285 7 125646338.461 7     -1430.618 7        42.304               
G29  23154307.104 7 122080372.386 7     -1158.446 7        44.279               
> 2025 01 08 14 23 37.0000000  0  5                                             
G12  24951067.275 6 131117388.765 6     -3034.440 6        41.665               
G25  22441699.009 7 117557410.008 7      1143.121 7        44.249               
G11  25631811.793 6 134694491.035 6     -1321.130 6        38.192               
G28  23815448.749 7 125647765.873 7     -1425.662 7        42.531               
G29  23154090.317 7 122081531.437 7     -1157.691 7        44.166               
> 2025 01 08 14 23 38.0000000  0  5                                             
G12  24951651.092 6 131120424.149 6     -3037.330 6        41.624               
G25  22441918.316 7 117556266.581 7      1146.621 7        44.485               
G11  25632055.080 6 134695812.391 6     -1319.602 6        37.824               
G28  23815178.891 7 125649192.801 7     -1429.538 7        43.112               
G29  23153872.064 7 122082690.002 7     -1158.395 7        44.080               
> 2025 01 08 14 23 39.0000000  0  5                                             
G12  24952226.189 7 131123460.131 7     -3037.131 7        42.174               
G25  22442138.051 7 117555122.329 7      1143.021 7        44.309               
G11  25632314.877 6 134697134.786 6     -1325.067 6        38.607               
G28  23814911.517 7 125650618.801 7     -1426.276 7        42.510               
G29  23153649.899 7 122083847.641 7     -1156.749 7        44.621               
> 2025 01 08 14 23 40.0000000  0  5                                             
G12  24952817.010 7 131126496.228 7     -3036.359 7        42.510               
G25  22442355.874 7 117553977.742 7      1145.087 7        44.212               
G11  25632573.263 6 134698457.714 6     -1323.731 6        38.764               
G28  23814640.658 7 125652044.347 7     -1426.102 7        42.398               
G29  23153432.379 7 122085004.837 7     -1158.668 7        43.980               
> 2025 01 08 14 23 41.0000000  0  5                                             
G12  24953389.176 6 131129532.811 6     -3035.781 6        41.649               
G25  22442575.967 7 117552832.449 7      1148.921 7        44.147               
G11  25632829.863 6 134699781.567 6     -1322.923 6        38.592               
G28  23814371.175 7 125653469.085 7     -1423.429 7        42.702               
G29  23153211.071 7 122086161.227 7     -1155.479 7        44.059               
> 2025 01 08 14 23 42.0000000  0  5                                             
G12  24953976.299 6 131132569.644 6     -3038.230 6        41.366               
G25  22442793.201 7 117551686.713 7      1146.221 7        44.238               
G11  25633083.781 6 134701106.057 6     -1324.451 6        39.211               
G28  23814099.798 7 125654893.240 7     -1424.589 7        42.626               
G29  23152996.429 7 122087317.061 7     -1158.208 7        44.336               
> 2025 01 08 14 23 43.0000000  0  5                                             
G12  24954550.502 7 131135605.975 7     -3036.775 7        42.415               
G25  22443014.098 7 117550541.217 7      1148.630 7        43.978               
G11  25633339.487 6 134702430.493 6     -1325.210 6        38.490               
G28  23813830.065 7 125656317.537 7     -1423.964 7        42.429               
G29  23152776.943 7 122088473.041 7     -1158.795 7        44.479               
> 2025 01 08 14 23 44.0000000  0  5                                             
G12  24955131.549 6 131138643.316 6     -3038.822 6        41.949               
G25  22443234.333 7 117549394.535 7      1143.504 7        43.991               
G11  25633588.778 6 134703756.358 6     -1328.519 6        38.022               
G28  23813561.655 7 125657740.535 7     -1421.174 7        42.552               
G29  23152556.797 7 122089627.709 7     -1154.742 7        44.265               
> 2025 01 08 14 23 45.0000000  0  5                                             
G12  24955711.631 7 131141680.710 7     -3036.822 7        42.275               
G25  22443455.069 7 117548247.587 7      1148.611 7        44.450               
G11  25633842.965 6 134705082.680 6     -1324.309 6        38.937               
G28  23813288.366 7 125659163.136 7     -1425.694 7        42.443               
G29  23152342.708 7 122090782.003 7     -1152.743 7        44.261               
> 2025 01 08 14 23 46.0000000  0  5                                             
G12  24956286.996 7 131144718.405 7     -3038.213 7        42.676               
G25  22443678.111 7 117547100.094 7      1145.085 7        44.190               
G11  25634096.061 6 134706409.742 6     -1325.832 6        38.292               
G28  23813020.259 7 125660585.122 7     -1422.107 7        42.353               
G29  23152122.580 7 122091935.666 7     -1149.818 7        44.183               
> 2025 01 08 14 23 47.0000000  0  5                                             
G12  24956868.847 7 131147755.985 7     -3038.627 7        42.056               
G25  22443896.041 7 117545952.510 7      1147.112 7        44.277               
G11  25634340.117 6 134707737.104 6     -1328.982 6        37.522               
G28  23812754.386 7 125662006.867 7     -1419.861 7        42.561               
G29  23151909.813 7 122093089.129 7     -1154.671 7        43.511               
> 2025 01 08 14 23 48.0000000  0  5                                             
G12  24957448.983 7 131150793.862 7     -3035.267 7        42.547               
G25  22444116.813 7 117544804.428 7      1147.067 7        43.230               
G11  25634609.850 6 134709065.149 6     -1320.939 6        37.351               
G28  23812488.334 7 125663428.005 7     -1418.914 7        42.076               
G29  23151692.258 7 122094241.966 7     -1150.305 7        43.541               
> 2025 01 08 14 23 49.0000000  0  5                                             
G12  24958025.080 6 131153832.078 6     -3040.346 6        41.711               
G25  22444336.316 7 117543655.789 7      1151.736 7        43.975               
G11  25634849.330 6 134710393.974 6     -1328.403 6        37.802               
G28  23812214.116 7 125664848.475 7     -1418.733 7        42.781               
G29  23151467.537 7 122095394.171 7     -1154.579 7        43.630               
> 2025 01 08 14 23 50.0000000  0  5                                             
G12  24958602.768 6 131156870.952 6     -3039.151 6        41.544               
G25  22444560.340 7 117542506.285 7      1150.018 7        43.760               
G11  25635108.985 6 134711723.875 6     -1333.920 6        37.657               
G28  23811948.868 7 125666267.959 7     -1417.480 7        42.667               
G29  23151257.362 7 122096545.376 7     -1152.349 7        43.920               
> 2025 01 08 14 23 51.0000000  0  5                                             
G12  24959179.008 6 131159910.231 6     -3040.995 6        41.532               
G25  22444777.073 7 117541356.138 7      1153.155 7        43.749               
G11  25635363.618 6 134713054.625 6     -1332.547 6        38.123               
G28  23811677.474 7 125667686.692 7     -1415.515 7        42.938               
G29  23151034.964 7 122097695.859 7     -1148.322 7        43.759               
> 2025 01 08 14 23 52.0000000  0  5                                             
G12  24959764.897 6 131162949.404 6     -3034.740 6        41.691               
G25  22444984.408 7 117540205.902 7      1148.793 7        43.778               
G11  25635617.680 6 134714385.651 6     -1328.442 6        38.159               
G28  23811412.422 7 125669105.221 7     -1419.058 7        42.923               
G29  23150836.564 7 122098846.106 7     -1149.241 7        44.159               
> 2025 01 08 14 23 53.0000000  0  5                                             
G12  24960346.802 6 131165988.223 6     -3039.199 6        41.835               
G25  22445220.547 7 117539055.777 7      1151.390 7        44.443               
G11  25635876.585 6 134715716.763 6     -1331.009 6        38.854               
G28  23811135.220 7 125670523.751 7     -1419.814 7        42.280               
G29  23150607.608 7 122099996.404 7     -1150.103 7        43.843               
> 2025 01 08 14 23 54.0000000  0  5                                             
G12  24960925.848 6 131169027.737 6     -3042.205 6        41.611               
G25  22445441.551 7 117537904.746 7      1151.437 7        43.788               
G11  25636133.827 6 134717049.017 6     -1334.856 6        38.938               
G28  23810870.902 7 125671941.253 7     -1416.818 7        42.683               
G29  23150387.176 7 122101145.666 7     -1147.110 7        43.848               
> 2025 01 08 14 23 55.0000000  0  5                                             
G12  24961508.896 6 131172067.995 6     -3038.267 6        41.572               
G25  22445661.930 7 117536752.741 7      1151.431 7        43.935               
G11  25636390.033 6 134718382.413 6     -1335.798 6        38.733               
G28  23810601.991 7 125673357.666 7     -1415.052 7        42.057               
G29  23150170.657 7 122102293.865 7     -1146.920 7        43.683               
> 2025 01 08 14 23 56.0000000  0  5                                             
G12  24962085.672 7 131175108.197 7     -3037.800 7        42.103               
G25  22445884.256 7 117535600.595 7      1152.589 7        43.762               
G11  25636647.686 6 134719716.156 6     -1335.862 6        38.509               
G28  23810336.850 7 125674773.828 7     -1417.946 7        42.494               
G29  23149951.440 7 122103441.810 7     -1145.757 7        43.749               
> 2025 01 08 14 23 57.0000000  0  5                                             
G12  24962666.255 6 131178148.463 6     -3039.596 6        41.935               
G25  22446109.709 7 117534448.155 7      1154.754 7        43.799               
G11  25636901.516 6 134721050.409 6     -1334.015 6        37.923               
G28  23810075.962 7 125676189.584 7     -1414.208 7        42.440               
G29  23149734.617 7 122104589.349 7     -1146.103 7        43.720               
> 2025 01 08 14 23 58.0000000  0  5                                             
G12  24963239.350 6 131181188.765 6     -3037.330 6        41.217               
G25  22446325.514 7 117533295.465 7      1151.616 7        43.895               
G11  25637154.559 6 134722385.114 6     -1335.649 6        38.266               
G28  23809809.785 7 125677604.961 7     -1415.449 7        42.600               
G29  23149514.953 7 122105736.526 7     -1145.290 7        44.412               
> 2025 01 08 14 23 59.0000000  0  5                                             
G12  24963824.382 6 131184229.652 6     -3040.811 6        41.285               
G25  22446546.982 7 117532141.968 7      1149.592 7        43.958               
G11  25637410.962 6 134723720.852 6     -1333.129 6        38.196               
G28  23809539.052 7 125679019.417 7     -1415.984 7        42.269               
G29  23149302.258 7 122106882.787 7     -1147.903 7        43.766               
> 2025 01 08 14 24 00.0000000  0  5                                             
G12  24964415.436 6 131187270.656 6     -3040.566 6        41.421               
G25  22446767.307 7 117530988.148 7      1156.764 7        43.510               
G11  25637676.120 6 134725057.096 6     -1337.805 6        38.233               
G28  23809264.941 6 125680433.445 6     -1415.353 6        41.542               
G29  23149087.633 7 122108028.638 7     -1144.424 7        43.451               
> 2025 01 08 14 24 01.0000000  0  5                                             
G12  24964988.799 6 131190312.075 6     -3044.688 6        41.194               
G25  22446986.614 7 117529833.691 7      1156.564 7        43.872               
G11  25637921.980 6 134726394.161 6     -1340.530 6        38.894               
G28  23809008.503 7 125681846.743 7     -1413.345 7        42.181               
G29  23148871.901 7 122109173.741 7     -1144.078 7        44.113               
> 2025 01 08 14 24 02.0000000  0  5                                             
G12  24965578.191 6 131193353.735 6     -3042.255 6        41.669               
G25  22447211.174 7 117528678.754 7      1156.027 7        43.899               
G11  25638184.047 6 134727731.950 6     -1337.935 6        39.008               
G28  23808741.897 7 125683259.387 7     -1409.660 7        42.601               
G29  23148652.076 7 122110318.252 7     -1146.551 7        44.020               
> 2025 01 08 14 24 03.0000000  0  5                                             
G12  24966155.217 6 131196395.967 6     -3042.407 6        41.662               
G25  22447432.124 7 117527523.052 7      1156.638 7        43.669               
G11  25638441.343 6 134729070.680 6     -1341.109 6        39.133               
G28  23808469.895 7 125684671.193 7     -1409.408 7        42.345               
G29  23148443.634 7 122111461.883 7     -1144.707 7        44.290               
> 2025 01 08 14 24 04.0000000  0  5                                             
G12  24966736.229 6 131199438.170 6     -3045.770 6        41.923               
G25  22447655.576 7 117526367.160 7      1156.259 7        43.726               
G11  25638693.136 6 134730409.798 6     -1337.795 6        39.260               
G28  23808202.663 7 125686082.702 7     -1416.951 7        42.194               
G29  23148227.437 7 122112605.245 7     -1143.455 7        44.567               
> 2025 01 08 14 24 05.0000000  0  5                                             
G12  24967312.916 6 131202480.268 6     -3043.770 6        40.901               
G25  22447878.796 7 117525211.137 7      1157.712 7        43.643               
G11  25638952.612 6 134731749.277 6     -1339.571 6        39.109               
G28  23807934.932 7 125687493.926 7     -1412.648 7        42.357               
G29  23148009.560 7 122113748.346 7     -1141.085 7        44.058               
> 2025 01 08 14 24 06.0000000  0  5                                             
G12  24967894.820 6 131205522.711 6     -3043.263 6        41.174               
G25  22448096.584 7 117524054.552 7      1156.725 7        43.843               
G11  25639212.070 6 134733089.493 6     -1341.050 6        39.252               
G28  23807667.897 7 125688904.498 7     -1408.108 7        42.287               
G29  23147791.343 7 122114890.785 7     -1144.182 7        44.481               
> 2025 01 08 14 24 07.0000000  0  5                                             
G12  24968479.799 6 131208565.276 6     -3043.261 6        41.046               
G25  22448319.947 7 117522897.623 7      1156.001 7        44.019               
G11  25639462.058 6 134734430.271 6     -1338.090 6        38.724               
G28  23807401.077 6 125690314.598 6     -1409.189 6        41.789               
G29  23147576.843 7 122116032.784 7     -1144.391 7        43.801               
> 2025 01 08 14 24 08.0000000  0  5                                             
G12  24969060.184 6 131211608.085 6     -3043.397 6        40.865               
G25  22448542.916 7 117521740.259 7      1156.904 7        44.096               
G11  25639724.714 6 134735771.696 6     -1340.312 6        38.707               
G28  23807136.848 7 125691724.139 7     -1407.209 7        42.093               
G29  23147364.488 7 122117174.218 7     -1138.378 7        43.670               
> 2025 01 08 14 24 09.0000000  0  5                                             
G12  24969636.889 6 131214651.729 6     -3048.238 6        40.945               
G25  22448761.490 7 117520581.813 7      1159.456 7        44.007               
G11  25639984.226 6 134737114.395 6     -1344.390 6        39.110               
G28  23806872.583 7 125693132.522 7     -1413.516 7        42.032               
G29  23147146.629 7 122118314.491 7     -1141.641 7        43.491               
> 2025 01 08 14 24 10.0000000  0  5                                             
G12  24970223.440 6 131217694.985 6     -3040.711 6        41.513               
G25  22448984.746 7 117519423.542 7      1158.872 7        43.776               
G11  25640241.737 6 134738457.143 6     -1339.567 6        39.460               
G28  23806605.977 6 125694540.928 6     -1408.895 6        41.817               
G29  23146930.378 7 122119454.816 7     -1140.964 7        43.794               
> 2025 01 08 14 24 11.0000000  0  5                                             
G12  24970802.575 6 131220738.480 6     -3044.589 6        41.391               
G25  22449205.678 7 117518264.825 7      1158.798 7        43.888               
G11  25640497.014 6 134739800.491 6     -1338.583 6        39.510               
G28  23806338.263 6 125695948.791 6     -1407.747 6        41.951               
G29  23146717.576 7 122120594.592 7     -1138.790 7        43.944               
> 2025 01 08 14 24 12.0000000  0  5                                             
G12  24971378.708 6 131223782.051 6     -3043.303 6        41.058               
G25  22449429.899 7 117517105.804 7      1161.614 7        43.993               
G11  25640750.897 6 134741144.382 6     -1339.759 6        39.159               
G28  23806071.854 7 125697356.230 7     -1409.164 7        42.804               
G29  23146500.842 7 122121733.962 7     -1137.686 7        43.654               
> 2025 01 08 14 24 13.0000000  0  5                                             
G12  24971963.204 6 131226825.828 6     -3048.023 6        40.557               
G25  22449653.244 7 117515946.361 7      1158.552 7        43.710               
G11  25641015.716 6 134742488.899 6     -1341.434 6        39.160               
G28  23805810.484 7 125698763.124 7     -1405.380 7        42.376               
G29  23146285.646 7 122122872.800 7     -1136.380 7        43.629               
> 2025 01 08 14 24 14.0000000  0  5                                             
G12  24972538.014 6 131229869.862 6     -3043.705 6        40.128               
G25  22449875.570 7 117514786.443 7      1160.659 7        43.991               
G11  25641274.495 6 134743834.101 6     -1340.773 6        39.323               
G28  23805539.160 7 125700169.425 7     -1407.198 7        42.463               
G29  23146067.268 7 122124011.058 7     -1137.257 7        44.220               
> 2025 01 08 14 24 15.0000000  0  5                                             
G12  24973120.026 6 131232914.484 6     -3046.654 6        40.356               
G25  22450097.914 7 117513625.707 7      1163.462 7        43.899               
G11  25641533.756 6 134745180.294 6     -1342.238 6        39.133               
G28  23805268.784 7 125701574.805 7     -1412.623 7        42.291               
G29  23145856.628 7 122125148.395 7     -1136.435 7        43.729               
> 2025 01 08 14 24 16.0000000  0  5                                             
G12  24973699.036 6 131235959.896 6     -3046.965 6        40.597               
G25  22450320.026 7 117512463.974 7      1162.057 7        44.184               
G11  25641781.403 6 134746527.707 6     -1346.609 6        38.871               
G28  23805004.090 7 125702979.051 7     -1402.787 7        42.470               
G29  23145644.326 7 122126284.614 7     -1137.960 7        43.940               
> 2025 01 08 14 24 17.0000000  0  5                                             
G12  24974281.030 6 131239005.237 6     -3044.136 6        40.290               
G25  22450541.352 7 117511302.129 7      1160.253 7        43.906               
G11  25642043.113 6 134747875.450 6     -1346.301 6        39.010               
G28  23804744.704 7 125704383.077 7     -1405.507 7        42.193               
G29  23145427.146 7 122127420.613 7     -1136.076 7        43.456               
> 2025 01 08 14 24 18.0000000  0  6                                             
G12  24974860.702 6 131242050.816 6     -3045.524 6        41.003               
G25  22450767.181 7 117510139.780 7      1161.894 7        43.615               
G11  25642300.445 6 134749223.863 6     -1351.206 6        38.888               
G28  23804467.948 7 125705786.495 7     -1401.880 7        42.671               
G29  23145210.609 7 122128556.022 7     -1135.236 7        44.092               
G32  26025329.528 6 136764062.252 6     -2847.409 6        39.659               
> 2025 01 08 14 24 19.0000000  0  6                                             
G12  24975438.461 6 131245096.682 6     -3045.600 6        40.228               
G25  22450988.292 7 117508976.935 7      1161.725 7        43.960               
G11  25642569.481 6 134750572.999 6     -1345.348 6        38.789               
G28  23804214.673 7 125707189.281 7     -1399.028 7        42.618               
G29  23144998.254 7 122129690.812 7     -1134.774 7        43.763               
G32  26025875.623 6 136766913.039 6     -2851.437 6        38.790               
> 2025 01 08 14 24 20.0000000  0  6                                             
G12  24976025.905 6 131248142.784 6     -3046.402 6        40.852               
G25  22451211.548 7 117507813.640 7      1164.897 7        43.573               
G11  25642823.614 6 134751922.796 6     -1350.816 6        38.976               
G28  23803944.368 7 125708591.501 7     -1405.417 7        42.774               
G29  23144783.415 7 122130825.044 7     -1133.372 7        44.117               
G32  26026420.789 6 136769764.172 6     -2851.364 6        39.407               
> 2025 01 08 14 24 21.0000000  0  6                                             
G12  24976610.150 6 131251189.180 6     -3044.754 6        41.202               
G25  22451437.609 7 117506649.850 7      1164.367 7        43.280               
G11  25643079.069 6 134753273.275 6     -1353.722 6        39.324               
G28  23803688.752 7 125709993.115 7     -1398.722 7        42.327               
G29  23144569.505 7 122131958.673 7     -1130.698 7        43.441               
G32  26026965.115 6 136772615.692 6     -2852.145 6        39.293               
> 2025 01 08 14 24 22.0000000  0  6                                             
G12  24977189.107 6 131254235.850 6     -3046.953 6        41.004               
G25  22451658.488 7 117505485.558 7      1165.204 7        43.507               
G11  25643342.209 6 134754624.472 6     -1358.222 6        39.096               
G28  23803419.144 7 125711394.105 7     -1395.631 7        42.180               
G29  23144354.522 7 122133091.713 7     -1130.937 7        43.247               
G32  26027507.637 6 136775467.633 6     -2851.802 6        40.036               
> 2025 01 08 14 24 23.0000000  0  6                                             
G12  24977769.689 6 131257283.012 6     -3049.220 6        40.927               
G25  22451885.996 7 117504320.549 7      1165.271 7        43.382               
G11  25643604.115 6 134755976.592 6     -1353.660 6        38.886               
G28  23803156.237 7 125712794.261 7     -1397.648 7        42.185               
G29  23144140.827 7 122134223.895 7     -1129.647 7        43.531               
G32  26028042.617 6 136778320.194 6     -2853.215 6        39.105               
> 2025 01 08 14 24 24.0000000  0  6                                             
G12  24978355.060 6 131260329.973 6     -3046.731 6        41.184               
G25  22452109.788 7 117503155.537 7      1166.023 7        43.573               
G11  25643853.817 6 134757328.907 6     -1347.952 6        39.270               
G28  23802892.294 7 125714194.297 7     -1395.144 7        42.232               
G29  23143929.829 7 122135355.989 7     -1130.586 7        43.545               
G32  26028595.967 6 136781172.671 6     -2850.379 6        39.530               
> 2025 01 08 14 24 25.0000000  0  6                                             
G12  24978929.246 6 131263376.707 6     -3048.128 6        40.970               
G25  22452332.704 7 117501990.529 7      1164.974 7        44.127               
G11  25644126.284 6 134758681.455 6     -1351.570 6        39.543               
G28  23802625.098 7 125715594.214 7     -1398.605 7        42.445               
G29  23143709.808 7 122136487.959 7     -1131.814 7        43.593               
G32  26029134.790 6 136784025.065 6     -2852.399 6        38.799               
> 2025 01 08 14 24 26.0000000  0  6                                             
G12  24979516.082 6 131266423.588 6     -3048.362 6        40.997               
G25  22452554.959 7 117500825.139 7      1164.549 7        43.521               
G11  25644378.755 6 134760034.537 6     -1355.516 6        38.951               
G28  23802360.047 7 125716993.645 7     -1399.148 7        42.264               
G29  23143494.897 7 122137619.465 7     -1127.657 7        43.323               
G32  26029688.872 6 136786877.723 6     -2852.447 6        39.372               
> 2025 01 08 14 24 27.0000000  0  6                                             
G12  24980097.969 6 131269471.723 6     -3045.122 6        40.349               
G25  22452780.376 7 117499658.283 7      1166.459 7        43.343               
G11  25644637.445 6 134761389.295 6     -1356.490 6        39.157               
G28  23802096.264 7 125718391.494 7     -1393.953 7        42.084               
G29  23143284.472 7 122138749.404 7     -1129.999 7        43.296               
G32  26030224.639 6 136789731.766 6     -2856.950 6        38.895               
> 2025 01 08 14 24 28.0000000  0  6                                             
G12  24980680.660 6 131272520.225 6     -3052.138 6        40.541               
G25  22453000.809 7 117498490.830 7      1171.738 7        42.948               
G11  25644896.975 6 134762744.871 6     -1358.230 6        38.348               
G28  23801831.981 7 125719788.621 7     -1394.074 7        42.910               
G29  23143068.739 7 122139878.628 7     -1129.419 7        43.483               
G32  26030778.579 6 136792586.316 6     -2857.535 6        38.802               
> 2025 01 08 14 24 29.0000000  0  6                                             
G12  24981263.190 6 131275568.643 6     -3049.401 6        40.776               
G25  22453229.389 7 117497323.277 7      1168.274 7        43.265               
G11  25645152.895 6 134764100.745 6     -1354.546 6        38.641               
G28  23801568.914 7 125721185.533 7     -1397.025 7        42.521               
G29  23142857.974 7 122141007.644 7     -1129.562 7        43.453               
G32  26031319.403 6 136795440.862 6     -2853.735 6        38.871               
> 2025 01 08 14 24 30.0000000  0  6                                             
G12  24981847.918 6 131278617.029 6     -3045.130 6        41.262               
G25  22453451.769 7 117496155.501 7      1169.532 7        43.468               
G11  25645411.477 6 134765457.048 6     -1358.408 6        38.795               
G28  23801302.504 7 125722582.115 7     -1391.722 7        42.786               
G29  23142646.458 7 122142136.329 7     -1129.806 7        43.484               
G32  26031857.010 6 136798295.517 6     -2855.648 6        39.052               
> 2025 01 08 14 24 31.0000000  0  6                                             
G12  24982427.339 6 131281665.846 6     -3047.250 6        40.605               
G25  22453676.276 7 117494987.095 7      1166.618 7        43.611               
G11  25645664.896 6 134766814.163 6     -1352.239 6        38.538               
G28  23801041.313 7 125723977.953 7     -1397.354 7        42.618               
G29  23142433.585 7 122143264.280 7     -1126.732 7        44.077               
G32  26032419.831 6 136801150.738 6     -2856.706 6        39.262               
> 2025 01 08 14 24 32.0000000  0  6                                             
G12  24983008.100 6 131284714.213 6     -3048.883 6        41.125               
G25  22453902.730 7 117493818.917 7      1169.205 7        43.674               
G11  25645929.482 6 134768171.266 6     -1359.061 6        38.737               
G28  23800780.050 7 125725373.880 7     -1396.627 7        42.934               
G29  23142222.123 7 122144392.358 7     -1125.226 7        43.827               
G32  26032968.535 6 136804005.648 6     -2855.491 6        39.712               
> 2025 01 08 14 24 33.0000000  0  6                                             
G12  24983590.952 6 131287762.845 6     -3046.191 6        41.067               
G25  22454125.449 7 117492650.272 7      1170.493 7        43.325               
G11  25646192.836 6 134769529.056 6     -1355.130 6        39.124               
G28  23800512.765 7 125726769.215 7     -1397.069 7        43.220               
G29  23142010.250 7 122145519.826 7     -1125.705 7        43.533               
G32  26033501.300 6 136806860.929 6     -2860.187 6        39.498               
> 2025 01 08 14 24 34.0000000  0  6                                             
G12  24984170.909 6 131290811.682 6     -3049.805 6        41.149               
G25  22454347.329 7 117491481.209 7      1170.924 7        43.423               
G11  25646448.506 6 134770887.450 6     -1355.778 6        38.286               
G28  23800247.821 7 125728164.023 7     -1392.841 7        42.478               
G29  23141800.574 7 122146646.797 7     -1127.504 7        44.021               
G32  26034046.645 6 136809716.533 6     -2856.197 6        39.615               
> 2025 01 08 14 24 35.0000000  0  6                                             
G12  24984755.959 7 131293860.854 7     -3050.477 7        42.041               
G25  22454570.781 7 117490311.587 7      1167.289 7        43.267               
G11  25646717.471 6 134772246.631 6     -1356.722 6        38.201               
G28  23799989.560 7 125729558.155 7     -1395.042 7        42.624               
G29  23141590.095 7 122147773.103 7     -1125.640 7        43.719               
G32  26034592.901 6 136812572.599 6     -2855.803 6        39.741               
> 2025 01 08 14 24 36.0000000  0  6                                             
G12  24985333.486 7 131296910.204 7     -3049.284 7        42.120               
G25  22454797.628 7 117489141.550 7      1172.299 7        42.952               
G11  25646974.338 6 134773606.406 6     -1363.847 6        38.424               
G28  23799718.433 7 125730951.758 7     -1392.543 7        42.651               
G29  23141375.578 7 122148898.894 7     -1126.197 7        43.791               
G32  26035135.762 6 136815428.995 6     -2854.264 6        39.449               
> 2025 01 08 14 24 37.0000000  0  6                                             
G12  24985921.734 7 131299959.748 7     -3050.626 7        42.343               
G25  22455019.419 7 117487971.099 7      1171.614 7        43.513               
G11  25647230.115 6 134774966.802 6     -1361.224 6        38.034               
G28  23799455.348 7 125732344.834 7     -1396.846 7        42.470               
G29  23141165.456 7 122150024.164 7     -1126.630 7        44.207               
G32  26035672.547 6 136818285.694 6     -2858.103 6        39.842               
> 2025 01 08 14 24 38.0000000  0  6                                             
G12  24986499.261 7 131303009.609 7     -3049.101 7        42.013               
G25  22455240.959 7 117486800.133 7      1173.822 7        43.592               
G11  25647496.328 6 134776327.913 6     -1362.510 6        38.483               
G28  23799196.479 7 125733737.262 7     -1390.339 7        42.663               
G29  23140950.170 7 122151148.823 7     -1126.584 7        44.304               
G32  26036226.808 6 136821142.826 6     -2855.416 6        39.787               
> 2025 01 08 14 24 39.0000000  0  6                                             
G12  24987083.631 6 131306059.717 6     -3048.707 6        41.971               
G25  22455468.020 7 117485628.678 7      1173.946 7        43.387               
G11  25647763.845 6 134777689.709 6     -1359.112 6        38.323               
G28  23798930.803 7 125735129.095 7     -1395.618 7        42.680               
G29  23140739.851 7 122152272.861 7     -1125.921 7        44.147               
G32  26036773.797 6 136824000.345 6     -2856.067 6        39.965               
> 2025 01 08 14 24 40.0000000  0  6                                             
G12  24987671.844 7 131309110.232 7     -3052.084 7        42.514               
G25  22455687.577 7 117484456.618 7      1172.624 7        43.576               
G11  25648018.300 6 134779052.334 6     -1363.839 6        38.242               
G28  23798666.609 7 125736520.188 7     -1389.994 7        42.216               
G29  23140529.426 7 122153396.190 7     -1120.763 7        43.720               
G32  26037316.890 6 136826858.371 6     -2861.379 6        40.122               
     3.02           OBSERVATION DATA    G                   RINEX VERSION / TYPE
G = GPS  R = GLONASS  E = GALILEO  S = GEO  M = MIXED       COMMENT             
GNSS-SDR            jmfriedt            20250108 154633 UTC PGM / RUN BY / DATE 
GPS OBSERVATION DATA FILE GENERATED BY GNSS-SDR             COMMENT             
GNSS-SDR VERSION 0.0.19.git-main-87fcfd237                  COMMENT             
See https://gnss-sdr.org                                    COMMENT             
DEFAULT MARKER NAME                                         MARKER NAME         
jmfriedt            CTTC                                    OBSERVER / AGENCY   
GNSS-SDR            Software Receiver   0.0.19.gi           REC # / TYPE / VERS 
Antenna number      Antenna type                            ANT # / TYPE        
        0.0000        0.0000        0.0000                  APPROX POSITION XYZ 
        0.0000        0.0000        0.0000                  ANTENNA: DELTA H/E/N
G    4 C1C L1C D1C S1C                                      SYS / # / OBS TYPES 
DBHZ                                                        SIGNAL STRENGTH UNIT
  2025    01    08    14    20   48.1200000     GPS         TIME OF FIRST OBS   
                                                            END OF HEADER       
> 2025 01 08 14 20 49.0000000  0  4                                             
G25  22406091.782 7 117742912.558 7      1065.901 7        45.482               
G28  23862304.776 7 125399921.363 7     -1524.179 7        43.217               
G29  23192350.057 7 121876623.932 7      1253.688 7        43.173               
G12  24854400.311 6 130610736.150 6     -2994.070 6        40.858               
> 2025 01 08 14 20 50.0000000  0  4                                             
G25  22406292.862 7 117741846.548 7      1065.939 7        45.575               
G28  23862017.620 7 125401443.527 7     -1520.130 7        42.991               
G29  23192113.703 7 121875370.869 7      1252.855 7        43.152               
G12  24854968.599 6 130613730.284 6     -2993.594 6        41.452               
> 2025 01 08 14 20 51.0000000  0  4                                             
G25  22406499.625 7 117740780.550 7      1066.521 7        45.776               
G28  23861730.680 7 125402965.609 7     -1522.251 7        43.106               
G29  23191874.115 7 121874117.897 7      1253.857 7        43.511               
G12  24855543.714 6 130616724.177 6     -2997.042 6        41.792               
> 2025 01 08 14 20 52.0000000  0  4                                             
G25  22406703.385 7 117739714.227 7      1065.340 7        45.635               
G28  23861433.750 7 125404487.273 7     -1522.968 7        43.722               
G29  23191637.655 7 121872865.349 7      1252.626 7        43.505               
G12  24856118.131 7 130619718.184 7     -2996.240 7        42.003               
> 2025 01 08 14 20 53.0000000  0  4                                             
G25  22406911.184 7 117738647.164 7      1068.514 7        45.725               
G28  23861150.294 7 125406008.090 7     -1519.533 7        43.287               
G29  23191400.658 7 121871613.635 7      1251.152 7        43.501               
G12  24856685.866 6 130622712.726 6     -2992.027 6        41.649               
> 2025 01 08 14 20 54.0000000  0  4                                             
G25  22407116.213 7 117737579.314 7      1068.497 7        45.963               
G28  23860864.461 7 125407528.025 7     -1520.804 7        43.778               
G29  23191169.308 7 121870362.818 7      1250.924 7        43.713               
G12  24857259.730 6 130625707.839 6     -2994.807 6        41.366               
> 2025 01 08 14 20 55.0000000  0  4                                             
G25  22407318.544 7 117736511.170 7      1068.320 7        45.703               
G28  23860577.878 7 125409047.568 7     -1521.074 7        43.809               
G29  23190933.222 7 121869112.396 7      1249.575 7        43.149               
G12  24857825.481 6 130628702.993 6     -2996.128 6        40.366               
> 2025 01 08 14 20 56.0000000  0  4                                             
G25  22407522.662 7 117735442.815 7      1068.644 7        45.690               
G28  23860290.472 7 125410566.795 7     -1514.463 7        43.718               
G29  23190699.924 7 121867862.288 7      1247.326 7        43.753               
G12  24858401.006 6 130631698.209 6     -2998.238 6        40.882               
> 2025 01 08 14 20 57.0000000  0  4                                             
G25  22407727.852 7 117734374.051 7      1069.872 7        45.728               
G28  23860005.015 7 125412085.513 7     -1521.441 7        43.493               
G29  23190458.442 7 121866612.665 7      1251.021 7        43.959               
G12  24858974.548 6 130634693.567 6     -2995.693 6        41.615               
> 2025 01 08 14 20 58.0000000  0  4                                             
G25  22407935.383 7 117733304.807 7      1067.591 7        45.121               
G28  23859719.753 7 125413603.657 7     -1519.272 7        43.130               
G29  23190225.645 7 121865363.643 7      1248.618 7        44.038               
G12  24859543.051 6 130637689.211 6     -2996.758 6        41.078               
> 2025 01 08 14 20 59.0000000  0  4                                             
G25  22408139.822 7 117732235.301 7      1068.995 7        45.781               
G28  23859427.005 7 125415121.436 7     -1516.263 7        43.054               
G29  23189991.203 7 121864114.981 7      1250.436 7        43.412               
G12  24860109.249 6 130640684.922 6     -2999.184 6        41.694               
> 2025 01 08 14 21 00.0000000  0  4                                             
G25  22408345.352 7 117731165.200 7      1069.944 7        45.111               
G28  23859137.009 7 125416638.541 7     -1518.470 7        42.420               
G29  23189752.026 7 121862867.008 7      1247.539 7        43.364               
G12  24860695.317 6 130643680.992 6     -2998.296 6        41.451               
> 2025 01 08 14 21 01.0000000  0  4                                             
G25  22408549.702 7 117730094.568 7      1068.342 7        45.748               
G28  23858855.054 7 125418154.997 7     -1514.133 7        42.979               
G29  23189516.709 7 121861619.686 7      1247.576 7        43.109               
G12  24861261.980 7 130646677.388 7     -2993.577 7        42.019               
> 2025 01 08 14 21 02.0000000  0  4                                             
G25  22408756.804 7 117729023.582 7      1070.576 7        45.722               
G28  23858563.824 7 125419671.005 7     -1513.279 7        42.791               
G29  23189277.425 7 121860372.787 7      1250.973 7        43.437               
G12  24861830.518 6 130649673.912 6     -2995.440 6        41.374               
> 2025 01 08 14 21 03.0000000  0  4                                             
G25  22408964.103 7 117727952.273 7      1072.285 7        45.846               
G28  23858284.067 7 125421186.576 7     -1515.940 7        43.341               
G29  23189045.789 7 121859126.334 7      1250.716 7        43.450               
G12  24862404.436 6 130652670.562 6     -2995.791 6        41.451               
> 2025 01 08 14 21 04.0000000  0  4                                             
G25  22409168.846 7 117726880.183 7      1071.323 7        45.349               
G28  23857989.835 7 125422701.269 7     -1511.299 7        43.320               
G29  23188814.706 7 121857880.760 7      1246.002 7        43.679               
G12  24862983.392 6 130655667.790 6     -2995.988 6        41.904               
> 2025 01 08 14 21 05.0000000  0  4                                             
G25  22409375.662 7 117725807.683 7      1072.780 7        45.323               
G28  23857703.020 7 125424215.466 7     -1514.218 7        43.115               
G29  23188580.211 7 121856635.696 7      1243.957 7        43.038               
G12  24863557.238 6 130658665.191 6     -2998.721 6        41.073               
> 2025 01 08 14 21 06.0000000  0  4                                             
G25  22409580.066 7 117724734.820 7      1074.811 7        45.738               
G28  23857420.993 7 125425729.205 7     -1512.919 7        42.678               
G29  23188343.983 7 121855391.077 7      1245.955 7        43.609               
G12  24864132.638 6 130661662.719 6     -2996.155 6        41.781               
> 2025 01 08 14 21 07.0000000  0  4                                             
G25  22409786.739 7 117723661.524 7      1076.277 7        45.969               
G28  23857132.069 7 125427242.387 7     -1512.981 7        43.073               
G29  23188109.327 7 121854147.022 7      1240.572 7        43.443               
G12  24864697.853 7 130664660.515 7     -2996.528 7        42.017               
> 2025 01 08 14 21 08.0000000  0  4                                             
G25  22409992.608 7 117722588.024 7      1073.612 7        45.606               
G28  23856845.753 7 125428755.280 7     -1513.343 7        42.588               
G29  23187874.224 7 121852903.260 7      1239.823 7        43.457               
G12  24865267.303 6 130667658.277 6     -2998.832 6        41.951               
> 2025 01 08 14 21 09.0000000  0  4                                             
G25  22410198.888 7 117721514.064 7      1074.037 7        45.684               
G28  23856559.510 7 125430267.606 7     -1511.344 7        42.567               
G29  23187637.585 7 121851660.057 7      1243.969 7        43.216               
G12  24865843.633 6 130670656.282 6     -2995.274 6        41.987               
> 2025 01 08 14 21 10.0000000  0  4                                             
G25  22410401.380 7 117720439.296 7      1075.918 7        45.486               
G28  23856280.949 7 125431779.019 7     -1509.977 7        42.198               
G29  23187405.305 7 121850417.760 7      1243.417 7        43.749               
G12  24866412.493 6 130673654.904 6     -2996.668 6        41.511               
> 2025 01 08 14 21 11.0000000  0  4                                             
G25  22410610.322 7 117719364.054 7      1076.861 7        45.813               
G28  23855982.733 7 125433289.874 7     -1510.124 7        43.065               
G29  23187168.433 7 121849176.036 7      1240.296 7        43.275               
G12  24866983.516 6 130676653.742 6     -3001.255 6        41.282               
> 2025 01 08 14 21 12.0000000  0  4                                             
G25  22410816.834 7 117718288.271 7      1077.098 7        45.304               
G28  23855703.262 7 125434800.080 7     -1510.517 7        42.649               
G29  23186934.045 7 121847934.962 7      1244.805 7        43.504               
G12  24867555.539 6 130679652.942 6     -3003.043 6        41.067               
> 2025 01 08 14 21 13.0000000  0  4                                             
G25  22411023.847 7 117717212.001 7      1075.178 7        45.563               
G28  23855422.861 7 125436309.700 7     -1510.211 7        42.756               
G29  23186697.781 7 121846694.472 7      1243.056 7        43.619               
G12  24868138.409 6 130682652.404 6     -2998.766 6        41.628               
> 2025 01 08 14 21 14.0000000  0  4                                             
G25  22411233.897 7 117716135.472 7      1077.144 7        45.402               
G28  23855131.006 7 125437818.957 7     -1509.189 7        42.386               
G29  23186463.322 7 121845454.344 7      1239.455 7        43.402               
G12  24868695.189 6 130685651.930 6     -2996.967 6        41.862               
> 2025 01 08 14 21 15.0000000  0  4                                             
G25  22411439.481 7 117715057.871 7      1079.363 7        45.547               
G28  23854846.442 7 125439327.059 7     -1507.390 7        42.277               
G29  23186225.378 7 121844215.373 7      1240.273 7        44.195               
G12  24869275.361 6 130688652.273 6     -2999.129 6        41.678               
> 2025 01 08 14 21 16.0000000  0  4                                             
G25  22411647.440 7 117713979.601 7      1081.239 7        45.529               
G28  23854564.969 7 125440834.368 7     -1505.046 7        42.653               
G29  23185997.441 7 121842977.196 7      1238.971 7        43.435               
G12  24869845.383 6 130691653.099 6     -3002.507 6        41.882               
> 2025 01 08 14 21 17.0000000  0  4                                             
G25  22411850.861 7 117712901.344 7      1076.919 7        45.636               
G28  23854278.368 7 125442341.589 7     -1508.132 7        42.875               
G29  23185763.249 7 121841739.107 7      1235.798 7        43.919               
G12  24870417.602 6 130694653.695 6     -2998.402 6        41.764               
> 2025 01 08 14 21 18.0000000  0  4                                             
G25  22412059.571 7 117711822.848 7      1079.793 7        45.357               
G28  23853991.213 7 125443848.463 7     -1505.303 7        42.759               
G29  23185531.524 7 121840501.363 7      1234.780 7        43.331               
G12  24870994.200 6 130697654.312 6     -2999.571 6        41.833               
> 2025 01 08 14 21 19.0000000  0  4                                             
G25  22412265.476 7 117710743.630 7      1078.505 7        45.033               
G28  23853702.342 7 125445354.536 7     -1500.348 7        42.684               
G29  23185295.688 7 121839264.428 7      1235.158 7        43.938               
G12  24871564.490 6 130700655.430 6     -3002.629 6        41.188               
> 2025 01 08 14 21 20.0000000  0  4                                             
G25  22412473.168 7 117709663.766 7      1079.559 7        45.114               
G28  23853425.319 7 125446859.851 7     -1503.973 7        42.615               
G29  23185064.588 7 121838028.246 7      1235.508 7        43.874               
G12  24872141.231 6 130703657.012 6     -2999.707 6        41.236               
> 2025 01 08 14 21 21.0000000  0  4                                             
G25  22412676.446 7 117708583.631 7      1082.375 7        45.084               
G28  23853135.680 7 125448364.793 7     -1505.023 7        42.839               
G29  23184829.736 7 121836792.432 7      1235.677 7        44.132               
G12  24872710.091 6 130706658.632 6     -3002.057 6        41.716               
> 2025 01 08 14 21 22.0000000  0  4                                             
G25  22412886.228 7 117707502.865 7      1080.825 7        44.989               
G28  23852850.508 6 125449868.998 6     -1505.251 6        41.919               
G29  23184601.459 7 121835557.364 7      1233.831 7        43.920               
G12  24873284.866 6 130709660.662 6     -2998.432 6        41.949               
> 2025 01 08 14 21 23.0000000  0  4                                             
G25  22413093.330 7 117706421.221 7      1080.668 7        45.080               
G28  23852565.104 7 125451372.238 7     -1502.333 7        42.584               
G29  23184365.159 7 121834323.268 7      1233.635 7        44.196               
G12  24873852.958 6 130712663.372 6     -3001.850 6        41.870               
> 2025 01 08 14 21 24.0000000  0  4                                             
G25  22413301.790 7 117705339.346 7      1082.136 7        45.110               
G28  23852280.004 7 125452875.133 7     -1502.974 7        42.373               
G29  23184130.163 7 121833089.488 7      1231.039 7        44.019               
G12  24874433.111 6 130715666.068 6     -3002.728 6        41.997               
> 2025 01 08 14 21 25.0000000  0  4                                             
G25  22413506.462 7 117704257.160 7      1082.809 7        45.433               
G28  23852001.443 7 125454377.612 7     -1502.206 7        42.683               
G29  23183899.010 7 121831856.136 7      1232.141 7        43.930               
G12  24875004.867 7 130718668.895 7     -3001.454 7        42.154               
> 2025 01 08 14 21 26.0000000  0  4                                             
G25  22413714.833 7 117703174.444 7      1079.737 7        45.267               
G28  23851716.558 7 125455879.477 7     -1499.863 7        42.871               
G29  23183670.286 7 121830623.402 7      1232.104 7        44.080               
G12  24875575.782 6 130721672.002 6     -3002.027 6        41.355               
> 2025 01 08 14 21 27.0000000  0  4                                             
G25  22413922.649 7 117702091.240 7      1086.021 7        45.012               
G28  23851433.262 7 125457380.736 7     -1499.192 7        42.022               
G29  23183431.753 7 121829391.279 7      1231.023 7        44.144               
G12  24876153.541 6 130724675.424 6     -3004.964 6        41.958               
> 2025 01 08 14 21 28.0000000  0  4                                             
G25  22414132.217 7 117701007.514 7      1086.937 7        44.795               
G28  23851148.537 7 125458881.391 7     -1500.235 7        43.189               
G29  23183197.383 7 121828159.756 7      1231.028 7        43.846               
G12  24876722.276 6 130727679.129 6     -3004.500 6        41.881               
> 2025 01 08 14 21 29.0000000  0  4                                             
G25  22414342.214 7 117699922.984 7      1085.888 7        44.854               
G28  23850869.280 7 125460381.119 7     -1500.677 7        42.869               
G29  23182965.997 7 121826929.146 7      1229.808 7        43.608               
G12  24877293.906 6 130730683.422 6     -3001.925 6        41.665               
> 2025 01 08 14 21 30.0000000  0  4                                             
G25  22414547.886 7 117698837.964 7      1086.061 7        44.669               
G28  23850582.178 7 125461880.263 7     -1497.748 7        43.181               
G29  23182734.200 7 121825699.132 7      1227.502 7        43.908               
G12  24877871.058 6 130733687.997 6     -3006.389 6        41.727               
> 2025 01 08 14 21 31.0000000  0  4                                             
G25  22414755.685 7 117697752.718 7      1085.471 7        44.487               
G28  23850298.919 7 125463379.085 7     -1499.185 7        42.862               
G29  23182497.900 7 121824469.437 7      1230.393 7        43.913               
G12  24878451.676 7 130736692.599 7     -3002.546 7        42.414               
> 2025 01 08 14 21 32.0000000  0  4                                             
G25  22414964.860 7 117696667.169 7      1085.954 7        44.844               
G28  23850020.841 7 125464877.486 7     -1494.390 7        42.583               
G29  23182264.119 7 121823240.138 7      1229.765 7        43.691               
G12  24879017.106 6 130739697.273 6     -3002.877 6        41.812               
> 2025 01 08 14 21 33.0000000  0  4                                             
G25  22415173.106 7 117695581.131 7      1086.857 7        44.960               
G28  23849736.634 7 125466375.311 7     -1498.147 7        42.757               
G29  23182041.007 7 121822011.451 7      1223.988 7        43.823               
G12  24879594.418 7 130742702.221 7     -3003.259 7        42.002               
> 2025 01 08 14 21 34.0000000  0  4                                             
G25  22415384.782 7 117694494.837 7      1084.901 7        44.200               
G28  23849450.533 7 125467872.760 7     -1497.381 7        43.309               
G29  23181803.420 7 121820783.109 7      1227.033 7        43.243               
G12  24880162.939 6 130745707.221 6     -3004.377 6        41.429               
> 2025 01 08 14 21 35.0000000  0  4                                             
G25  22415591.759 7 117693408.211 7      1086.598 7        44.669               
G28  23849175.815 7 125469369.798 7     -1499.191 7        43.070               
G29  23181571.891 7 121819555.194 7      1225.875 7        43.277               
G12  24880738.375 6 130748712.339 6     -3004.931 6        41.877               
> 2025 01 08 14 21 36.0000000  0  4                                             
G25  22415800.344 7 117692320.889 7      1088.355 7        44.999               
G28  23848884.889 7 125470866.014 7     -1499.411 7        42.993               
G29  23181335.162 7 121818328.091 7      1229.605 7        43.151               
G12  24881311.131 7 130751717.944 7     -3005.727 7        42.369               
> 2025 01 08 14 21 37.0000000  0  4                                             
G25  22416009.287 7 117691232.711 7      1086.518 7        44.720               
G28  23848604.363 7 125472361.292 7     -1499.808 7        42.707               
G29  23181110.030 7 121817101.939 7      1224.181 7        43.415               
G12  24881890.444 7 130754724.166 7     -3006.976 7        42.100               
> 2025 01 08 14 21 38.0000000  0  4                                             
G25  22416219.391 7 117690144.335 7      1088.529 7        44.788               
G28  23848321.211 7 125473856.239 7     -1494.390 7        43.182               
G29  23180878.466 7 121815876.089 7      1223.989 7        43.253               
G12  24882455.624 7 130757730.375 7     -3007.293 7        42.150               
> 2025 01 08 14 21 39.0000000  0  4                                             
G25  22416430.102 7 117689055.545 7      1089.439 7        44.706               
G28  23848037.219 7 125475350.706 7     -1496.140 7        43.476               
G29  23180645.936 7 121814650.742 7      1224.479 7        43.930               
G12  24883035.563 6 130760736.796 6     -3008.629 6        41.448               
> 2025 01 08 14 21 40.0000000  0  4                                             
G25  22416636.936 7 117687966.986 7      1087.761 7        44.800               
G28  23847754.084 7 125476845.278 7     -1495.943 7        42.438               
G29  23180414.765 7 121813425.287 7      1222.470 7        43.314               
G12  24883609.016 7 130763742.766 7     -3001.975 7        42.335               
> 2025 01 08 14 21 41.0000000  0  4                                             
G25  22416845.771 7 117686876.888 7      1093.298 7        44.988               
G28  23847469.841 7 125478338.216 7     -1488.731 7        43.246               
G29  23180184.755 7 121812201.449 7      1222.734 7        43.708               
G12  24884179.234 7 130766750.068 7     -3008.128 7        42.052               
> 2025 01 08 14 21 42.0000000  0  4                                             
G25  22417052.194 7 117685785.217 7      1090.125 7        44.588               
G28  23847191.781 7 125479829.471 7     -1492.969 7        42.649               
G29  23179951.403 7 121810979.296 7      1223.671 7        43.357               
G12  24884752.079 7 130769758.707 7     -3010.385 7        42.088               
> 2025 01 08 14 21 43.0000000  0  4                                             
G25  22417262.316 7 117684694.031 7      1091.936 7        44.750               
G28  23846907.557 7 125481321.119 7     -1490.755 7        42.945               
G29  23179724.234 7 121809756.757 7      1223.917 7        43.045               
G12  24885331.840 6 130772766.661 6     -3004.960 6        41.864               
> 2025 01 08 14 21 44.0000000  0  4                                             
G25  22417471.830 7 117683604.201 7      1090.398 7        44.846               
G28  23846625.173 7 125482814.013 7     -1493.745 7        42.980               
G29  23179485.182 7 121808532.962 7      1227.139 7        43.558               
G12  24885905.328 6 130775773.055 6     -3006.224 6        41.946               
> 2025 01 08 14 21 45.0000000  0  4                                             
G25  22417683.275 7 117682512.919 7      1092.648 7        44.616               
G28  23846348.274 7 125484305.348 7     -1491.374 7        43.225               
G29  23179260.676 7 121807310.727 7      1219.434 7        43.488               
G12  24886485.428 7 130778780.680 7     -3008.567 7        42.281               
> 2025 01 08 14 21 46.0000000  0  4                                             
G25  22417893.861 7 117681421.651 7      1090.081 7        44.947               
G28  23846062.602 7 125485796.603 7     -1489.263 7        43.414               
G29  23179030.308 7 121806088.570 7      1222.896 7        43.453               
G12  24887059.077 7 130781788.055 7     -3006.139 7        42.392               
> 2025 01 08 14 21 47.0000000  0  4                                             
G25  22418100.266 7 117680329.498 7      1094.169 7        44.679               
G28  23845776.948 7 125487286.853 7     -1494.247 7        43.200               
G29  23178801.764 7 121804867.410 7      1220.354 7        43.921               
G12  24887626.026 7 130784796.127 7     -3012.184 7        42.135               
> 2025 01 08 14 21 48.0000000  0  4                                             
G25  22418312.121 7 117679235.697 7      1095.841 7        44.694               
G28  23845503.266 7 125488775.370 7     -1484.770 7        43.477               
G29  23178568.662 7 121803648.012 7      1218.324 7        44.094               
G12  24888203.409 6 130787805.624 6     -3009.955 6        41.955               
> 2025 01 08 14 21 49.0000000  0  4                                             
G25  22418520.331 7 117678141.990 7      1091.542 7        44.286               
G28  23845218.970 7 125490263.865 7     -1490.896 7        43.445               
G29  23178341.690 7 121802428.607 7      1224.975 7        43.921               
G12  24888773.878 7 130790814.818 7     -3005.829 7        42.451               
> 2025 01 08 14 21 50.0000000  0  4                                             
G25  22418732.919 7 117677050.959 7      1090.669 7        44.461               
G28  23844935.156 7 125491754.924 7     -1491.062 7        43.084               
G29  23178106.873 7 121801206.647 7      1220.849 7        43.787               
G12  24889353.049 7 130793821.116 7     -3005.826 7        42.111               
> 2025 01 08 14 21 51.0000000  0  4                                             
G25  22418939.985 7 117675958.163 7      1091.914 7        44.820               
G28  23844658.544 7 125493244.125 7     -1489.262 7        43.417               
G29  23177878.364 7 121799986.534 7      1217.844 7        43.904               
G12  24889923.410 7 130796828.966 7     -3010.934 7        42.170               
> 2025 01 08 14 21 52.0000000  0  4                                             
G25  22419149.803 7 117674864.370 7      1094.083 7        44.667               
G28  23844374.676 7 125494732.223 7     -1489.511 7        43.130               
G29  23177647.818 7 121798767.527 7      1216.967 7        43.950               
G12  24890498.114 7 130799837.585 7     -3008.206 7        42.161               
> 2025 01 08 14 21 53.0000000  0  4                                             
G25  22419361.551 7 117673770.075 7      1093.766 7        45.326               
G28  23844088.111 7 125496219.724 7     -1485.668 7        43.263               
G29  23177415.360 7 121797549.131 7      1215.882 7        43.759               
G12  24891069.815 7 130802846.503 7     -3012.043 7        42.950               
> 2025 01 08 14 21 54.0000000  0  4                                             
G25  22419567.777 7 117672675.313 7      1096.607 7        44.777               
G28  23843814.089 7 125497706.649 7     -1485.520 7        43.489               
G29  23177186.779 7 121796331.304 7      1217.017 7        43.662               
G12  24891645.805 7 130805855.682 7     -3009.925 7        42.369               
> 2025 01 08 14 21 55.0000000  0  4                                             
G25  22419785.011 7 117671579.937 7      1096.849 7        44.210               
G28  23843532.617 7 125499192.840 7     -1487.125 7        43.633               
G29  23176956.054 7 121795114.181 7      1220.104 7        43.447               
G12  24892219.544 7 130808865.247 7     -3008.116 7        42.444               
> 2025 01 08 14 21 56.0000000  0  4                                             
G25  22419992.935 7 117670484.375 7      1097.203 7        44.561               
G28  23843245.283 7 125500678.751 7     -1485.996 7        43.192               
G29  23176728.903 7 121793897.353 7      1217.877 7        43.491               
G12  24892793.818 7 130811874.790 7     -3011.145 7        42.287               
> 2025 01 08 14 21 57.0000000  0  4                                             
G25  22420200.555 7 117669387.499 7      1097.759 7        44.759               
G28  23842972.512 7 125502163.239 7     -1479.576 7        43.254               
G29  23176498.107 7 121792681.949 7      1218.102 7        43.972               
G12  24893370.827 7 130814885.427 7     -3008.051 7        42.102               
> 2025 01 08 14 21 58.0000000  0  4                                             
G25  22420410.052 7 117668290.447 7      1094.265 7        44.648               
G28  23842692.880 7 125503647.458 7     -1483.389 7        43.471               
G29  23176268.508 7 121791466.813 7      1214.063 7        43.735               
G12  24893942.975 7 130817896.023 7     -3011.859 7        42.588               
> 2025 01 08 14 21 59.0000000  0  4                                             
G25  22420624.927 7 117667193.252 7      1099.100 7        45.018               
G28  23842410.424 7 125505131.431 7     -1485.289 7        43.513               
G29  23176038.033 7 121790251.920 7      1211.572 7        43.421               
G12  24894518.787 7 130820906.525 7     -3009.574 7        42.457               
> 2025 01 08 14 22 00.0000000  0  4                                             
G25  22420834.048 7 117666095.399 7      1098.496 7        43.884               
G28  23842133.186 7 125506614.647 7     -1485.889 7        43.357               
G29  23175808.774 7 121789037.781 7      1214.181 7        43.561               
G12  24895093.669 7 130823917.514 7     -3011.537 7        42.299               
> 2025 01 08 14 22 01.0000000  0  4                                             
G25  22421046.189 7 117664997.288 7      1099.836 7        44.475               
G28  23841851.213 7 125508097.485 7     -1482.292 7        42.959               
G29  23175584.142 7 121787824.018 7      1210.272 7        43.887               
G12  24895668.998 7 130826928.531 7     -3011.804 7        42.538               
> 2025 01 08 14 22 02.0000000  0  4                                             
G25  22421256.311 7 117663899.010 7      1099.543 7        44.889               
G28  23841568.471 7 125509580.056 7     -1482.925 7        43.395               
G29  23175351.613 7 121786610.509 7      1214.319 7        43.659               
G12  24896244.452 7 130829939.474 7     -3011.554 7        42.264               
> 2025 01 08 14 22 03.0000000  0  4                                             
G25  22421466.129 7 117662800.211 7      1099.872 7        44.853               
G28  23841287.553 7 125511062.007 7     -1480.578 7        43.343               
G29  23175124.962 7 121785397.640 7      1215.610 7        43.832               
G12  24896818.262 7 130832950.756 7     -3012.011 7        42.239               
> 2025 01 08 14 22 04.0000000  0  4                                             
G25  22421677.680 7 117661700.719 7      1100.903 7        44.517               
G28  23841008.724 7 125512543.146 7     -1480.241 7        42.989               
G29  23174899.080 7 121784185.572 7      1212.339 7        44.023               
G12  24897392.912 6 130835962.507 6     -3012.888 6        41.955               
> 2025 01 08 14 22 05.0000000  0  4                                             
G25  22421886.015 7 117660600.741 7      1097.877 7        44.695               
G28  23840727.341 7 125514023.693 7     -1478.452 7        42.682               
G29  23174662.422 7 121782974.079 7      1209.740 7        43.556               
G12  24897971.797 6 130838974.512 6     -3013.133 6        41.950               
> 2025 01 08 14 22 06.0000000  0  4                                             
G25  22422101.033 7 117659500.864 7      1098.456 7        44.499               
G28  23840444.010 7 125515504.237 7     -1480.033 7        43.164               
G29  23174440.418 7 121781762.601 7      1211.883 7        43.550               
G12  24898536.458 7 130841986.215 7     -3010.351 7        42.119               
> 2025 01 08 14 22 07.0000000  0  4                                             
G25  22422311.959 7 117658400.590 7      1101.426 7        44.439               
G28  23840164.663 7 125516984.298 7     -1481.440 7        43.431               
G29  23174210.354 7 121780551.607 7      1214.064 7        44.023               
G12  24899118.488 6 130844998.100 6     -3014.603 6        41.595               
> 2025 01 08 14 22 08.0000000  0  4                                             
G25  22422525.815 7 117657300.052 7      1099.225 7        44.830               
G28  23839880.295 7 125518463.954 7     -1479.855 7        42.844               
G29  23173978.289 7 121779340.993 7      1209.929 7        44.191               
G12  24899687.652 6 130848010.030 6     -3008.488 6        41.886               
> 2025 01 08 14 22 09.0000000  0  4                                             
G25  22422730.737 7 117656199.276 7      1101.416 7        44.472               
G28  23839598.787 7 125519943.314 7     -1483.896 7        42.509               
G29  23173751.460 7 121778130.706 7      1213.226 7        44.319               
G12  24900263.749 6 130851021.958 6     -3011.475 6        41.318               
> 2025 01 08 14 22 10.0000000  0  4                                             
G25  22422946.899 7 117655098.385 7      1102.386 7        44.990               
G28  23839322.103 7 125521422.417 7     -1481.893 7        42.796               
G29  23173520.610 7 121776920.649 7      1209.318 7        43.871               
G12  24900833.771 6 130854033.809 6     -3012.166 6        41.082               
> 2025 01 08 14 22 11.0000000  0  4                                             
G25  22423155.484 7 117653996.703 7      1103.010 7        45.302               
G28  23839043.811 7 125522900.637 7     -1478.879 7        43.176               
G29  23173295.764 7 121775711.488 7      1210.392 7        43.765               
G12  24901417.373 6 130857046.258 6     -3013.166 6        41.621               
> 2025 01 08 14 22 12.0000000  0  4                                             
G25  22423369.287 7 117652893.812 7      1103.653 7        44.310               
G28  23838763.964 7 125524377.541 7     -1474.411 7        42.610               
G29  23173065.789 7 121774503.632 7      1204.594 7        43.520               
G12  24901988.878 6 130860059.665 6     -3012.739 6        41.464               
> 2025 01 08 14 22 13.0000000  0  4                                             
G25  22423581.642 7 117651789.726 7      1104.550 7        44.875               
G28  23838491.390 7 125525853.149 7     -1475.808 7        42.824               
G29  23172841.176 7 121773297.063 7      1205.274 7        43.577               
G12  24902566.280 6 130863074.050 6     -3014.451 6        41.777               
> 2025 01 08 14 22 14.0000000  0  4                                             
G25  22423794.409 7 117650685.136 7      1104.086 7        44.208               
G28  23838212.401 7 125527328.131 7     -1471.284 7        43.119               
G29  23172617.098 7 121772091.121 7      1204.610 7        43.668               
G12  24903139.268 6 130866088.749 6     -3014.006 6        41.556               
> 2025 01 08 14 22 15.0000000  0  4                                             
G25  22424003.334 7 117649580.211 7      1107.194 7        44.085               
G28  23837929.909 7 125528802.677 7     -1480.060 7        42.943               
G29  23172385.355 7 121770885.615 7      1205.242 7        43.533               
G12  24903712.167 7 130869103.565 7     -3015.697 7        42.010               
> 2025 01 08 14 22 16.0000000  0  4                                             
G25  22424218.477 7 117648475.380 7      1100.691 7        44.353               
G28  23837654.548 7 125530277.201 7     -1478.622 7        43.582               
G29  23172155.416 7 121769680.113 7      1207.751 7        43.428               
G12  24904291.123 7 130872118.068 7     -3017.748 7        42.428               
> 2025 01 08 14 22 17.0000000  0  4                                             
G25  22424427.562 7 117647370.243 7      1107.476 7        44.209               
G28  23837376.845 7 125531751.334 7     -1472.681 7        43.214               
G29  23171927.336 7 121768475.006 7      1203.883 7        43.376               
G12  24904869.168 6 130875132.656 6     -3014.156 6        41.538               
> 2025 01 08 14 22 18.0000000  0  4                                             
G25  22424641.812 7 117646264.446 7      1106.944 7        44.612               
G28  23837096.766 7 125533224.702 7     -1472.524 7        42.832               
G29  23171701.954 7 121767270.663 7      1203.617 7        43.461               
G12  24905444.175 6 130878147.665 6     -3013.789 6        41.840               
> 2025 01 08 14 22 19.0000000  0  4                                             
G25  22424852.791 7 117645158.007 7      1107.731 7        44.236               
G28  23836815.436 7 125534697.308 7     -1469.271 7        43.098               
G29  23171473.570 7 121766067.049 7      1204.839 7        43.296               
G12  24906012.357 6 130881163.127 6     -3013.953 6        41.730               
> 2025 01 08 14 22 20.0000000  0  4                                             
G25  22425069.006 7 117644051.044 7      1107.487 7        44.437               
G28  23836542.916 7 125536169.281 7     -1471.612 7        42.668               
G29  23171245.454 7 121764864.079 7      1203.052 7        43.520               
G12  24906598.407 6 130884178.913 6     -3015.753 6        41.905               
> 2025 01 08 14 22 21.0000000  0  4                                             
G25  22425276.376 7 117642943.480 7      1106.021 7        44.457               
G28  23836259.370 7 125537640.570 7     -1470.588 7        42.634               
G29  23171018.893 7 121763661.809 7      1201.804 7        43.785               
G12  24907171.699 6 130887195.055 6     -3016.900 6        41.882               
> 2025 01 08 14 22 22.0000000  0  4                                             
G25  22425489.375 7 117641835.356 7      1109.671 7        44.626               
G28  23835983.097 7 125539111.176 7     -1471.275 7        43.067               
G29  23170791.903 7 121762460.206 7      1201.420 7        43.778               
G12  24907754.265 6 130890211.558 6     -3017.436 6        41.744               
> 2025 01 08 14 22 23.0000000  0  4                                             
G25  22425700.140 7 117640726.452 7      1109.538 7        44.500               
G28  23835705.627 7 125540580.889 7     -1471.200 7        42.904               
G29  23170566.038 7 121761259.479 7      1199.498 7        43.465               
G12  24908329.880 6 130893228.620 6     -3019.328 6        41.667               
> 2025 01 08 14 22 24.0000000  0  4                                             
G25  22425920.537 7 117639616.995 7      1109.912 7        44.227               
G28  23835424.190 7 125542049.961 7     -1470.489 7        42.636               
G29  23170337.422 7 121760059.408 7      1200.073 7        43.106               
G12  24908899.312 6 130896246.006 6     -3020.330 6        41.016               
> 2025 01 08 14 22 25.0000000  0  4                                             
G25  22426133.089 7 117638507.193 7      1111.185 7        44.107               
G28  23835151.991 7 125543518.555 7     -1467.256 7        43.423               
G29  23170112.076 7 121758859.826 7      1197.218 7        43.939               
G12  24909476.857 7 130899263.552 7     -3019.466 7        42.042               
> 2025 01 08 14 22 26.0000000  0  4                                             
G25  22426341.299 7 117637396.946 7      1108.753 7        44.062               
G28  23834877.023 7 125544986.601 7     -1466.268 7        43.464               
G29  23169887.319 7 121757660.762 7      1200.095 7        43.404               
G12  24910055.259 7 130902281.302 7     -3018.728 7        42.194               
> 2025 01 08 14 22 27.0000000  0  4                                             
G25  22426555.316 7 117636286.307 7      1110.420 7        44.346               
G28  23834595.228 7 125546454.159 7     -1465.111 7        43.295               
G29  23169658.542 7 121756462.199 7      1197.713 7        43.480               
G12  24910630.230 6 130905299.251 6     -3019.289 6        41.545               
> 2025 01 08 14 22 28.0000000  0  4                                             
G25  22426773.247 7 117635175.468 7      1112.830 7        44.079               
G28  23834319.080 7 125547921.405 7     -1466.113 7        43.105               
G29  23169436.662 7 121755263.952 7      1199.293 7        43.717               
G12  24911209.437 6 130908317.182 6     -3016.293 6        41.753               
> 2025 01 08 14 22 29.0000000  0  4                                             
G25  22426983.761 7 117634064.359 7      1110.548 7        44.216               
G28  23834038.840 7 125549388.273 7     -1466.151 7        42.303               
G29  23169205.151 7 121754066.046 7      1198.582 7        43.373               
G12  24911779.673 6 130911335.160 6     -3016.622 6        41.849               
> 2025 01 08 14 22 30.0000000  0  4                                             
G25  22427197.225 7 117632952.453 7      1111.677 7        44.531               
G28  23833761.066 7 125550854.239 7     -1466.082 7        42.773               
G29  23168983.540 7 121752869.067 7      1196.643 7        43.247               
G12  24912357.736 6 130914353.729 6     -3016.575 6        41.715               
> 2025 01 08 14 22 31.0000000  0  4                                             
G25  22427411.653 7 117631839.998 7      1109.964 7        44.723               
G28  23833484.454 7 125552319.547 7     -1464.420 7        43.147               
G29  23168753.994 7 121751672.726 7      1198.618 7        43.538               
G12  24912941.053 6 130917372.608 6     -3020.800 6        41.434               
> 2025 01 08 14 22 32.0000000  0  4                                             
G25  22427626.814 7 117630727.116 7      1113.895 7        44.702               
G28  23833209.432 7 125553784.315 7     -1460.530 7        42.666               
G29  23168529.863 7 121750476.938 7      1194.295 7        43.230               
G12  24913507.894 6 130920391.725 6     -3022.025 6        41.773               
> 2025 01 08 14 22 33.0000000  0  4                                             
G25  22427841.153 7 117629613.725 7      1111.709 7        44.502               
G28  23832930.711 7 125555248.486 7     -1465.595 7        42.826               
G29  23168303.623 7 121749281.732 7      1195.185 7        43.151               
G12  24914088.244 7 130923411.093 7     -3016.393 7        42.066               
> 2025 01 08 14 22 34.0000000  0  4                                             
G25  22428054.116 7 117628499.999 7      1114.399 7        44.752               
G28  23832655.153 7 125556712.182 7     -1463.139 7        43.020               
G29  23168074.239 7 121748086.977 7      1196.063 7        43.081               
G12  24914666.521 6 130926430.630 6     -3019.366 6        41.683               
> 2025 01 08 14 22 35.0000000  0  4                                             
G25  22428265.399 7 117627385.806 7      1113.394 7        44.210               
G28  23832376.021 7 125558175.333 7     -1460.846 7        42.289               
G29  23167854.003 7 121746892.793 7      1195.539 7        43.482               
G12  24915241.761 7 130929450.403 7     -3022.862 7        42.052               
> 2025 01 08 14 22 36.0000000  0  4                                             
G25  22428482.937 7 117626270.851 7      1117.854 7        44.803               
G28  23832103.178 7 125559637.604 7     -1461.651 7        42.477               
G29  23167626.352 7 121745699.485 7      1191.211 7        43.776               
G12  24915814.016 6 130932470.727 6     -3024.302 6        41.350               
> 2025 01 08 14 22 37.0000000  0  4                                             
G25  22428695.364 7 117625155.383 7      1116.532 7        44.099               
G28  23831823.957 7 125561099.244 7     -1463.223 7        42.980               
G29  23167398.432 7 121744506.773 7      1191.692 7        43.356               
G12  24916387.719 6 130935491.332 6     -3015.977 6        40.944               
> 2025 01 08 14 22 38.0000000  0  4                                             
G25  22428911.650 7 117624040.159 7      1116.083 7        44.272               
G28  23831547.934 7 125562561.042 7     -1463.490 7        43.239               
G29  23167171.764 7 121743313.928 7      1191.613 7        42.714               
G12  24916969.874 6 130938511.469 6     -3022.352 6        41.607               
> 2025 01 08 14 22 39.0000000  0  4                                             
G25  22429122.666 7 117622924.163 7      1115.656 7        44.346               
G28  23831273.502 7 125564021.939 7     -1463.325 7        43.122               
G29  23166946.328 7 121742121.970 7      1190.855 7        43.302               
G12  24917547.222 6 130941532.180 6     -3020.981 6        41.085               
> 2025 01 08 14 22 40.0000000  0  4                                             
G25  22429336.058 7 117621807.440 7      1116.703 7        44.331               
G28  23830999.087 7 125565482.003 7     -1459.708 7        43.306               
G29  23166722.769 7 121740930.854 7      1190.872 7        43.630               
G12  24918118.941 6 130944553.398 6     -3025.850 6        41.150               
> 2025 01 08 14 22 41.0000000  0  4                                             
G25  22429552.594 7 117620689.994 7      1115.781 7        44.643               
G28  23830720.348 7 125566941.241 7     -1453.040 7        43.310               
G29  23166501.997 7 121739740.543 7      1185.142 7        43.499               
G12  24918693.609 6 130947575.124 6     -3022.182 6        41.177               
> 2025 01 08 14 22 42.0000000  0  4                                             
G25  22429768.559 7 117619572.766 7      1116.541 7        44.843               
G28  23830452.867 7 125568400.593 7     -1459.840 7        43.871               
G29  23166276.061 7 121738550.116 7      1192.821 7        43.659               
G12  24919272.977 6 130950596.431 6     -3023.866 6        41.847               
> 2025 01 08 14 22 43.0000000  0  4                                             
G25  22429984.399 7 117618455.391 7      1117.781 7        44.556               
G28  23830173.878 7 125569859.675 7     -1455.596 7        43.578               
G29  23166047.623 7 121737359.965 7      1186.540 7        43.943               
G12  24919854.595 6 130953617.638 6     -3021.594 6        41.345               
> 2025 01 08 14 22 44.0000000  0  4                                             
G25  22430196.540 7 117617336.775 7      1119.520 7        44.487               
G28  23829897.551 7 125571317.424 7     -1456.567 7        43.575               
G29  23165826.101 7 121736171.136 7      1188.096 7        43.312               
G12  24920430.014 6 130956639.879 6     -3021.927 6        41.358               
> 2025 01 08 14 22 45.0000000  0  4                                             
G25  22430413.577 7 117616218.152 7      1120.238 7        44.537               
G28  23829623.816 7 125572775.040 7     -1457.452 7        43.980               
G29  23165604.704 7 121734982.431 7      1188.452 7        43.286               
G12  24921005.646 6 130959661.947 6     -3022.180 6        41.487               
> 2025 01 08 14 22 46.0000000  0  4                                             
G25  22430622.877 7 117615098.900 7      1121.849 7        44.301               
G28  23829344.737 7 125574231.922 7     -1456.288 7        43.882               
G29  23165378.589 7 121733794.459 7      1189.382 7        43.524               
G12  24921593.841 6 130962684.403 6     -3022.656 6        41.877               
> 2025 01 08 14 22 47.0000000  0  4                                             
G25  22430839.504 7 117613978.903 7      1119.949 7        44.129               
G28  23829072.414 7 125575687.965 7     -1457.648 7        43.539               
G29  23165150.884 7 121732607.328 7      1185.733 7        43.819               
G12  24922161.665 6 130965707.387 6     -3022.829 6        41.387               
> 2025 01 08 14 22 48.0000000  0  4                                             
G25  22431052.073 7 117612858.351 7      1119.026 7        44.473               
G28  23828795.033 7 125577143.343 7     -1455.026 7        43.142               
G29  23164931.721 7 121731420.853 7      1185.881 7        43.856               
G12  24922740.854 6 130968730.703 6     -3027.406 6        41.814               
> 2025 01 08 14 22 49.0000000  0  4                                             
G25  22431267.878 7 117611737.654 7      1121.641 7        44.527               
G28  23828519.742 7 125578598.444 7     -1452.721 7        42.966               
G29  23164706.821 7 121730234.617 7      1183.833 7        43.713               
G12  24923314.860 6 130971753.940 6     -3024.266 6        41.839               
> 2025 01 08 14 22 50.0000000  0  4                                             
G25  22431485.308 7 117610615.813 7      1122.553 7        44.267               
G28  23828245.399 7 125580052.322 7     -1452.416 7        43.533               
G29  23164484.066 7 121729049.649 7      1181.508 7        43.943               
G12  24923899.588 7 130974778.134 7     -3025.371 7        42.222               
> 2025 01 08 14 22 51.0000000  0  4                                             
G25  22431694.250 7 117609493.753 7      1122.053 7        44.204               
G28  23827973.165 7 125581505.862 7     -1454.330 7        43.606               
G29  23164263.723 7 121727864.993 7      1185.152 7        43.649               
G12  24924472.219 6 130977802.317 6     -3024.586 6        41.989               
> 2025 01 08 14 22 52.0000000  0  4                                             
G25  22431912.360 7 117608371.399 7      1122.829 7        44.631               
G28  23827697.231 7 125582958.984 7     -1455.264 7        43.431               
G29  23164035.536 7 121726680.733 7      1186.447 7        43.588               
G12  24925052.926 6 130980826.558 6     -3024.913 6        41.857               
> 2025 01 08 14 22 53.0000000  0  4                                             
G25  22432125.341 7 117607248.779 7      1123.103 7        43.891               
G28  23827424.461 7 125584411.741 7     -1455.377 7        43.288               
G29  23163820.107 7 121725496.844 7      1185.745 7        43.217               
G12  24925628.881 6 130983850.880 6     -3023.230 6        41.933               
> 2025 01 08 14 22 54.0000000  0  4                                             
G25  22432342.592 7 117606125.733 7      1125.071 7        44.399               
G28  23827148.241 7 125585863.953 7     -1451.325 7        43.524               
G29  23163591.473 7 121724313.495 7      1184.211 7        43.960               
G12  24926202.566 6 130986875.393 6     -3027.609 6        41.969               
> 2025 01 08 14 22 55.0000000  0  4                                             
G25  22432562.345 7 117605002.338 7      1124.427 7        44.451               
G28  23826874.559 7 125587315.731 7     -1451.953 7        43.221               
G29  23163366.466 7 121723130.601 7      1183.395 7        44.240               
G12  24926781.308 6 130989900.042 6     -3023.596 6        41.777               
> 2025 01 08 14 22 56.0000000  0  4                                             
G25  22432776.059 7 117603878.450 7      1123.198 7        44.459               
G28  23826600.038 7 125588766.879 7     -1453.511 7        42.890               
G29  23163147.999 7 121721948.308 7      1181.291 7        44.164               
G12  24927357.870 6 130992924.979 6     -3027.162 6        41.602               
> 2025 01 08 14 22 57.0000000  0  4                                             
G25  22432989.772 7 117602754.153 7      1124.498 7        44.167               
G28  23826324.765 7 125590217.531 7     -1448.347 7        42.590               
G29  23162922.188 7 121720766.514 7      1180.528 7        44.212               
G12  24927936.379 7 130995950.077 7     -3022.150 7        42.431               
> 2025 01 08 14 22 58.0000000  0  4                                             
G25  22433207.417 7 117601629.717 7      1128.580 7        44.601               
G28  23826045.919 7 125591667.914 7     -1450.356 7        43.515               
G29  23162699.201 7 121719584.955 7      1182.913 7        43.940               
G12  24928513.441 7 130998975.139 7     -3024.276 7        42.282               
> 2025 01 08 14 22 59.0000000  0  4                                             
G25  22433423.597 7 117600504.970 7      1122.830 7        44.102               
G28  23825778.438 7 125593117.867 7     -1448.623 7        43.365               
G29  23162474.444 7 121718403.848 7      1182.469 7        43.907               
G12  24929086.555 6 131002000.270 6     -3026.370 6        41.735               
> 2025 01 08 14 23 00.0000000  0  4                                             
G25  22433641.742 7 117599378.932 7      1129.247 7        44.451               
G28  23825503.362 7 125594566.461 7     -1449.162 7        42.973               
G29  23162251.796 7 121717224.114 7      1178.989 7        44.110               
G12  24929668.281 6 131005026.492 6     -3027.337 6        41.454               
> 2025 01 08 14 23 01.0000000  0  4                                             
G25  22433857.992 7 117598252.698 7      1123.723 7        44.667               
G28  23825223.694 7 125596014.724 7     -1451.058 7        43.253               
G29  23162031.596 7 121716044.683 7      1179.974 7        44.139               
G12  24930241.304 6 131008052.676 6     -3020.259 6        41.550               
> 2025 01 08 14 23 02.0000000  0  4                                             
G25  22434070.634 7 117597126.217 7      1126.542 7        44.591               
G28  23824955.426 7 125597462.608 7     -1448.262 7        43.440               
G29  23161803.427 7 121714865.612 7      1177.696 7        44.256               
G12  24930818.653 6 131011078.919 6     -3027.554 6        41.779               
> 2025 01 08 14 23 03.0000000  0  4                                             
G25  22434290.369 7 117595998.795 7      1128.791 7        44.656               
G28  23824681.995 7 125598909.482 7     -1447.095 7        43.358               
G29  23161583.405 7 121713687.557 7      1175.692 7        43.997               
G12  24931399.289 6 131014105.834 6     -3024.920 6        41.717               
> 2025 01 08 14 23 04.0000000  0  4                                             
G25  22434506.709 7 117594871.215 7      1127.141 7        44.087               
G28  23824409.260 7 125600356.065 7     -1443.304 7        43.319               
G29  23161363.241 7 121712509.792 7      1176.465 7        43.676               
G12  24931970.919 6 131017132.738 6     -3025.037 6        41.327               
> 2025 01 08 14 23 05.0000000  0  4                                             
G25  22434725.444 7 117593743.511 7      1127.330 7        44.663               
G28  23824128.716 7 125601802.411 7     -1447.008 7        43.205               
G29  23161138.342 7 121711332.248 7      1176.946 7        44.296               
G12  24932554.718 6 131020159.544 6     -3028.159 6        41.886               
> 2025 01 08 14 23 06.0000000  0  4                                             
G25  22434938.586 7 117592615.167 7      1130.859 7        44.580               
G28  23823861.735 7 125603248.007 7     -1441.655 7        43.033               
G29  23160916.355 7 121710155.435 7      1176.573 7        44.532               
G12  24933128.277 6 131023186.775 6     -3026.837 6        41.894               
> 2025 01 08 14 23 07.0000000  0  4                                             
G25  22435156.391 7 117591485.508 7      1129.306 7        44.181               
G28  23823582.514 7 125604692.198 7     -1447.685 7        42.795               
G29  23160692.938 7 121708980.053 7      1171.526 7        44.459               
G12  24933710.825 6 131026215.084 6     -3029.115 6        41.505               
> 2025 01 08 14 23 08.0000000  0  4                                             
G25  22435370.123 7 117590356.012 7      1129.469 7        44.684               
G28  23823312.352 7 125606136.419 7     -1444.758 7        42.252               
G29  23160472.238 7 121707804.619 7      1175.958 7        44.396               
G12  24934282.241 6 131029243.020 6     -3025.536 6        41.498               
> 2025 01 08 14 23 09.0000000  0  4                                             
G25  22435589.054 7 117589226.742 7      1128.720 7        44.687               
G28  23823039.331 7 125607580.769 7     -1441.026 7        42.919               
G29  23160252.949 7 121706629.054 7      1174.876 7        44.410               
G12  24934862.359 6 131032270.520 6     -3029.975 6        41.812               
> 2025 01 08 14 23 10.0000000  0  4                                             
G25  22435807.271 7 117588096.093 7      1132.762 7        44.332               
G28  23822771.224 7 125609023.633 7     -1444.519 7        42.439               
G29  23160029.033 7 121705454.964 7      1172.175 7        43.343               
G12  24935441.440 7 131035299.172 7     -3030.414 7        42.342               
> 2025 01 08 14 23 11.0000000  0  4                                             
G25  22436020.448 7 117586965.009 7      1130.372 7        44.084               
G28  23822494.201 7 125610465.937 7     -1444.214 7        42.772               
G29  23159806.385 7 121704281.435 7      1171.673 7        43.718               
G12  24936016.144 7 131038328.047 7     -3027.384 7        42.239               
> 2025 01 08 14 23 12.0000000  0  4                                             
G25  22436239.022 7 117585833.112 7      1131.413 7        44.297               
G28  23822224.986 7 125611907.324 7     -1438.104 7        43.242               
G29  23159585.434 7 121703108.817 7      1172.721 7        44.171               
G12  24936593.224 6 131041357.532 6     -3031.089 6        41.818               
> 2025 01 08 14 23 13.0000000  0  4                                             
G25  22436456.577 7 117584700.944 7      1134.266 7        43.853               
G28  23821952.144 7 125613348.327 7     -1441.226 7        42.960               
G29  23159362.197 7 121701936.555 7      1173.458 7        43.661               
G12  24937178.595 6 131044387.052 6     -3030.015 6        41.515               
> 2025 01 08 14 23 14.0000000  0  4                                             
G25  22436671.756 7 117583567.977 7      1134.556 7        44.383               
G28  23821673.405 7 125614788.410 7     -1440.945 7        42.457               
G29  23159146.625 7 121700765.242 7      1167.742 7        43.472               
G12  24937755.997 7 131047417.174 7     -3031.347 7        42.022               
> 2025 01 08 14 23 15.0000000  0  4                                             
G25  22436889.436 7 117582434.565 7      1133.929 7        44.385               
G28  23821406.585 7 125616227.956 7     -1439.099 7        42.960               
G29  23158923.047 7 121699594.451 7      1169.496 7        43.496               
G12  24938330.683 6 131050447.507 6     -3029.859 6        41.976               
> 2025 01 08 14 23 16.0000000  0  4                                             
G25  22437106.456 7 117581300.434 7      1132.732 7        43.770               
G28  23821136.834 7 125617666.647 7     -1440.938 7        42.937               
G29  23158700.310 7 121698424.490 7      1169.107 7        43.796               
G12  24938910.247 6 131053478.348 6     -3031.608 6        41.939               
> 2025 01 08 14 23 17.0000000  0  4                                             
G25  22437322.832 7 117580166.321 7      1135.521 7        43.828               
G28  23820863.170 7 125619105.261 7     -1437.529 7        43.001               
G29  23158479.020 7 121697254.606 7      1170.292 7        43.208               
G12  24939490.579 6 131056508.949 6     -3029.069 6        41.720               
> 2025 01 08 14 23 18.0000000  0  4                                             
G25  22437544.068 7 117579031.854 7      1135.103 7        43.778               
G28  23820588.094 7 125620543.406 7     -1437.399 7        43.162               
G29  23158260.107 7 121696085.175 7      1169.692 7        43.281               
G12  24940068.552 6 131059539.692 6     -3030.385 6        41.769               
> 2025 01 08 14 23 19.0000000  0  4                                             
G25  22437765.823 7 117577896.969 7      1133.880 7        43.782               
G28  23820321.435 7 125621981.018 7     -1434.385 7        42.895               
G29  23158038.781 7 121694916.280 7      1167.944 7        44.108               
G12  24940647.026 6 131062570.643 6     -3030.858 6        41.548               
> 2025 01 08 14 23 20.0000000  0  4                                             
G25  22437977.338 7 117576762.184 7      1136.312 7        44.057               
G28  23820045.305 7 125623418.616 7     -1437.548 7        42.867               
G29  23157820.868 7 121693747.402 7      1168.704 7        44.098               
G12  24941230.789 6 131065601.283 6     -3031.297 6        41.266               
> 2025 01 08 14 23 21.0000000  0  4                                             
G25  22438197.788 7 117575625.452 7      1135.627 7        44.201               
G28  23819774.803 7 125624854.177 7     -1434.755 7        42.892               
G29  23157594.378 7 121692580.542 7      1168.412 7        43.852               
G12  24941806.905 6 131068633.635 6     -3036.457 6        41.993               
> 2025 01 08 14 23 22.0000000  0  4                                             
G25  22438412.681 7 117574490.069 7      1133.991 7        44.041               
G28  23819504.392 7 125626290.943 7     -1441.798 7        42.990               
G29  23157373.696 7 121691412.472 7      1170.956 7        43.867               
G12  24942387.147 7 131071664.437 7     -3032.750 7        42.184               
> 2025 01 08 14 23 23.0000000  0  4                                             
G25  22438634.632 7 117573354.046 7      1136.073 7        44.104               
G28  23819228.726 7 125627726.987 7     -1430.832 7        42.632               
G29  23157159.571 7 121690245.129 7      1166.904 7        43.913               
G12  24942962.137 7 131074695.657 7     -3027.791 7        42.025               
> 2025 01 08 14 23 24.0000000  0  4                                             
G25  22438855.565 7 117572217.203 7      1137.952 7        44.211               
G28  23818957.081 7 125629162.101 7     -1436.670 7        42.703               
G29  23156934.958 7 121689078.723 7      1166.225 7        43.481               
G12  24943542.880 7 131077727.483 7     -3030.374 7        42.047               
> 2025 01 08 14 23 25.0000000  0  4                                             
G25  22439070.083 7 117571078.903 7      1136.541 7        43.817               
G28  23818690.279 6 125630595.605 6     -1431.968 6        41.969               
G29  23156715.044 7 121687913.875 7      1166.287 7        43.288               
G12  24944124.445 7 131080760.566 7     -3033.513 7        42.247               
> 2025 01 08 14 23 26.0000000  0  4                                             
G25  22439290.658 7 117569940.506 7      1138.916 7        43.991               
G28  23818423.208 7 125632028.934 7     -1428.436 7        42.777               
G29  23156492.020 7 121686749.229 7      1162.930 7        43.742               
G12  24944701.114 7 131083793.505 7     -3030.417 7        42.312               
> 2025 01 08 14 23 27.0000000  0  4                                             
G25  22439506.659 7 117568802.762 7      1138.181 7        43.919               
G28  23818141.521 7 125633462.816 7     -1430.677 7        42.643               
G29  23156278.843 7 121685584.045 7      1168.197 7        43.719               
G12  24945279.946 7 131086825.600 7     -3033.260 7        42.238               
> 2025 01 08 14 23 28.0000000  0  4                                             
G25  22439727.162 7 117567663.945 7      1141.342 7        43.578               
G28  23817876.881 7 125634895.463 7     -1432.033 7        42.886               
G29  23156059.322 7 121684420.035 7      1162.217 7        43.725               
G12  24945862.708 7 131089858.537 7     -3033.735 7        42.031               
> 2025 01 08 14 23 29.0000000  0  4                                             
G25  22439945.522 7 117566524.905 7      1139.772 7        44.155               
G28  23817608.077 7 125636327.806 7     -1429.344 7        42.381               
G29  23155839.819 7 121683256.350 7      1164.862 7        43.862               
G12  24946439.735 7 131092891.468 7     -3032.808 7        42.080               
> 2025 01 08 14 23 30.0000000  0  4                                             
G25  22440162.148 7 117565385.047 7      1138.870 7        44.317               
G28  23817335.378 7 125637759.208 7     -1426.863 7        42.300               
G29  23155617.600 7 121682093.584 7      1159.593 7        44.246               
G12  24947013.956 7 131095925.011 7     -3036.122 7        42.396               
> 2025 01 08 14 23 31.0000000  0  4                                             
G25  22440380.168 7 117564245.924 7      1136.628 7        44.694               
G28  23817064.519 7 125639191.251 7     -1436.232 7        42.280               
G29  23155401.027 7 121680930.200 7      1162.362 7        44.221               
G12  24947593.627 6 131098957.625 6     -3033.713 6        41.947               
> 2025 01 08 14 23 32.0000000  0  4                                             
G25  22440602.405 7 117563105.815 7      1141.362 7        44.575               
G28  23816796.859 7 125640622.167 7     -1428.009 7        42.053               
G29  23155184.133 7 121679767.892 7      1161.207 7        43.873               
G12  24948176.604 6 131101990.975 6     -3036.375 6        41.829               
> 2025 01 08 14 23 33.0000000  0  4                                             
G25  22440819.406 7 117561964.475 7      1140.578 7        44.646               
G28  23816525.893 7 125642051.757 7     -1433.207 7        42.321               
G29  23154965.756 7 121678606.916 7      1161.758 7        44.057               
G12  24948751.950 6 131105025.341 6     -3033.612 6        41.964               
> 2025 01 08 14 23 34.0000000  0  4                                             
G25  22441039.839 7 117560823.499 7      1142.795 7        44.023               
G28  23816256.840 7 125643481.592 7     -1432.575 7        42.623               
G29  23154745.395 7 121677445.704 7      1159.667 7        44.240               
G12  24949335.785 7 131108059.134 7     -3036.350 7        42.062               
> 2025 01 08 14 23 35.0000000  0  4                                             
G25  22441261.021 7 117559681.264 7      1144.053 7        44.046               
G28  23815982.479 7 125644910.074 7     -1428.179 7        42.679               
G29  23154522.157 7 121676285.843 7      1160.848 7        44.148               
G12  24949912.275 7 131111093.962 7     -3037.452 7        42.476               
> 2025 01 08 14 23 36.0000000  0  4                                             
G25  22441479.041 7 117558538.702 7      1141.979 7        44.603               
G28  23815717.338 7 125646338.085 7     -1430.752 7        42.773               
G29  23154303.744 7 121675126.425 7      1157.293 7        43.679               
G12  24950492.840 7 131114128.922 7     -3036.625 7        42.054               
> 2025 01 08 14 23 37.0000000  0  4                                             
G25  22441699.652 7 117557395.654 7      1141.780 7        43.734               
G28  23815450.482 7 125647765.521 7     -1424.207 7        42.922               
G29  23154086.028 7 121673967.577 7      1156.297 7        44.253               
G12  24951067.418 6 131117164.120 6     -3036.019 6        41.565               
> 2025 01 08 14 23 38.0000000  0  4                                             
G25  22441920.067 7 117556252.226 7      1146.353 7        44.289               
G28  23815175.281 7 125649192.446 7     -1427.580 7        43.164               
G29  23153863.880 7 121672809.233 7      1159.374 7        44.348               
G12  24951649.538 7 131120199.500 7     -3032.813 7        42.140               
> 2025 01 08 14 23 39.0000000  0  4                                             
G25  22442133.888 7 117555107.985 7      1144.095 7        44.286               
G28  23814910.427 7 125650618.450 7     -1423.506 7        42.900               
G29  23153650.256 7 121671651.812 7      1158.127 7        44.063               
G12  24952223.741 7 131123235.478 7     -3036.068 7        42.422               
> 2025 01 08 14 23 40.0000000  0  4                                             
G25  22442351.854 7 117553963.397 7      1145.485 7        43.727               
G28  23814637.334 7 125652044.006 7     -1428.503 7        42.437               
G29  23153429.967 7 121670494.842 7      1157.092 7        44.544               
G12  24952810.935 7 131126271.571 7     -3037.741 7        42.678               
> 2025 01 08 14 23 41.0000000  0  4                                             
G25  22442571.428 7 117552818.105 7      1145.699 7        44.145               
G28  23814367.673 7 125653468.719 7     -1422.183 7        42.994               
G29  23153212.215 7 121669338.673 7      1156.632 7        44.294               
G12  24953385.656 7 131129308.165 7     -3036.958 7        42.296               
> 2025 01 08 14 23 42.0000000  0  4                                             
G25  22442790.914 7 117551672.362 7      1142.299 7        43.973               
G28  23814102.872 7 125654892.880 7     -1425.651 7        43.236               
G29  23152994.034 7 121668183.071 7      1155.667 7        44.038               
G12  24953974.351 6 131132344.995 6     -3036.302 6        41.953               
> 2025 01 08 14 23 43.0000000  0  4                                             
G25  22443013.597 7 117550526.869 7      1144.626 7        43.624               
G28  23813830.744 7 125656317.184 7     -1422.807 7        42.819               
G29  23152778.605 7 121667027.320 7      1156.414 7        44.443               
G12  24954548.143 7 131135381.330 7     -3037.383 7        42.484               
> 2025 01 08 14 23 44.0000000  0  4                                             
G25  22443231.939 7 117549380.185 7      1146.548 7        43.491               
G28  23813559.350 7 125657740.182 7     -1416.927 7        42.597               
G29  23152554.921 7 121665872.864 7      1152.852 7        43.904               
G12  24955133.425 6 131138418.671 6     -3037.216 6        41.662               
> 2025 01 08 14 23 45.0000000  0  4                                             
G25  22443452.604 7 117548233.232 7      1149.374 7        43.859               
G28  23813289.402 7 125659162.772 7     -1422.487 7        42.798               
G29  23152341.475 7 121664718.805 7      1151.917 7        44.201               
G12  24955708.468 7 131141456.070 7     -3039.373 7        42.485               
> 2025 01 08 14 23 46.0000000  0  4                                             
G25  22443678.218 7 117547085.736 7      1145.486 7        43.581               
G28  23813021.224 7 125660584.752 7     -1421.923 7        42.557               
G29  23152121.597 7 121663565.366 7      1153.184 7        44.334               
G12  24956283.904 7 131144493.766 7     -3036.059 7        42.455               
> 2025 01 08 14 23 47.0000000  0  4                                             
G25  22443895.005 7 117545938.152 7      1147.776 7        43.744               
G28  23812749.508 7 125662006.517 7     -1422.875 7        42.680               
G29  23151904.774 7 121662412.123 7      1154.301 7        43.616               
G12  24956868.954 7 131147531.340 7     -3041.073 7        42.202               
> 2025 01 08 14 23 48.0000000  0  4                                             
G25  22444118.493 7 117544790.079 7      1149.505 7        44.245               
G28  23812483.778 7 125663427.647 7     -1416.007 7        42.642               
G29  23151692.026 7 121661259.499 7      1150.285 7        43.846               
G12  24957447.357 7 131150569.211 7     -3036.522 7        42.257               
> 2025 01 08 14 23 49.0000000  0  4                                             
G25  22444335.709 7 117543641.438 7      1148.939 7        44.033               
G28  23812210.578 7 125664848.126 7     -1421.238 7        42.418               
G29  23151468.663 7 121660107.526 7      1152.421 7        43.939               
G12  24958022.489 6 131153607.431 6     -3035.588 6        41.255               
> 2025 01 08 14 23 50.0000000  0  4                                             
G25  22444560.286 7 117542491.923 7      1151.110 7        44.088               
G28  23811947.242 7 125666267.609 7     -1419.265 7        43.205               
G29  23151253.109 7 121658956.540 7      1151.534 7        44.074               
G12  24958605.233 6 131156646.305 6     -3045.945 6        41.789               
> 2025 01 08 14 23 51.0000000  0  4                                             
G25  22444782.345 7 117541341.773 7      1149.276 7        44.649               
G28  23811678.188 7 125667686.332 7     -1419.306 7        42.807               
G29  23151029.692 7 121657806.296 7      1151.881 7        44.149               
G12  24959181.563 6 131159685.598 6     -3040.921 6        41.593               
> 2025 01 08 14 23 52.0000000  0  4                                             
G25  22445000.954 7 117540191.538 7      1150.908 7        44.414               
G28  23811407.258 7 125669104.863 7     -1421.033 7        42.464               
G29  23150812.584 7 121656656.245 7      1150.508 7        43.923               
G12  24959763.200 7 131162724.763 7     -3038.920 7        42.029               
> 2025 01 08 14 23 53.0000000  0  4                                             
G25  22445221.923 7 117539041.416 7      1150.908 7        43.969               
G28  23811136.471 7 125670523.393 7     -1420.118 7        42.673               
G29  23150601.140 7 121655506.186 7      1149.455 7        43.919               
G12  24960344.140 7 131165763.569 7     -3038.372 7        42.041               
> 2025 01 08 14 23 54.0000000  0  4                                             
G25  22445436.833 7 117537890.398 7      1154.039 7        43.959               
G28  23810868.900 7 125671940.905 7     -1416.475 7        42.537               
G29  23150387.051 7 121654357.142 7      1150.605 7        43.777               
G12  24960927.384 7 131168803.082 7     -3039.251 7        42.043               
> 2025 01 08 14 23 55.0000000  0  4                                             
G25  22445663.699 7 117536738.395 7      1154.492 7        44.099               
G28  23810596.844 7 125673357.309 7     -1419.416 7        42.149               
G29  23150165.350 7 121653209.156 7      1147.960 7        44.062               
G12  24961508.271 6 131171843.347 6     -3040.098 6        41.701               
> 2025 01 08 14 23 56.0000000  0  4                                             
G25  22445883.559 7 117535586.228 7      1152.238 7        44.267               
G28  23810335.992 7 125674773.456 7     -1416.929 7        42.314               
G29  23149951.994 7 121652061.461 7      1147.968 7        44.437               
G12  24962084.600 6 131174883.568 6     -3041.409 6        41.768               
> 2025 01 08 14 23 57.0000000  0  4                                             
G25  22446105.403 7 117534433.802 7      1154.092 7        44.106               
G28  23810066.671 7 125676189.236 7     -1412.630 7        42.552               
G29  23149733.206 7 121650914.128 7      1142.981 7        43.912               
G12  24962666.362 6 131177923.817 6     -3040.874 6        41.411               
> 2025 01 08 14 23 58.0000000  0  4                                             
G25  22446322.923 7 117533281.116 7      1150.960 7        43.952               
G28  23809805.443 7 125677604.607 7     -1415.158 7        43.207               
G29  23149514.900 7 121649767.165 7      1146.336 7        44.022               
G12  24963242.727 6 131180964.116 6     -3039.773 6        41.336               
> 2025 01 08 14 23 59.0000000  0  4                                             
G25  22446544.695 7 117532127.614 7      1148.023 7        43.735               
G28  23809539.374 7 125679019.059 7     -1416.159 7        42.823               
G29  23149298.649 7 121648621.131 7      1148.922 7        43.481               
G12  24963819.379 6 131184005.016 6     -3039.982 6        41.151               
> 2025 01 08 14 24 00.0000000  0  4                                             
G25  22446766.146 7 117530973.785 7      1150.428 7        43.954               
G28  23809266.353 7 125680433.084 7     -1413.124 7        42.151               
G29  23149085.579 7 121647475.513 7      1144.484 7        44.105               
G12  24964410.182 6 131187046.028 6     -3040.584 6        40.809               
> 2025 01 08 14 24 01.0000000  0  4                                             
G25  22446987.757 7 117529819.325 7      1154.793 7        44.063               
G28  23809004.911 7 125681846.364 7     -1414.372 7        42.296               
G29  23148870.167 7 121646330.641 7      1143.192 7        43.995               
G12  24964989.210 6 131190087.443 6     -3040.583 6        41.277               
> 2025 01 08 14 24 02.0000000  0  4                                             
G25  22447206.403 7 117528664.399 7      1154.260 7        43.877               
G28  23808736.679 7 125683259.040 7     -1411.518 7        42.854               
G29  23148654.310 7 121645186.337 7      1142.105 7        44.236               
G12  24965572.651 6 131193129.099 6     -3044.807 6        41.643               
> 2025 01 08 14 24 03.0000000  0  4                                             
G25  22447433.125 7 117527508.699 7      1154.048 7        43.566               
G28  23808470.002 7 125684670.834 7     -1414.192 7        42.305               
G29  23148440.310 7 121644042.928 7      1143.555 7        44.411               
G12  24966150.089 6 131196171.326 6     -3043.369 6        41.715               
> 2025 01 08 14 24 04.0000000  0  4                                             
G25  22447651.502 7 117526352.793 7      1156.472 7        43.753               
G28  23808198.911 7 125686082.322 7     -1414.848 7        42.174               
G29  23148224.506 7 121642899.809 7      1142.085 7        44.199               
G12  24966744.645 6 131199213.535 6     -3047.026 6        41.706               
> 2025 01 08 14 24 05.0000000  0  4                                             
G25  22447869.451 7 117525196.774 7      1154.149 7        43.917               
G28  23807933.770 7 125687493.558 7     -1410.144 7        42.483               
G29  23148008.577 7 121641756.926 7      1142.640 7        43.851               
G12  24967313.773 6 131202255.624 6     -3046.943 6        41.310               
> 2025 01 08 14 24 06.0000000  0  4                                             
G25  22448094.315 7 117524040.194 7      1158.663 7        43.807               
G28  23807667.147 6 125688904.147 6     -1410.174 6        41.986               
G29  23147789.360 7 121640614.694 7      1139.289 7        44.236               
G12  24967892.676 6 131205298.066 6     -3043.982 6        40.880               
> 2025 01 08 14 24 07.0000000  0  4                                             
G25  22448317.427 7 117522883.275 7      1158.312 7        43.496               
G28  23807399.165 6 125690314.244 6     -1408.255 6        41.907               
G29  23147575.700 7 121639472.918 7      1141.714 7        44.250               
G12  24968476.457 6 131208340.629 6     -3043.119 6        41.211               
> 2025 01 08 14 24 08.0000000  0  4                                             
G25  22448542.219 7 117521725.898 7      1159.627 7        44.256               
G28  23807135.454 7 125691723.777 7     -1407.443 7        42.104               
G29  23147359.753 7 121638331.720 7      1138.250 7        43.747               
G12  24969058.987 6 131211383.448 6     -3044.373 6        40.962               
> 2025 01 08 14 24 09.0000000  0  4                                             
G25  22448761.061 7 117520567.460 7      1156.852 7        43.889               
G28  23806871.904 7 125693132.168 7     -1410.941 7        42.080               
G29  23147145.932 7 121637191.659 7      1141.467 7        43.921               
G12  24969635.960 6 131214427.087 6     -3044.132 6        40.884               
> 2025 01 08 14 24 10.0000000  0  4                                             
G25  22448982.155 7 117519409.193 7      1159.475 7        44.170               
G28  23806604.047 7 125694540.572 7     -1409.039 7        42.310               
G29  23146930.324 7 121636051.549 7      1139.531 7        44.338               
G12  24970218.186 6 131217470.344 6     -3041.892 6        40.906               
> 2025 01 08 14 24 11.0000000  0  4                                             
G25  22449205.339 7 117518250.465 7      1157.077 7        43.978               
G28  23806335.601 7 125695948.424 7     -1405.807 7        42.230               
G29  23146715.985 7 121634912.012 7      1140.067 7        44.115               
G12  24970796.875 6 131220513.849 6     -3046.744 6        41.562               
> 2025 01 08 14 24 12.0000000  0  4                                             
G25  22449428.469 7 117517091.445 7      1160.456 7        43.890               
G28  23806070.800 7 125697355.864 7     -1405.396 7        42.592               
G29  23146500.127 7 121633772.859 7      1138.267 7        43.939               
G12  24971378.547 6 131223557.410 6     -3046.324 6        41.001               
> 2025 01 08 14 24 13.0000000  0  4                                             
G25  22449650.153 7 117515932.000 7      1162.540 7        43.905               
G28  23805807.500 6 125698762.757 6     -1406.279 6        41.978               
G29  23146283.948 7 121632634.243 7      1136.002 7        43.793               
G12  24971956.217 6 131226601.182 6     -3044.091 6        40.714               
> 2025 01 08 14 24 14.0000000  0  4                                             
G25  22449869.030 7 117514772.082 7      1159.963 7        43.768               
G28  23805540.000 7 125700169.067 7     -1406.345 7        42.856               
G29  23146066.160 7 121631496.204 7      1138.153 7        43.891               
G12  24972540.212 6 131229645.213 6     -3044.310 6        40.856               
> 2025 01 08 14 24 15.0000000  0  4                                             
G25  22450098.754 7 117513611.365 7      1160.542 7        43.426               
G28  23805267.801 7 125701574.449 7     -1407.410 7        42.326               
G29  23145852.465 7 121630359.086 7      1137.327 7        44.145               
G12  24973118.400 6 131232689.826 6     -3040.805 6        40.952               
> 2025 01 08 14 24 16.0000000  0  4                                             
G25  22450316.739 7 117512449.616 7      1162.678 7        44.088               
G28  23805004.108 7 125702978.683 7     -1401.706 7        42.295               
G29  23145639.841 7 121629223.101 7      1139.416 7        44.091               
G12  24973702.396 6 131235735.277 6     -3044.034 6        41.203               
> 2025 01 08 14 24 17.0000000  0  4                                             
G25  22450540.691 7 117511287.766 7      1162.892 7        43.907               
G28  23804735.698 7 125704382.723 7     -1404.692 7        42.625               
G29  23145425.056 7 121628087.317 7      1135.774 7        43.721               
G12  24974272.525 6 131238780.582 6     -3046.488 6        40.881               
> 2025 01 08 14 24 18.0000000  0  4                                             
G25  22450765.269 7 117510125.424 7      1163.171 7        44.163               
G28  23804474.524 7 125705786.134 7     -1403.346 7        42.363               
G29  23145210.341 7 121626952.137 7      1132.304 7        43.920               
G12  24974857.682 6 131241826.176 6     -3049.990 6        40.935               
> 2025 01 08 14 24 19.0000000  0  4                                             
G25  22450987.452 7 117508962.577 7      1162.651 7        43.898               
G28  23804214.190 7 125707188.921 7     -1404.741 7        42.526               
G29  23144993.483 7 121625817.557 7      1134.278 7        43.930               
G12  24975442.017 6 131244872.040 6     -3043.748 6        40.429               
> 2025 01 08 14 24 20.0000000  0  4                                             
G25  22451208.349 7 117507799.278 7      1163.045 7        44.151               
G28  23803949.228 7 125708591.145 7     -1403.559 7        42.670               
G29  23144781.217 7 121624683.556 7      1133.486 7        43.639               
G12  24976021.634 6 131247918.150 6     -3048.543 6        41.068               
> 2025 01 08 14 24 21.0000000  0  4                                             
G25  22451435.518 7 117506635.496 7      1163.676 7        43.553               
G28  23803687.000 7 125709992.748 7     -1398.177 7        42.471               
G29  23144569.540 7 121623550.146 7      1132.073 7        43.573               
G12  24976607.327 6 131250964.540 6     -3048.639 6        41.063               
> 2025 01 08 14 24 22.0000000  0  4                                             
G25  22451657.612 7 117505471.198 7      1164.244 7        43.618               
G28  23803415.749 7 125711393.750 7     -1399.710 7        42.158               
G29  23144350.609 7 121622417.329 7      1134.326 7        43.214               
G12  24977186.998 6 131254011.203 6     -3045.852 6        40.920               
> 2025 01 08 14 24 23.0000000  0  4                                             
G25  22451882.762 7 117504306.204 7      1164.077 7        43.041               
G28  23803154.432 7 125712793.895 7     -1398.929 7        42.437               
G29  23144142.417 7 121621285.359 7      1134.483 7        43.524               
G12  24977768.295 6 131257058.371 6     -3049.265 6        41.121               
> 2025 01 08 14 24 24.0000000  0  4                                             
G25  22452108.591 7 117503141.186 7      1165.599 7        43.960               
G28  23802886.379 7 125714193.939 7     -1396.071 7        42.707               
G29  23143925.183 7 121620153.502 7      1131.854 7        43.754               
G12  24978353.845 6 131260105.330 6     -3046.998 6        40.977               
> 2025 01 08 14 24 25.0000000  0  4                                             
G25  22452329.863 7 117501976.168 7      1164.811 7        43.823               
G28  23802627.814 7 125715593.868 7     -1398.886 7        43.045               
G29  23143708.682 7 121619021.742 7      1130.555 7        43.808               
G12  24978931.676 6 131263152.059 6     -3045.477 6        40.837               
> 2025 01 08 14 24 26.0000000  0  4                                             
G25  22452552.028 7 117500810.782 7      1165.505 7        43.917               
G28  23802357.098 7 125716993.291 7     -1397.963 7        42.767               
G29  23143495.308 7 121617890.466 7      1129.130 7        43.278               
G12  24979510.793 6 131266198.940 6     -3046.003 6        40.966               
> 2025 01 08 14 24 27.0000000  0  4                                             
G25  22452776.463 7 117499643.924 7      1168.634 7        43.337               
G28  23802095.514 7 125718391.146 7     -1396.820 7        42.333               
G29  23143283.417 7 121616760.754 7      1131.288 7        43.530               
G12  24980093.270 6 131269247.076 6     -3045.245 6        40.467               
> 2025 01 08 14 24 28.0000000  0  4                                             
G25  22452997.146 7 117498476.483 7      1168.346 7        43.351               
G28  23801829.784 7 125719788.278 7     -1393.957 7        42.609               
G29  23143069.597 7 121615631.750 7      1127.874 7        43.694               
G12  24980675.621 6 131272295.580 6     -3045.297 6        40.713               
> 2025 01 08 14 24 29.0000000  0  4                                             
G25  22453226.530 7 117497308.926 7      1167.520 7        43.305               
G28  23801568.127 7 125721185.183 7     -1397.006 7        42.627               
G29  23142849.915 7 121614502.965 7      1128.321 7        43.904               
G12  24981261.260 6 131275343.996 6     -3051.770 6        41.002               
> 2025 01 08 14 24 30.0000000  0  4                                             
G25  22453450.036 7 117496141.135 7      1168.948 7        43.777               
G28  23801302.058 7 125722581.751 7     -1392.207 7        42.648               
G29  23142643.331 7 121613374.506 7      1129.759 7        43.213               
G12  24981846.292 6 131278392.383 6     -3049.274 6        40.984               
> 2025 01 08 14 24 31.0000000  0  4                                             
G25  22453672.898 7 117494972.750 7      1168.206 7        43.993               
G28  23801043.904 7 125723977.597 7     -1396.119 7        43.006               
G29  23142430.189 7 121612246.752 7      1131.128 7        43.461               
G12  24982421.460 6 131281441.194 6     -3049.048 6        40.703               
> 2025 01 08 14 24 32.0000000  0  4                                             
G25  22453897.137 7 117493804.574 7      1167.106 7        43.957               
G28  23800780.264 7 125725373.528 7     -1396.967 7        42.811               
G29  23142221.229 7 121611118.913 7      1126.113 7        43.993               
G12  24983003.508 6 131284489.558 6     -3047.753 6        41.503               
> 2025 01 08 14 24 33.0000000  0  4                                             
G25  22454121.643 7 117492635.921 7      1167.297 7        43.409               
G28  23800515.195 7 125726768.855 7     -1393.986 7        43.240               
G29  23142007.015 7 121609991.662 7      1127.441 7        43.732               
G12  24983591.756 6 131287538.208 6     -3049.399 6        41.279               
> 2025 01 08 14 24 34.0000000  0  4                                             
G25  22454346.811 7 117491466.846 7      1170.512 7        43.707               
G28  23800246.731 7 125728163.663 7     -1395.722 7        42.952               
G29  23141800.271 7 121608864.928 7      1125.651 7        44.146               
G12  24984168.497 6 131290587.049 6     -3049.038 6        41.624               
> 2025 01 08 14 24 35.0000000  0  4                                             
G25  22454570.084 7 117490297.229 7      1169.215 7        43.898               
G28  23799989.006 7 125729557.784 7     -1395.195 7        42.687               
G29  23141587.897 7 121607738.839 7      1124.416 7        44.030               
G12  24984757.406 7 131293636.209 7     -3053.190 7        42.310               
> 2025 01 08 14 24 36.0000000  0  4                                             
G25  22454797.074 7 117489127.181 7      1170.349 7        43.432               
G28  23799717.540 7 125730951.385 7     -1393.064 7        42.775               
G29  23141374.756 7 121606613.279 7      1127.012 7        43.865               
G12  24985341.080 7 131296685.576 7     -3048.803 7        42.575               
> 2025 01 08 14 24 37.0000000  0  4                                             
G25  22455017.507 7 117487956.741 7      1170.229 7        43.616               
G28  23799456.527 7 125732344.460 7     -1397.839 7        42.829               
G29  23141162.704 7 121605488.222 7      1125.385 7        44.031               
G12  24985921.645 7 131299735.113 7     -3053.435 7        42.046               
> 2025 01 08 14 24 38.0000000  0  4                                             
G25  22455239.118 7 117486785.780 7      1173.148 7        43.683               
G28  23799192.530 7 125733736.911 7     -1395.878 7        42.909               
G29  23140949.080 7 121604363.794 7      1122.942 7        43.902               
G12  24986494.454 6 131302784.958 6     -3047.561 6        41.923               
> 2025 01 08 14 24 39.0000000  0  4                                             
G25  22455466.841 7 117485614.318 7      1174.599 7        43.550               
G28  23798928.319 7 125735128.742 7     -1393.825 7        42.668               
G29  23140737.493 7 121603239.963 7      1124.558 7        44.068               
G12  24987085.454 6 131305835.079 6     -3048.530 6        41.759               
> 2025 01 08 14 24 40.0000000  0  4                                             
G25  22455686.237 7 117484442.259 7      1173.386 7        43.316               
G28  23798666.002 7 125736519.831 7     -1393.133 7        42.351               
G29  23140524.762 7 121602116.870 7      1121.001 7        44.346               
G12  24987670.057 7 131308885.597 7     -3050.027 7        42.541               
