     3.02           OBSERVATION DATA    GAL                 RINEX VERSION / TYPE
G = GPS  R = GLONASS  E = GALILEO  S = GEO  M = MIXED       COMMENT
GALILEO OBSERVATION DATA FILE GENERATED BY GNSS-SDR         COMMENT
GNSS-SDR VERSION 0.0.19.git-main-87fcfd237                  COMMENT
See https://gnss-sdr.org                                    COMMENT
GNSS-SDR            jmfriedt            20250108 195855 UTC PGM / RUN BY / DATE
jmfriedt            CTTC                                    OBSERVER /AGENCY
DEFAULT MARKER NAME                                         MARKER NAME
        0.0000        0.0000        0.0000                  APPROX POSITION XYZ
Antenna number      Antenna type                            ANT # / TYPE
        0.0000        0.0000        0.0000                  ANTENNA: DELTA H/E/N
GNSS-SDR            Software Receiver   0.0.19.gi           REC # / TYPE / VERS
    18    18   137     7                                    LEAP SECONDS
  2025    01    08    19    44   55.16000000     GAL        TIME OF FIRST OBS
E    4 C1B L1B D1B S1B                                      SYS / # / OBS TYPES
                                                            END OF HEADER
> 2025 01 08 19 44 37.0000000  0  3
E13        -6.022      -21539.139         697.606           0.173  
E15        -8.059       -3335.846        4245.033           0.369  
E27        -5.110         239.994           0.108           0.414
> 2025 01 08 19 44 38.0000000  0  3
E13        -8.738      -22236.096         696.462           0.148  
E15       -10.418       -7581.633        4246.770           0.546  
E27        -9.471         239.998           0.362           0.808
> 2025 01 08 19 44 39.0000000  0  3
E13        -6.754      -22932.297         694.879           0.246  
E15        -7.451      -11827.886        4245.941           0.727  
E27        -8.899         239.988           2.537           1.020
> 2025 01 08 19 44 40.0000000  0  3
E13        -8.220      -23627.621         694.472           0.539  
E15        -6.736      -16074.775        4245.936           0.706  
E27        -5.575         239.992           0.133           0.637
> 2025 01 08 19 44 41.0000000  0  3
E13        -7.738      -24322.249         694.282           0.758  
E15        -5.986      -20322.082        4247.861           1.077  
E27        -3.985         239.992           0.197           0.719
> 2025 01 08 19 44 42.0000000  0  3
E13        -9.346      -25016.846         694.715           0.609  
E15        -7.237      -24569.169        4243.861           0.942  
E27        -4.539         239.992           0.410           1.071
> 2025 01 08 19 44 43.0000000  0  3
E13        -9.346      -25711.331         692.654           0.410  
E15       -11.847      -28816.063        4245.979           0.836  
E27        -6.719         239.992          -1.481           0.825
> 2025 01 08 19 44 44.0000000  0  3
E13        -7.559      -26404.877         696.083           0.779  
E15        -6.934      -33063.652        4248.497           0.629  
E27        -9.738         239.971          -0.374           0.437
> 2025 01 08 19 44 45.0000000  0  3
E13        -6.754      -27097.601         692.032           0.816  
E15        -7.880      -37311.754        4248.509           0.696  
E27       -10.543         239.983          -1.247           0.533
> 2025 01 08 19 44 46.0000000  0  3
E13        -8.309      -27789.830         694.384           0.671  
E15       -10.042      -41560.154        4249.324           0.825  
E27        -5.254         239.996          -0.705           0.762
> 2025 01 08 19 44 47.0000000  0  3
E13        -7.004      -28481.634         692.846           0.712  
E15        -5.861      -45808.614        4248.712           1.051  
E27       -11.186         239.978           0.204           0.781
> 2025 01 08 19 44 48.0000000  0  3
E13        -7.559      -29172.988         691.744           0.889  
E15        -7.595      -50057.317        4247.819           0.667  
E27        -9.095         239.983          -0.404           0.744
> 2025 01 08 19 44 49.0000000  0  3
E13        -6.201      -29863.880         690.529           0.896  
E15        -6.576      -54306.224        4251.465           0.924  
E27        -6.112         239.994          -0.419           0.918
> 2025 01 08 19 44 50.0000000  0  3
E13        -5.646      -30554.098         691.207           0.702  
E15        -8.648      -58555.479        4250.596           0.842  
E27        -7.594         239.984           0.112           1.151
> 2025 01 08 19 44 51.0000000  0  3
E13        -8.613      -31243.679         689.127           0.489  
E15        -9.006      -62805.150        4250.293           1.077  
E27        -7.701         239.996          -0.074           1.216
> 2025 01 08 19 44 52.0000000  0  3
E13        -7.451      -31933.120         690.813           0.463  
E15        -8.469      -67054.669        4250.464           0.805  
E27        -9.506         239.984          -0.495           1.383
> 2025 01 08 19 44 53.0000000  0  3
E13        -8.112      -32622.084         687.274           0.568  
E15        -7.845      -71304.387        4250.499           0.946  
E27       -10.758         239.993           0.238           1.144
> 2025 01 08 19 44 54.0000000  0  3
E13        -9.345      -33309.241         685.174           0.497  
E15        -8.291      -75555.650        4251.968           0.674  
E27        -9.096         239.999          -0.395           0.679
> 2025 01 08 19 44 55.0000000  0  3
E13        -8.506      -33995.852         688.651           0.712  
E15        -7.773      -79807.223        4251.292           0.751  
E27        -9.131         239.991           1.779           0.895
> 2025 01 08 19 44 56.0000000  0  3
E13        -8.327      -34681.821         687.251           0.590  
E15        -9.631      -84059.082        4251.857           0.465  
E27        -6.362         239.982          -0.388           0.823
> 2025 01 08 19 44 57.0000000  0  3
E13        -9.131      -35367.036         685.419           0.614  
E15        -4.789      -88311.451        4252.950           0.695  
E27        -4.235         239.994          -1.618           0.851
> 2025 01 08 19 44 58.0000000  0  3
E13        -8.523      -36051.639         684.316           0.228  
E15       -10.400      -92564.216        4254.730           0.565  
E27       -10.311         239.991          -0.989           0.917
> 2025 01 08 19 44 59.0000000  0  3
E13        -7.899      -36735.292         680.867           0.233  
E15        -8.810      -96817.620        4253.907           0.550  
E27        -6.576         240.004          -0.163           0.822
> 2025 01 08 19 45  0.0000000  0  3
E13        -7.112      -37418.527         683.209           0.610  
E15        -7.433     -101071.176        4254.392           0.683  
E27        -8.595         239.987          -2.404           0.785
> 2025 01 08 19 45  1.0000000  0  3
E13        -7.648      -38101.274         681.332           0.478  
E15        -6.808     -105324.941        4255.272           0.839  
E27       -10.525         239.983          -0.900           0.814
> 2025 01 08 19 45  2.0000000  0  3
E13        -8.953      -38784.053         682.461           0.464  
E15        -7.790     -109578.409        4252.973           0.960  
E27        -7.827         239.992          -0.897           0.993
> 2025 01 08 19 45  3.0000000  0  3
E13        -6.254      -39466.640         682.537           0.412  
E15        -9.024     -113831.787        4252.084           0.965  
E27        -8.130         239.983          -0.588           0.733
> 2025 01 08 19 45  4.0000000  0  3
E13        -7.988      -40148.418         680.495           0.367  
E15        -6.862     -118085.717        4255.610           0.750  
E27        -7.773         240.003           0.866           0.828
> 2025 01 08 19 45  5.0000000  0  3
E13        -7.612      -40829.362         679.689           0.742  
E15        -6.558     -122340.228        4255.074           0.849  
E27        -9.471         239.981           0.572           0.858
> 2025 01 08 19 45  6.0000000  0  3
E13        -7.219      -41509.576         680.329           0.769  
E15        -8.041     -126595.169        4254.747           0.566  
E27        -3.842         239.998           0.352           0.585
> 2025 01 08 19 45  7.0000000  0  3
E13        -6.611      -42189.404         677.451           0.579  
E15        -7.130     -130850.282        4254.986           0.629  
E27        -8.166         239.988           1.018           0.726
> 2025 01 08 19 45  8.0000000  0  3
E13        -6.736      -42868.253         677.613           0.439  
E15        -6.987     -135106.042        4256.875           0.609  
E27        -7.416         239.987           0.454           0.546
> 2025 01 08 19 45  9.0000000  0  3
E13        -7.005      -43546.422         675.942           0.432  
E15        -8.595     -139362.254        4257.830           0.684  
E27        -9.542         239.992          -1.761           0.312
> 2025 01 08 19 45 10.0000000  0  3
E13        -8.130      -44224.185         676.868           0.627  
E15        -3.324     -143618.554        4258.200           0.742  
E27        -5.700         240.002           1.421           0.327
> 2025 01 08 19 45 11.0000000  0  3
E13        -7.058      -44901.784         678.895           0.450  
E15        -8.184     -147874.759        4255.589           1.052  
E27        -4.753         240.004           0.117           0.534
> 2025 01 08 19 45 12.0000000  0  3
E13        -5.307      -45578.598         675.530           0.512  
E15        -7.577     -152131.484        4258.534           0.998  
E27        -5.611         239.995          -1.590           0.816
> 2025 01 08 19 45 13.0000000  0  3
E13        -7.791      -46254.788         678.211           0.377  
E15        -6.486     -156388.591        4256.258           0.855  
E27        -9.435         239.980           0.848           0.798
> 2025 01 08 19 45 14.0000000  0  3
E13        -7.344      -46930.534         673.869           0.193  
E15        -7.076     -160645.824        4258.358           1.007  
E27        -5.235         240.001          -0.111           0.898
> 2025 01 08 19 45 15.0000000  0  3
E13        -8.380      -47606.092         674.742           0.299  
E15        -7.040     -164902.970        4257.083           0.596  
E27        -8.988         239.993          -0.633           0.993
> 2025 01 08 19 45 16.0000000  0  3
E13        -6.308      -48281.001         674.571           0.430  
E15        -9.882     -169160.544        4257.432           0.904  
E27        -7.827         240.000           0.664           0.964
> 2025 01 08 19 45 17.0000000  0  3
E13        -8.541      -48954.958         674.777           0.428  
E15        -6.165     -173418.769        4257.009           0.969  
E27        -7.111         239.992           0.149           1.012
> 2025 01 08 19 45 18.0000000  0  3
E13        -7.362      -49628.297         671.665           0.382  
E15        -6.594     -177677.339        4258.025           0.891  
E27        -5.486         239.990          -0.972           0.753
> 2025 01 08 19 45 19.0000000  0  3
E13        -7.362      -50301.428         674.700           0.811  
E15        -8.166     -181935.883        4258.963           0.681  
E27        -7.166         239.984          -0.350           0.727
> 2025 01 08 19 45 20.0000000  0  3
E13        -7.684      -50974.003         672.040           0.546  
E15        -7.433     -186194.606        4257.193           0.574  
E27        -9.506         239.977           0.091           0.720
> 2025 01 08 19 45 21.0000000  0  3
E13        -9.006      -51646.046         672.458           0.494  
E15        -6.701     -190453.686        4261.747           0.767  
E27        -8.720         239.989          -0.951           0.725
> 2025 01 08 19 45 22.0000000  0  3
E13        -7.237      -52317.329         671.126           0.233  
E15        -8.023     -194713.251        4260.515           0.685  
E27        -8.613         239.996           1.439           0.948
> 2025 01 08 19 45 23.0000000  0  3
E13        -4.968      -52987.998         671.564           0.382  
E15        -5.950     -198973.135        4261.360           0.627  
E27        -5.932         240.000          -0.487           0.865
> 2025 01 08 19 45 24.0000000  0  3
E13        -6.326      -53658.192         669.860           0.411  
E15        -9.685     -203233.212        4259.582           0.723  
E27        -6.630         240.006           0.090           0.744
> 2025 01 08 19 45 25.0000000  0  3
E13        -8.916      -54327.544         668.588           0.525  
E15        -6.558     -207493.849        4261.150           0.820  
E27        -5.521         240.013          -0.807           0.806
> 2025 01 08 19 45 26.0000000  0  3
E13        -7.219      -54996.145         667.882           0.512  
E15        -7.648     -211754.981        4262.124           0.599  
E27        -6.039         239.990          -0.216           0.982
> 2025 01 08 19 45 27.0000000  0  3
E13        -7.827      -55664.179         664.998           0.458  
E15        -7.880     -216016.382        4260.888           0.794  
E27        -9.453         239.971           0.893           0.923
> 2025 01 08 19 45 28.0000000  0  3
E13        -7.630      -56331.187         665.222           0.242  
E15        -6.719     -220278.595        4261.884           0.840  
E27        -9.435         239.990          -0.732           0.867
> 2025 01 08 19 45 29.0000000  0  3
E13        -7.327      -56997.482         665.157           0.344  
E15        -6.754     -224541.221        4262.339           0.408  
E27        -6.379         239.999           0.078           0.516
> 2025 01 08 19 45 30.0000000  0  3
E13        -7.380      -57663.197         664.132           0.328  
E15        -9.292     -228804.182        4264.577           0.596  
E27        -4.146         239.985          -0.305           0.505
> 2025 01 08 19 45 31.0000000  0  3
E13        -7.452      -58328.490         664.046           0.310  
E15        -5.540     -233067.235        4263.142           0.651  
E27       -10.167         240.009          -2.973           1.127
> 2025 01 08 19 45 32.0000000  0  3
E13        -5.236      -58992.980         662.077           0.183  
E15        -7.844     -237330.864        4263.617           0.801  
E27        -6.647         240.003           1.023           1.023
> 2025 01 08 19 45 33.0000000  0  3
E13        -7.808      -59656.648         665.917           0.427  
E15        -7.969     -241595.045        4264.506           0.749  
E27        -6.683         239.989          -0.170           0.703
> 2025 01 08 19 45 34.0000000  0  3
E13        -5.647      -60319.970         662.083           0.534  
E15        -7.576     -245859.267        4263.495           1.056  
E27        -4.288         240.005          -1.237           0.627
> 2025 01 08 19 45 35.0000000  0  3
E13        -5.325      -60982.544         661.976           0.562  
E15        -7.934     -250123.969        4267.519           0.712  
E27        -7.165         239.994           0.892           0.684
> 2025 01 08 19 45 36.0000000  0  4
E13        -8.506      -61644.404         662.989           0.413  
E15        -8.791     -254389.093        4264.389           0.631  
E21        -7.559       81347.866        -936.588           0.715  
E27        -6.361         239.995           1.803           0.329
> 2025 01 08 19 45 37.0000000  0  4
E13        -6.915      -62305.365         659.352           0.387  
E15        -4.056     -258654.894        4266.311           0.805  
E21        -7.183       82288.298        -940.647           0.824  
E27        -5.182         239.994           0.613           0.202
> 2025 01 08 19 45 38.0000000  0  4
E13        -9.720      -62965.831         664.071           0.563  
E15        -8.667     -262920.931        4268.243           0.677  
E21        -7.862       83229.577        -941.744           0.745  
E27        -5.915         240.004          -0.813           0.588
> 2025 01 08 19 45 39.0000000  0  4
E13        -9.167      -63625.757         658.469           0.476  
E15        -7.916     -267187.188        4265.054           0.604  
E21        -7.023       84171.725        -940.725           0.635  
E27        -5.575         239.977           2.237           0.631
> 2025 01 08 19 45 40.0000000  0  4
E13        -7.702      -64285.069         657.259           0.553  
E15        -7.451     -271453.822        4266.571           0.982  
E21        -9.488       85114.860        -942.654           0.695  
E27        -7.630         239.988           1.056           0.588
> 2025 01 08 19 45 41.0000000  0  4
E13        -8.470      -64943.544         657.006           0.345  
E15       -10.149     -275720.986        4267.382           1.060  
E21        -7.112       86059.178        -942.485           0.891  
E27        -3.127         239.999          -1.597           0.649
> 2025 01 08 19 45 42.0000000  0  4
E13        -8.041      -65601.580         658.393           0.185  
E15        -7.219     -279988.316        4266.038           0.834  
E21        -8.613       87004.279        -947.395           0.664  
E27       -10.489         240.008          -1.499           0.782
> 2025 01 08 19 45 43.0000000  0  4
E13        -7.076      -66259.108         657.647           0.303  
E15        -5.414     -284255.919        4266.807           0.805  
E21        -6.790       87950.276        -949.386           0.420  
E27        -7.612         239.984           0.824           0.770
> 2025 01 08 19 45 44.0000000  0  4
E13        -8.202      -66916.070         656.568           0.375  
E15        -8.506     -288523.781        4268.392           0.729  
E21        -5.004       88897.154        -949.910           0.471  
E27        -6.969         240.002          -1.257           0.859
> 2025 01 08 19 45 45.0000000  0  4
E13        -7.327      -67572.300         655.002           0.317  
E15        -5.218     -292792.090        4268.929           0.881  
E21        -5.522       89845.108        -948.449           0.821  
E27        -7.202         239.981           0.052           1.070
> 2025 01 08 19 45 46.0000000  0  4
E13        -8.470      -68227.699         655.840           0.215  
E15        -9.774     -297060.992        4267.998           0.865  
E21       -10.667       90794.267        -949.262           0.903  
E27        -7.648         239.983          -0.178           0.896
> 2025 01 08 19 45 47.0000000  0  4
E13        -7.111      -68881.811         654.569           0.245  
E15        -9.095     -301330.909        4271.270           0.930  
E21        -6.916       91745.048        -947.892           1.044  
E27        -9.131         239.988          -0.505           1.049
> 2025 01 08 19 45 48.0000000  0  4
E13       -10.382      -69535.514         652.439           0.248  
E15        -8.595     -305600.981        4270.033           0.823  
E21        -7.791       92696.651        -951.415           0.645  
E27        -9.793         239.996           0.347           0.607
> 2025 01 08 19 45 49.0000000  0  4
E13        -7.666      -70189.287         652.869           0.265  
E15        -6.468     -309870.621        4267.757           0.817  
E21        -5.576       93648.423        -952.228           0.707  
E27        -9.399         239.977          -0.334           0.503
> 2025 01 08 19 45 50.0000000  0  4
E13        -6.290      -70843.244         653.386           0.298  
E15        -6.254     -314139.915        4269.379           0.809  
E21        -6.361       94600.484        -952.217           0.634  
E27        -5.682         240.003           0.183           0.467
> 2025 01 08 19 45 51.0000000  0  4
E13        -6.093      -71496.911         653.538           0.105  
E15        -7.970     -318409.134        4269.723           0.978  
E21        -6.397       95553.103        -957.030           0.683  
E27        -9.291         239.999           0.212           0.644
> 2025 01 08 19 45 52.0000000  0  4
E13        -9.435      -72148.984         651.126           0.117  
E15        -8.131     -322679.737        4273.733           1.068  
E21        -8.345       96507.686        -954.430           0.475  
E27        -7.755         239.984          -1.416           0.746
> 2025 01 08 19 45 53.0000000  0  4
E13        -8.559      -72799.875         651.603           0.223  
E15        -8.917     -326951.219        4271.748           0.652  
E21        -7.416       97463.856        -958.255           0.503  
E27        -6.343         239.989           2.259           0.752
> 2025 01 08 19 45 54.0000000  0  4
E13        -6.611      -73451.526         649.877           0.297  
E15        -6.933     -331221.664        4272.566           0.527  
E21        -8.452       98419.535        -956.143           0.228  
E27        -7.630         239.988          -0.015           0.747
> 2025 01 08 19 45 55.0000000  0  4
E13        -7.416      -74102.130         647.165           0.420  
E15        -6.915     -335492.861        4270.426           0.662  
E21        -9.078       99376.659        -957.729           0.508  
E27        -7.166         239.983           1.750           0.663
> 2025 01 08 19 45 56.0000000  0  4
E13        -8.363      -74752.132         648.904           0.113  
E15        -6.433     -339764.416        4268.032           0.606  
E21        -6.844      100334.738        -958.158           0.415  
E27        -5.486         239.973           1.487           1.067
> 2025 01 08 19 45 57.0000000  0  4
E13       -10.150      -75401.554         649.680           0.278  
E15        -8.773     -344036.286        4270.102           0.657  
E21        -6.612      101293.729        -957.736           0.459  
E27        -8.934         239.979          -0.857           1.072
> 2025 01 08 19 45 58.0000000  0  4
E13        -5.932      -76052.604         651.525           0.407  
E15        -5.218     -348306.276        4270.802           0.939  
E21        -8.309      102251.480        -957.337           0.427  
E27        -7.701         239.981           2.234           1.233
> 2025 01 08 19 45 59.0000000  0  4
E13        -7.291      -76701.883         649.331           0.224  
E15        -5.110     -352577.724        4274.168           0.677  
E21        -9.452      103211.305        -959.631           0.404  
E27        -7.916         239.990           1.321           1.135
> 2025 01 08 19 46  0.0000000  0  4
E13        -4.646      -77350.222         648.204           0.294  
E15        -6.629     -356849.860        4271.937           1.273  
E21        -7.469      104172.458        -962.012           0.437  
E27        -7.112         239.990           0.109           0.684
> 2025 01 08 19 46  1.0000000  0  4
E13        -7.862      -77998.259         647.492           0.436  
E15        -6.504     -361122.018        4273.410           1.270  
E21        -9.828      105134.295        -965.048           0.230  
E27        -5.235         239.997           0.497           0.753
> 2025 01 08 19 46  2.0000000  0  4
E13        -4.967      -78646.688         649.763           0.284  
E15        -4.932     -365393.500        4271.437           1.086  
E21        -7.898      106096.058        -964.638           0.291  
E27       -10.436         239.974          -0.838           0.521
> 2025 01 08 19 46  3.0000000  0  4
E13        -7.952      -79294.412         648.341           0.184  
E15        -6.862     -369665.400        4271.209           0.884  
E21        -8.649      107058.841        -961.563           0.451  
E27        -6.987         240.008          -0.441           0.449
> 2025 01 08 19 46  4.0000000  0  4
E13        -5.718      -79939.731         645.019           0.138  
E15        -9.613     -373939.491        4276.226           0.869  
E21        -6.486      108024.418        -968.627           0.376  
E27        -5.843         239.993           1.385           0.404
> 2025 01 08 19 46  5.0000000  0  4
E13        -5.271      -80582.799         641.756           0.163  
E15        -9.667     -378215.501        4274.493           0.664  
E21        -6.523      108992.624        -972.555           0.388  
E27        -9.167         239.982           0.097           0.505
> 2025 01 08 19 46  6.0000000  0  4
E13        -8.345      -81225.274         641.553           0.196  
E15        -7.916     -382491.835        4275.977           0.512  
E21        -9.364      109961.711        -968.412           0.506  
E27        -7.040         239.980           1.287           0.640
> 2025 01 08 19 46  7.0000000  0  4
E13        -7.505      -81868.537         643.922           0.519  
E15        -7.488     -386767.123        4274.875           0.459  
E21        -9.077      110930.427        -967.740           0.572  
E27        -8.166         239.990          -1.317           1.023
> 2025 01 08 19 46  8.0000000  0  4
E13        -7.165      -82511.605         642.948           0.636  
E15        -7.040     -391042.320        4274.112           0.541  
E21        -7.058      111899.666        -971.075           0.524  
E27        -7.094         239.982           1.345           1.046
> 2025 01 08 19 46  9.0000000  0  4
E13        -8.256      -83153.278         641.209           0.569  
E15        -6.808     -395318.672        4276.254           0.349  
E21        -7.952      112870.647        -970.968           0.490  
E27        -9.292         239.982           1.129           0.591
> 2025 01 08 19 46 10.0000000  0  4
E13        -7.219      -83793.855         640.000           0.237  
E15        -9.399     -399595.830        4278.332           0.296  
E21        -6.612      113843.107        -975.974           0.531  
E27        -9.971         239.970          -0.148           0.632
> 2025 01 08 19 46 11.0000000  0  4
E13        -6.986      -84433.825         639.721           0.307  
E15        -8.845     -403873.302        4277.556           0.307  
E21        -6.326      114816.491        -972.728           0.680  
E27        -5.397         239.988          -0.199           0.865
> 2025 01 08 19 46 12.0000000  0  4
E13        -9.042      -85073.105         638.489           0.281  
E15        -9.864     -408151.164        4279.195           0.660  
E21        -5.611      115790.890        -974.694           0.746  
E27        -8.291         239.987          -0.376           0.658
> 2025 01 08 19 46 13.0000000  0  4
E13        -8.934      -85711.883         639.119           0.425  
E15       -10.346     -412429.313        4276.633           0.723  
E21        -7.862      116766.173        -976.699           1.048  
E27        -6.147         239.996          -2.693           0.572
> 2025 01 08 19 46 14.0000000  0  4
E13        -7.040      -86350.662         637.615           0.281  
E15        -8.363     -416707.176        4277.701           0.990  
E21        -6.486      117741.861        -976.367           1.113  
E27        -6.146         239.992           0.619           0.618
> 2025 01 08 19 46 15.0000000  0  4
E13        -7.505      -86989.265         636.135           0.314  
E15        -7.808     -420984.951        4278.937           1.009  
E21        -7.344      118718.020        -976.735           0.926  
E27        -5.414         239.985          -0.277           0.573
> 2025 01 08 19 46 16.0000000  0  4
E13        -6.183      -87627.160         637.575           0.643  
E15        -7.380     -425263.138        4277.821           1.060  
E21        -7.756      119695.270        -975.768           0.721  
E27        -7.541         239.996          -0.864           0.181
> 2025 01 08 19 46 17.0000000  0  4
E13        -8.810      -88264.254         636.230           0.637  
E15        -6.844     -429541.818        4277.333           0.777  
E21        -6.773      120673.642        -980.415           0.634  
E27        -8.649         239.990           0.954           0.530
> 2025 01 08 19 46 18.0000000  0  4
E13        -5.772      -88900.332         634.747           0.480  
E15        -7.577     -433821.306        4281.643           0.659  
E21        -8.560      121653.447        -981.532           0.246  
E27       -10.507         239.974           0.555           0.930
> 2025 01 08 19 46 19.0000000  0  4
E13        -9.095      -89534.687         631.377           0.292  
E15        -5.271     -438102.193        4282.534           0.614  
E21        -7.469      122635.259        -985.418           0.836  
E27        -6.879         239.984           0.599           0.728
> 2025 01 08 19 46 20.0000000  0  4
E13        -6.254      -90167.823         634.162           0.468  
E15        -5.396     -442384.031        4281.064           0.716  
E21        -5.057      123618.647        -985.479           0.882  
E27        -6.397         239.994           0.877           0.921
> 2025 01 08 19 46 21.0000000  0  4
E13        -8.970      -90800.476         630.321           0.500  
E15        -7.022     -446666.150        4283.243           0.508  
E21        -8.112      124602.944        -985.382           0.925  
E27        -4.467         239.973          -0.257           0.740
> 2025 01 08 19 46 22.0000000  0  4
E13        -6.683      -91433.859         635.057           0.305  
E15        -8.810     -450947.178        4279.655           0.432  
E21        -6.772      125586.802        -982.118           1.222  
E27        -8.649         239.973          -0.973           0.669
> 2025 01 08 19 46 23.0000000  0  4
E13        -6.504      -92066.948         633.162           0.399  
E15        -8.077     -455228.269        4279.172           0.524  
E21        -4.789      126571.332        -985.732           0.950  
E27        -5.379         240.005           0.094           0.630
> 2025 01 08 19 46 24.0000000  0  4
E13        -4.950      -92698.711         629.366           0.471  
E15        -8.344     -459510.364        4281.722           0.357  
E21        -8.988      127557.516        -988.351           0.975  
E27        -6.486         240.008          -1.270           0.589
> 2025 01 08 19 46 25.0000000  0  4
E13        -6.593      -93329.785         631.409           0.241  
E15        -6.701     -463792.883        4282.725           0.767  
E21        -8.184      128544.742        -984.656           1.091  
E27        -4.824         239.998           1.312           0.657
> 2025 01 08 19 46 26.0000000  0  4
E13        -8.899      -93960.192         630.594           0.246  
E15        -8.523     -468075.824        4282.590           0.722  
E21        -8.148      129533.018        -988.455           1.107  
E27        -6.415         239.988           1.025           0.729
> 2025 01 08 19 46 27.0000000  0  4
E13        -9.292      -94589.176         629.379           0.319  
E15        -7.362     -472359.934        4286.288           0.622  
E21       -10.561      130523.058        -989.447           1.060  
E27        -7.559         239.991          -0.026           0.754
> 2025 01 08 19 46 28.0000000  0  4
E13        -8.273      -95218.502         630.677          -0.047  
E15        -7.041     -476643.382        4285.271           0.885  
E21        -6.307      131513.093        -990.753           0.780  
E27        -5.576         239.983           0.972           1.042
> 2025 01 08 19 46 29.0000000  0  4
E13        -8.631      -95847.712         629.782           0.078  
E15        -6.111     -480926.670        4283.294           0.818  
E21        -7.934      132503.593        -990.935           0.703  
E27        -8.345         239.995           0.504           0.798
> 2025 01 08 19 46 30.0000000  0  4
E13        -6.486      -96475.964         627.309           0.253  
E15        -8.702     -485210.704        4286.934           0.903  
E21        -4.897      133495.474        -991.840           0.703  
E27        -8.256         239.988           0.324           0.627
> 2025 01 08 19 46 31.0000000  0  4
E13        -5.540      -97103.994         628.676           0.222  
E15        -6.093     -489494.612        4284.170           0.911  
E21        -8.952      134487.833        -990.004           0.586  
E27        -7.773         239.986          -1.025           0.518
> 2025 01 08 19 46 32.0000000  0  4
E13        -5.682      -97731.892         627.632           0.287  
E15        -9.042     -493778.390        4285.369           0.883  
E21        -6.432      135480.746        -994.742           0.626  
E27        -9.703         240.003          -0.876           0.504
> 2025 01 08 19 46 33.0000000  0  4
E13        -8.380      -98359.650         627.586           0.472  
E15        -6.468     -498062.079        4283.229           0.345  
E21        -6.880      136474.147        -993.649           0.607  
E27       -10.543         239.970           3.418           0.493
> 2025 01 08 19 46 34.0000000  0  4
E13        -6.004      -98985.573         623.895           0.440  
E15        -8.828     -502347.287        4286.244           0.548  
E21        -7.362      137469.708        -995.811           0.708  
E27        -6.522         239.993          -0.603           0.321
> 2025 01 08 19 46 35.0000000  0  4
E13        -6.093      -99610.960         624.441           0.562  
E15        -6.683     -506632.759        4287.362           0.996  
E21        -8.988      138466.172        -997.601           0.758  
E27        -9.667         239.984           1.248           0.535
> 2025 01 08 19 46 36.0000000  0  4
E13        -6.451     -100235.295         624.253           0.353  
E15       -10.524     -510919.018        4285.649           0.760  
E21        -7.594      139464.061       -1001.017           0.570  
E27        -7.219         239.988          -0.667           0.463
> 2025 01 08 19 46 37.0000000  0  4
E13        -7.683     -100858.866         623.436           0.354  
E15        -6.200     -515205.771        4286.480           0.829  
E21        -6.415      140463.074        -999.911           0.753  
E27       -10.525         239.985           0.012           0.636
> 2025 01 08 19 46 38.0000000  0  4
E13        -8.112     -101481.998         622.229           0.282  
E15        -9.935     -519492.677        4289.326           0.754  
E21        -7.987      141462.872        -999.250           0.630  
E27        -3.663         239.990           0.442           0.316
> 2025 01 08 19 46 39.0000000  0  4
E13        -6.057     -102104.532         623.265           0.482  
E15        -7.362     -523779.907        4288.775           0.630  
E21        -7.219      142463.579        -997.593           0.823  
E27        -6.772         240.002           0.708           0.517
> 2025 01 08 19 46 40.0000000  0  4
E13        -7.701     -102725.874         622.185           0.445  
E15        -6.951     -528068.025        4287.918           0.888  
E21        -8.380      143465.852       -1001.794           0.851  
E27        -6.933         239.988          -0.684           0.569
> 2025 01 08 19 46 41.0000000  0  4
E13        -8.131     -103347.288         622.083           0.224  
E15        -7.112     -532355.898        4288.713           1.008  
E21        -9.221      144468.466       -1001.268           0.807  
E27        -6.380         239.998           1.839           0.606
> 2025 01 08 19 46 42.0000000  0  4
E13        -7.308     -103968.417         619.621           0.253  
E15        -9.041     -536643.682        4288.117           0.726  
E21        -8.345      145471.657       -1003.794           0.411  
E27        -7.666         239.983           1.756           0.613
> 2025 01 08 19 46 43.0000000  0  4
E13        -7.737     -104588.529         619.305           0.194  
E15        -5.611     -540932.200        4287.466           0.726  
E21        -9.274      146476.228       -1006.463           0.325  
E27        -7.380         239.991          -0.262           0.875
> 2025 01 08 19 46 44.0000000  0  4
E13        -6.022     -105207.749         617.650           0.276  
E15        -7.970     -545221.389        4288.742           0.934  
E21        -7.415      147482.073       -1006.294           0.124  
E27       -10.489         239.979           0.728           0.770
> 2025 01 08 19 46 45.0000000  0  4
E13        -8.130     -105826.639         618.430           0.304  
E15        -7.720     -549510.633        4289.805           0.430  
E21        -8.059      148488.561       -1008.267           0.569  
E27        -7.219         239.993          -0.421           0.567
> 2025 01 08 19 46 46.0000000  0  4
E13        -7.898     -106444.990         615.802           0.255  
E15        -8.917     -553800.097        4289.118           0.336  
E21        -8.720      149495.949       -1007.696           0.986  
E27       -10.078         239.991           0.536           0.563
> 2025 01 08 19 46 47.0000000  0  4
E13        -7.326     -107062.720         618.534           0.140  
E15        -6.237     -558089.943        4291.352           0.700  
E21        -6.665      150504.336       -1007.814           0.777  
E27        -5.360         240.003           0.908           0.563
> 2025 01 08 19 46 48.0000000  0  4
E13        -9.363     -107679.304         615.990           0.150  
E15        -5.200     -562380.649        4291.571           0.734  
E21        -6.987      151514.251       -1013.389           0.968  
E27        -6.540         240.006          -0.144           0.726
> 2025 01 08 19 46 49.0000000  0  4
E13        -7.094     -108295.769         617.695           0.292  
E15        -5.575     -566671.214        4289.594           0.853  
E21        -8.077      152524.608       -1008.479           0.744  
E27        -8.256         239.982           0.088           0.515
> 2025 01 08 19 46 50.0000000  0  4
E13        -7.469     -108912.090         614.741           0.291  
E15        -8.309     -570961.634        4293.163           0.875  
E21        -4.950      153535.476       -1011.541           0.734  
E27        -6.450         239.984          -0.394           0.576
> 2025 01 08 19 46 51.0000000  0  4
E13        -7.540     -109525.975         615.438           0.330  
E15        -8.792     -575254.183        4290.524           0.700  
E21        -8.988      154549.094       -1013.460           0.871  
E27        -8.720         239.996          -0.320           0.895
> 2025 01 08 19 46 52.0000000  0  4
E13        -8.524     -110140.815         614.968          -0.019  
E15       -10.703     -579545.513        4291.752           0.661  
E21        -8.255      155562.145       -1016.683           1.113  
E27        -5.343         239.992          -0.166           1.040
> 2025 01 08 19 46 53.0000000  0  4
E13        -7.862     -110755.420         613.515           0.257  
E15        -9.149     -583836.811        4293.242           0.611  
E21        -8.667      156575.738       -1014.894           0.895  
E27       -12.062         239.991          -2.165           0.824
> 2025 01 08 19 46 54.0000000  0  4
E13        -8.220     -111368.541         610.355           0.223  
E15        -9.256     -588129.337        4291.298           0.362  
E21        -8.667      157591.258       -1018.616           0.794  
E27        -4.789         239.982           1.023           0.869
> 2025 01 08 19 46 55.0000000  0  4
E13        -7.881     -111980.608         611.049           0.397  
E15        -6.790     -592422.636        4292.572           0.619  
E21        -6.237      158608.096       -1015.288           0.579  
E27        -5.468         239.979          -1.073           0.703
> 2025 01 08 19 46 56.0000000  0  4
E13        -6.754     -112592.898         612.710           0.160  
E15        -6.986     -596715.409        4292.346           0.614  
E21        -8.381      159625.123       -1017.887           0.600  
E27        -4.931         239.992          -0.563           0.479
> 2025 01 08 19 46 57.0000000  0  4
E13        -7.076     -113204.360         610.228           0.263  
E15        -8.452     -601008.745        4296.144           0.965  
E21        -5.558      160643.323       -1017.175           0.853  
E27        -5.843         239.992          -0.199           0.827
> 2025 01 08 19 46 58.0000000  0  4
E13        -7.505     -113814.929         611.684           0.111  
E15        -5.682     -605302.714        4295.478           0.617  
E21        -8.488      161662.742       -1019.500           0.618  
E27        -9.364         239.967          -0.328           0.836
> 2025 01 08 19 46 59.0000000  0  4
E13        -7.880     -114425.093         610.588           0.102  
E15        -5.539     -609596.831        4292.659           0.760  
E21       -10.990      162682.977       -1021.184           0.628  
E27        -6.004         240.004           1.116           0.938
> 2025 01 08 19 47  0.0000000  0  4
E13        -6.576     -115035.414         610.580           0.121  
E15        -7.452     -613890.457        4293.053           0.976  
E21        -8.113      163703.370       -1019.892           0.468  
E27        -6.362         239.990           0.145           1.035
> 2025 01 08 19 47  1.0000000  0  4
E13        -6.504     -115645.618         609.153           0.163  
E15        -7.470     -618184.008        4296.964           0.750  
E21        -8.934      164724.221       -1020.468           0.287  
E27        -8.148         239.978          -0.432           1.053
> 2025 01 08 19 47  2.0000000  0  4
E13        -4.574     -116253.445         608.346           0.089  
E15        -5.540     -622479.551        4294.413           0.693  
E21        -7.040      165747.816       -1022.759           0.555  
E27        -7.148         240.009          -1.449           1.128
> 2025 01 08 19 47  3.0000000  0  4
E13        -7.791     -116862.632         609.612           0.249  
E15        -6.486     -626773.525        4292.755           0.742  
E21        -7.201      166770.395       -1020.476           0.417  
E27        -7.970         239.999          -2.503           1.143
> 2025 01 08 19 47  4.0000000  0  4
E13        -7.041     -117469.242         603.852           0.263  
E15        -6.754     -631069.797        4298.093           0.880  
E21        -5.629      167795.940       -1027.370           0.637  
E27        -9.185         239.991          -1.274           0.945
> 2025 01 08 19 47  5.0000000  0  4
E13        -7.380     -118077.548         609.534           0.423  
E15        -5.522     -635364.086        4292.406           0.729  
E21        -9.882      168820.152       -1022.834           0.762  
E27        -5.218         239.989          -1.160           0.943
> 2025 01 08 19 47  6.0000000  0  4
E13        -7.666     -118688.593         607.046           0.308  
E15        -7.023     -639655.370        4294.249           0.439  
E21        -6.808      169841.938       -1027.702           0.628  
E27       -11.096         239.991           0.737           0.794
> 2025 01 08 19 47  7.0000000  0  4
E13        -7.702     -119295.838         606.163           0.576  
E15        -9.792     -643950.162        4297.192           0.438  
E21        -6.254      170867.923       -1024.623           0.965  
E27        -7.737         239.979           0.602           0.655
> 2025 01 08 19 47  8.0000000  0  4
E13        -7.487     -119900.896         605.247           0.532  
E15        -8.416     -648246.903        4295.543           0.319  
E21        -7.344      171896.424       -1030.940           0.898  
E27        -5.200         239.998          -0.054           0.719
> 2025 01 08 19 47  9.0000000  0  4
E13        -7.559     -120506.487         604.027           0.478  
E15        -6.451     -652542.777        4293.669           0.244  
E21        -7.827      172924.778       -1029.437           1.051  
E27        -7.076         240.002          -1.182           0.648
> 2025 01 08 19 47 10.0000000  0  4
E13        -8.309     -121110.920         603.537           0.288  
E15        -7.397     -656839.529        4298.787           0.432  
E21        -6.362      173954.588       -1034.277           0.777  
E27        -9.738         239.976           0.910           0.714
> 2025 01 08 19 47 11.0000000  0  4
E13        -7.041     -121713.482         599.845           0.137  
E15        -5.682     -661137.943        4297.844           0.513  
E21        -7.201      174986.680       -1033.096           0.829  
E27       -10.382         239.984          -1.194           1.019
> 2025 01 08 19 47 12.0000000  0  4
E13        -6.862     -122316.359         601.553           0.088  
E15        -7.541     -665435.707        4298.512           0.516  
E21        -8.006      176018.777       -1035.919           0.707  
E27        -8.559         239.992          -0.961           0.916
> 2025 01 08 19 47 13.0000000  0  4
E13        -7.273     -122918.363         601.335           0.185  
E15        -7.684     -669734.111        4299.919           0.701  
E21        -8.381      177052.123       -1033.304           0.651  
E27        -5.414         239.993           1.690           0.877
> 2025 01 08 19 47 14.0000000  0  4
E13        -7.415     -123519.249         600.589           0.215  
E15        -7.023     -674033.327        4298.941           0.701  
E21        -7.630      178086.944       -1037.892           0.493  
E27        -2.663         239.986           0.321           1.067
> 2025 01 08 19 47 15.0000000  0  4
E13        -8.380     -124119.404         600.670           0.269  
E15        -7.916     -678332.994        4299.766           0.623  
E21        -6.344      179122.835       -1037.121           0.622  
E27        -7.201         239.986           0.079           0.628
> 2025 01 08 19 47 16.0000000  0  4
E13        -7.862     -124719.062         601.220           0.267  
E15       -10.024     -682632.935        4300.107           0.467  
E21        -6.397      180159.611       -1037.200           0.406  
E27        -7.934         239.974          -1.081           0.505
> 2025 01 08 19 47 17.0000000  0  4
E13        -7.469     -125318.614         598.642           0.272  
E15        -5.432     -686932.615        4297.889           0.524  
E21        -6.558      181196.800       -1037.907           0.339  
E27        -7.434         240.000           0.002           0.881
> 2025 01 08 19 47 18.0000000  0  4
E13        -8.130     -125918.696         599.867           0.330  
E15        -6.558     -691231.569        4302.114           0.508  
E21        -6.897      182233.838       -1037.907           0.660  
E27        -6.594         239.987          -0.341           1.144
> 2025 01 08 19 47 19.0000000  0  4
E13        -6.415     -126517.570         598.613           0.322  
E15        -8.292     -695531.412        4300.446           0.448  
E21        -5.485      183272.471       -1035.948           0.901  
E27        -7.595         239.974          -1.215           0.784
> 2025 01 08 19 47 20.0000000  0  4
E13        -7.505     -127116.406         599.787           0.456  
E15        -8.935     -699831.020        4301.089           0.487  
E21        -6.648      184311.447       -1035.027           0.849  
E27        -5.182         239.996           0.366           0.936
> 2025 01 08 19 47 21.0000000  0  4
E13        -5.503     -127715.645         599.287           0.596  
E15        -6.254     -704129.968        4296.964           0.479  
E21        -6.897      185350.400       -1039.001           0.589  
E27        -7.344         239.990           0.421           1.028
> 2025 01 08 19 47 22.0000000  0  4
E13        -8.309     -128314.246         597.854           0.528  
E15        -7.988     -708429.263        4300.181           0.432  
E21        -8.416      186390.346       -1039.182           0.614  
E27        -7.094         239.983           0.841           1.171
> 2025 01 08 19 47 23.0000000  0  4
E13        -5.932     -128911.367         596.851           0.554  
E15        -7.166     -712729.775        4299.885           0.377  
E21        -6.629      187432.163       -1039.867           0.613  
E27        -9.596         239.976           1.049           1.148
> 2025 01 08 19 47 24.0000000  0  4
E13        -7.612     -129506.492         593.326           0.513  
E15        -8.023     -717031.953        4302.490           0.581  
E21        -8.148      188476.261       -1045.574           0.632  
E27        -6.612         239.988          -0.200           1.412
> 2025 01 08 19 47 25.0000000  0  4
E13        -9.292     -130101.128         598.510           0.281  
E15        -8.631     -721334.421        4303.589           0.572  
E21        -8.488      189521.287       -1044.207           0.592  
E27        -9.238         239.994          -0.206           1.244
> 2025 01 08 19 47 26.0000000  0  4
E13        -7.523     -130697.752         597.016           0.301  
E15        -7.647     -725634.578        4300.872           0.752  
E21        -9.685      190564.609       -1047.465           0.442  
E27        -9.113         239.995           0.106           0.974
> 2025 01 08 19 47 27.0000000  0  4
E13        -9.399     -131292.432         591.359           0.109  
E15        -6.593     -729936.370        4303.867           0.862  
E21        -7.094      191610.224       -1047.213           0.328  
E27        -6.701         239.980           0.780           0.933
> 2025 01 08 19 47 28.0000000  0  4
E13        -8.577     -131886.481         593.421           0.048  
E15        -8.130     -734238.564        4303.934           0.770  
E21        -9.345      192656.886       -1049.632           0.592  
E27        -6.219         239.983          -0.110           0.670
> 2025 01 08 19 47 29.0000000  0  4
E13        -6.201     -132480.526         593.728           0.090  
E15        -6.505     -738540.493        4303.487           0.883  
E21       -10.203      193703.890       -1044.863           0.678  
E27        -8.041         240.000           0.397           0.676
> 2025 01 08 19 47 30.0000000  0  4
E13        -7.523     -133072.828         592.052           0.156  
E15        -7.452     -742843.880        4303.588           0.642  
E21        -9.024      194753.007       -1050.995           0.768  
E27        -8.809         239.988          -1.542           0.986
> 2025 01 08 19 47 31.0000000  0  4
E13        -5.682     -133663.726         588.121           0.218  
E15        -9.434     -747148.379        4306.883           0.507  
E21        -6.790      195803.847       -1052.858           0.649  
E27        -5.200         239.990           1.091           0.969
> 2025 01 08 19 47 32.0000000  0  4
E13        -8.077     -134255.194         592.633           0.363  
E15        -7.201     -751452.034        4303.876           0.545  
E21        -6.022      196854.519       -1050.519           0.577  
E27        -7.844         239.972          -0.499           0.914
> 2025 01 08 19 47 33.0000000  0  4
E13        -8.184     -134846.244         590.477           0.547  
E15        -5.432     -755755.835        4302.460           0.259  
E21        -8.274      197905.915       -1051.282           0.699  
E27        -4.038         240.006          -0.612           0.714
> 2025 01 08 19 47 34.0000000  0  4
E13        -9.238     -135436.423         588.295           0.413  
E15        -7.130     -760060.203        4304.939           0.384  
E21        -9.381      198958.546       -1052.793           0.649  
E27        -7.541         239.994           0.140           0.692
> 2025 01 08 19 47 35.0000000  0  4
E13        -9.184     -136025.339         586.367           0.190  
E15        -7.934     -764365.597        4304.893           0.344  
E21        -9.114      200012.839       -1057.323           0.808  
E27        -6.075         239.989          -0.022           0.801
> 2025 01 08 19 47 36.0000000  0  4
E13        -8.327     -136613.987         590.261           0.371  
E15        -6.826     -768670.972        4306.170           0.570  
E21        -6.058      201067.729       -1055.322           0.736  
E27        -7.719         239.989          -0.934           0.678
> 2025 01 08 19 47 37.0000000  0  4
E13        -7.880     -137202.542         588.200           0.504  
E15        -7.594     -772976.161        4305.976           0.538  
E21        -7.684      202123.062       -1059.084           0.765  
E27        -6.093         239.993          -1.115           0.669
> 2025 01 08 19 47 38.0000000  0  4
E13        -8.112     -137788.404         585.421           0.605  
E15        -5.039     -777283.753        4310.220           0.314  
E21        -8.041      203181.440       -1059.323           0.932  
E27        -7.826         239.979           0.642           0.421
> 2025 01 08 19 47 39.0000000  0  4
E13        -8.685     -138373.243         586.358           0.466  
E15        -6.379     -781592.096        4309.402           0.385  
E21        -8.934      204241.221       -1061.578           0.961  
E27        -9.345         239.982           0.401           0.649
> 2025 01 08 19 47 40.0000000  0  4
E13        -7.147     -138958.597         583.269           0.215  
E15        -7.023     -785899.634        4308.366           0.506  
E21        -8.309      205300.811       -1060.974           0.541  
E27        -6.593         240.005          -1.257           0.727
> 2025 01 08 19 47 41.0000000  0  4
E13        -7.541     -139544.163         586.000           0.160  
E15       -10.721     -790206.714        4306.962           0.277  
E21        -7.326      206360.578       -1062.422           0.365  
E27        -5.200         239.988          -0.030           0.873
> 2025 01 08 19 47 42.0000000  0  4
E13        -7.666     -140129.218         586.765           0.156  
E15        -8.577     -794513.978        4307.330           0.233  
E21        -7.523      207421.209       -1059.961           0.244  
E27        -9.649         239.984           0.813           0.754
> 2025 01 08 19 47 43.0000000  0  4
E13        -7.523     -140713.678         582.658           0.328  
E15        -6.629     -798821.605        4306.430           0.518  
E21        -7.541      208482.765       -1063.504           0.465  
E27        -8.523         239.990          -0.173           0.473
> 2025 01 08 19 47 44.0000000  0  4
E13        -5.879     -141297.562         582.286           0.435  
E15        -4.003     -803129.498        4304.267           0.394  
E21        -6.505      209545.294       -1062.404           0.443  
E27        -7.487         239.987          -0.549           0.702
> 2025 01 08 19 47 45.0000000  0  4
E13        -6.522     -141880.894         582.899           0.097  
E15        -6.772     -807437.685        4309.233           0.286  
E21        -6.933      210608.700       -1063.585           0.703  
E27        -7.755         240.000          -0.511           1.116
> 2025 01 08 19 47 46.0000000  0  4
E13        -5.736     -142463.814         583.703           0.126  
E15        -5.646     -811745.987        4310.397           0.363  
E21        -7.666      211672.899       -1064.467           0.655  
E27        -9.095         239.994           0.760           0.834
> 2025 01 08 19 47 47.0000000  0  4
E13       -10.382     -143046.286         582.562           0.216  
E15        -8.255     -816054.498        4310.135           0.311  
E21        -6.540      212737.908       -1067.889           0.655  
E27        -7.612         239.989          -0.056           0.779
> 2025 01 08 19 47 48.0000000  0  4
E13        -8.041     -143627.775         580.847           0.424  
E15       -10.578     -820363.661        4308.842           0.532  
E21        -7.719      213804.196       -1065.377           0.590  
E27        -7.737         239.982          -1.083           1.023
> 2025 01 08 19 47 49.0000000  0  4
E13        -9.078     -144208.475         580.286           0.294  
E15        -8.292     -824673.360        4309.346           0.511  
E21        -7.308      214871.698       -1069.494           0.373  
E27        -8.648         239.993           1.425           0.609
> 2025 01 08 19 47 50.0000000  0  4
E13        -5.682     -144788.948         581.337           0.254  
E15        -7.058     -828983.016        4309.779           0.807  
E21        -5.182      215939.767       -1071.312           0.504  
E27        -8.255         239.993           1.915           0.732
> 2025 01 08 19 47 51.0000000  0  4
E13        -5.290     -145369.169         580.508           0.284  
E15        -7.576     -833292.678        4310.824           0.754  
E21        -5.021      217008.476       -1068.897           0.515  
E27        -6.022         239.990           0.012           0.836
> 2025 01 08 19 47 52.0000000  0  4
E13        -8.309     -145948.454         578.403           0.280  
E15        -6.773     -837602.926        4310.622           0.587  
E21        -7.970      218078.396       -1070.090           0.845  
E27        -6.790         239.997           0.642           0.866
> 2025 01 08 19 47 53.0000000  0  4
E13        -8.630     -146526.814         579.067           0.510  
E15        -9.131     -841913.863        4312.103           0.574  
E21        -8.720      219149.656       -1074.987           0.339  
E27       -10.114         239.973          -0.388           0.439
> 2025 01 08 19 47 54.0000000  0  4
E13       -10.954     -147104.768         577.697           0.395  
E15        -8.059     -846224.923        4309.822           0.516  
E21        -6.611      220221.694       -1072.441           0.230  
E27        -6.700         239.992          -1.117           0.615
> 2025 01 08 19 47 55.0000000  0  4
E13        -7.577     -147681.802         578.358           0.391  
E15        -7.505     -850536.612        4310.757           0.453  
E21        -7.184      221294.971       -1076.364           0.313  
E27        -6.647         239.990           0.053           0.377
> 2025 01 08 19 47 56.0000000  0  4
E13        -7.397     -148258.469         575.049           0.436  
E15        -7.523     -854848.373        4311.968           0.661  
E21        -6.254      222368.954       -1073.279           0.108  
E27        -9.095         239.993          -0.865           0.347
> 2025 01 08 19 47 57.0000000  0  4
E13        -6.915     -148834.789         576.591           0.449  
E15        -5.683     -859160.229        4310.389           0.879  
E21        -8.202      223443.706       -1074.680           0.300  
E27        -5.593         239.998          -1.404           0.554
> 2025 01 08 19 47 58.0000000  0  4
E13        -5.879     -149410.676         575.530           0.489  
E15        -7.594     -863472.251        4310.962           0.778  
E21        -6.683      224519.226       -1073.419           0.363  
E27        -5.218         240.005          -0.835           0.803
> 2025 01 08 19 47 59.0000000  0  4
E13        -6.164     -149985.734         575.922           0.119  
E15        -9.882     -867784.807        4309.647           0.595  
E21        -6.164      225595.903       -1078.171           0.383  
E27        -6.326         239.995          -0.565           0.795
> 2025 01 08 19 48  0.0000000  0  4
E13        -6.683     -150559.958         574.925           0.202  
E15        -5.843     -872097.944        4313.268           0.623  
E21        -6.218      226673.808       -1076.959           0.449  
E27        -7.684         239.980           0.953           0.528
> 2025 01 08 19 48  1.0000000  0  4
E13        -6.916     -151133.511         571.739           0.219  
E15        -5.218     -876411.434        4312.839           0.631  
E21        -6.040      227752.726       -1079.572           0.644  
E27        -8.631         239.993           0.402           0.836
> 2025 01 08 19 48  2.0000000  0  4
E13        -6.826     -151706.456         571.040           0.259  
E15        -6.093     -880725.298        4313.947           0.478  
E21        -8.577      228832.622       -1080.609           0.615  
E27        -9.399         239.992          -0.876           0.947
> 2025 01 08 19 48  3.0000000  0  4
E13        -6.897     -152278.716         573.372           0.246  
E15        -7.916     -885039.543        4314.137           0.677  
E21        -6.647      229913.573       -1081.599           0.826  
E27        -8.863         239.989           1.426           0.855
> 2025 01 08 19 48  4.0000000  0  4
E13        -6.237     -152850.288         570.353           0.222  
E15        -8.506     -889354.177        4314.104           0.563  
E21        -7.077      230995.509       -1080.032           0.891  
E27       -12.008         239.980           1.343           0.899
> 2025 01 08 19 48  5.0000000  0  4
E13        -9.166     -153421.184         571.612           0.092  
E15        -8.452     -893669.265        4316.601           0.440  
E21        -6.969      232078.548       -1083.240           1.333  
E27        -6.450         239.988          -0.963           0.950
> 2025 01 08 19 48  6.0000000  0  4
E13        -6.397     -153991.379         569.223          -0.057  
E15        -7.594     -897984.749        4315.757           0.352  
E21        -9.632      233162.597       -1082.515           1.401  
E27        -5.290         239.990          -0.118           0.965
> 2025 01 08 19 48  7.0000000  0  4
E13        -7.862     -154560.979         569.330           0.045  
E15        -8.113     -902300.519        4314.892           0.346  
E21        -9.506      234247.615       -1082.895           1.076  
E27        -9.721         239.989          -0.110           0.601
> 2025 01 08 19 48  8.0000000  0  4
E13        -6.057     -155130.523         566.803           0.027  
E15        -6.915     -906616.058        4319.222           0.427  
E21        -9.631      235333.038       -1085.108           0.954  
E27        -6.916         240.002           0.014           0.891
> 2025 01 08 19 48  9.0000000  0  4
E13        -5.611     -155699.548         567.787           0.242  
E15        -7.255     -910931.878        4314.639           0.705  
E21        -5.235      236419.358       -1084.581           0.942  
E27        -5.164         240.006          -0.646           0.934
> 2025 01 08 19 48 10.0000000  0  4
E13        -6.397     -156267.861         569.961           0.012  
E15        -6.451     -915248.099        4316.262           0.862  
E21        -6.737      237506.727       -1088.368           0.683  
E27        -6.594         239.989          -0.688           0.946
> 2025 01 08 19 48 11.0000000  0  4
E13        -7.416     -156835.763         568.208          -0.076  
E15        -8.828     -919564.475        4317.517           0.931  
E21        -6.219      238594.876       -1090.378           0.664  
E27        -9.756         239.974           0.505           1.212
> 2025 01 08 19 48 12.0000000  0  4
E13        -8.363     -157403.194         565.490           0.244  
E15        -7.219     -923881.058        4315.963           0.757  
E21        -8.631      239683.860       -1089.618           0.627  
E27        -8.041         239.986          -0.491           1.019
> 2025 01 08 19 48 13.0000000  0  4
E13        -7.719     -157970.234         565.659           0.205  
E15        -4.092     -928197.733        4317.895           0.557  
E21        -5.217      240773.612       -1089.664           0.597  
E27        -8.899         239.986          -0.498           1.326
> 2025 01 08 19 48 14.0000000  0  4
E13        -6.004     -158536.307         565.365           0.430  
E15        -7.737     -932515.085        4316.915           0.536  
E21        -6.040      241864.634       -1088.836           0.607  
E27        -1.644         240.020           0.751           1.009
> 2025 01 08 19 48 15.0000000  0  4
E13        -5.253     -159101.378         564.116           0.347  
E15        -7.844     -936833.178        4319.643           0.865  
E21        -8.238      242957.055       -1096.232           0.548  
E27        -6.540         240.013          -0.588           0.975
> 2025 01 08 19 48 16.0000000  0  4
E13        -8.006     -159666.112         563.983           0.315  
E15        -6.379     -941151.310        4317.868           0.588  
E21        -7.738      244050.190       -1093.763           0.254  
E27        -7.415         239.993           1.178           0.667
> 2025 01 08 19 48 17.0000000  0  4
E13        -6.111     -160230.263         563.239           0.118  
E15        -7.541     -945469.762        4317.181           0.692  
E21        -5.504      245144.229       -1092.160           0.329  
E27        -7.166         240.009           0.395           0.668
> 2025 01 08 19 48 18.0000000  0  4
E13        -6.612     -160793.481         561.196           0.158  
E15        -5.164     -949788.865        4319.435           0.487  
E21        -5.414      246239.568       -1094.094           0.414  
E27       -10.382         239.999           2.344           0.731
> 2025 01 08 19 48 19.0000000  0  4
E13        -6.969     -161355.986         565.190           0.433  
E15        -9.846     -954108.406        4319.200           0.738  
E21        -6.915      247335.994       -1100.888           0.783  
E27        -4.592         239.992           1.292           0.628
> 2025 01 08 19 48 20.0000000  0  4
E13        -7.309     -161917.516         560.290           0.527  
E15        -7.380     -958428.625        4320.637           0.779  
E21        -4.682      248433.718       -1099.743           0.528  
E27        -9.292         239.985           0.634           0.778
> 2025 01 08 19 48 21.0000000  0  4
E13        -6.755     -162477.875         561.653           0.386  
E15        -6.933     -962749.747        4320.393           0.658  
E21        -8.666      249533.001       -1099.692           0.461  
E27        -5.808         239.983          -0.026           0.835
> 2025 01 08 19 48 22.0000000  0  4
E13        -8.041     -163038.094         560.836           0.459  
E15        -6.183     -967070.741        4320.279           0.865  
E21        -7.934      250632.778       -1096.716           0.344  
E27        -6.111         239.984          -0.113           0.577
> 2025 01 08 19 48 23.0000000  0  4
E13        -7.398     -163598.371         559.774           0.442  
E15        -8.255     -971391.365        4319.873           0.548  
E21        -7.112      251732.845       -1102.373           0.525  
E27        -3.216         239.982          -0.421           0.577
> 2025 01 08 19 48 24.0000000  0  4
E13        -6.040     -164158.654         560.496           0.299  
E15        -5.307     -975711.698        4318.430           0.685  
E21        -5.557      252833.251       -1100.951           0.344  
E27       -10.328         239.985           1.524           0.705
> 2025 01 08 19 48 25.0000000  0  4
E13        -9.274     -164718.368         558.118           0.425  
E15        -8.917     -980032.379        4321.371           0.528  
E21        -7.970      253934.628       -1100.713           0.642  
E27        -7.684         239.993          -0.966           1.013
> 2025 01 08 19 48 26.0000000  0  4
E13        -7.148     -165276.775         557.107           0.314  
E15        -8.988     -984354.008        4322.037           0.829  
E21        -9.077      255037.636       -1103.700           0.354  
E27        -6.218         239.986           0.159           0.860
> 2025 01 08 19 48 27.0000000  0  4
E13        -9.149     -165834.497         556.311           0.375  
E15        -7.666     -988676.127        4322.016           0.704  
E21        -5.593      256141.725       -1104.522           0.580  
E27        -6.933         239.982           0.910           0.738
> 2025 01 08 19 48 28.0000000  0  4
E13        -7.809     -166391.873         560.540           0.235  
E15        -4.485     -992998.264        4322.543           0.635  
E21        -6.111      257246.507       -1104.805           0.596  
E27        -6.826         239.971           1.302           0.648
> 2025 01 08 19 48 29.0000000  0  4
E13        -6.826     -166948.849         558.668           0.048  
E15        -5.253     -997320.549        4320.141           0.910  
E21        -6.790      258352.044       -1107.030           0.397  
E27       -10.061         239.989           0.859           0.875
