     3.02           OBSERVATION DATA    E                   RINEX VERSION / TYPE
G = GPS  R = GLONASS  E = GALILEO  S = GEO  M = MIXED       COMMENT             
GNSS-SDR            jmfriedt            20250108 195855 UTC PGM / RUN BY / DATE 
GALILEO OBSERVATION DATA FILE GENERATED BY GNSS-SDR         COMMENT             
GNSS-SDR VERSION 0.0.19.git-main-87fcfd237                  COMMENT             
See https://gnss-sdr.org                                    COMMENT             
DEFAULT MARKER NAME                                         MARKER NAME         
jmfriedt            CTTC                                    OBSERVER / AGENCY   
GNSS-SDR            Software Receiver   0.0.19.gi           REC # / TYPE / VERS 
Antenna number      Antenna type                            ANT # / TYPE        
        0.0000        0.0000        0.0000                  APPROX POSITION XYZ 
        0.0000        0.0000        0.0000                  ANTENNA: DELTA H/E/N
E    4 C1B L1B D1B S1B                                      SYS / # / OBS TYPES 
DBHZ                                                        SIGNAL STRENGTH UNIT
  2025    01    08    19    44   36.1600000     GAL         TIME OF FIRST OBS   
    18    18   137     7                                    LEAP SECONDS        
                                                            END OF HEADER       
> 2025 01 08 19 44 37.0000000  0  4                                             
E13  28124159.940 6 147793447.943 6       348.805 6        41.167               
E15  29365420.738 6 154312768.598 6      2122.220 6        39.975               
E26  31438038.902 5 165211715.925 5     -2212.502 5        35.731               
E27  30215343.983 6 158782707.611 6     -2973.552 6        39.396               
> 2025 01 08 19 44 38.0000000  0  4                                             
E13  28124096.273 6 147793099.573 6       347.983 6        40.876               
E15  29365826.561 6 154310645.822 6      2123.680 6        39.947               
E26  31437618.622 5 165213927.069 5     -2212.297 5        35.508               
E27  30215912.968 6 158785683.032 6     -2973.995 6        39.560               
> 2025 01 08 19 44 39.0000000  0  4                                             
E13  28124029.782 6 147792751.583 6       346.885 6        41.308               
E15  29366235.655 6 154308522.803 6      2122.599 6        39.862               
E26  31437199.540 5 165216138.009 5     -2211.324 5        35.509               
E27  30216479.273 6 158788658.745 6     -2974.744 6        39.525               
> 2025 01 08 19 44 40.0000000  0  4                                             
E13  28123965.239 6 147792404.030 6       346.975 6        41.758               
E15  29366646.732 6 154306399.467 6      2122.923 6        40.126               
E26  31436779.225 5 165218348.620 5     -2212.408 5        35.751               
E27  30217048.241 6 158791634.870 6     -2975.725 6        39.534               
> 2025 01 08 19 44 41.0000000  0  4                                             
E13  28123901.500 6 147792056.831 6       346.776 6        41.965               
E15  29367045.836 6 154304275.923 6      2123.601 6        40.406               
E26  31436359.053 5 165220559.075 5     -2211.897 5        35.796               
E27  30217616.422 6 158794611.294 6     -2976.242 6        39.666               
> 2025 01 08 19 44 42.0000000  0  4                                             
E13  28123836.707 6 147791709.639 6       347.590 6        41.637               
E15  29367455.895 6 154302152.500 6      2122.083 6        40.514               
E26  31435944.849 5 165222769.672 5     -2211.585 5        35.335               
E27  30218187.069 6 158797587.666 6     -2976.760 6        40.076               
> 2025 01 08 19 44 43.0000000  0  4                                             
E13  28123773.933 6 147791362.510 6       346.284 6        41.538               
E15  29367856.107 6 154300029.163 6      2122.729 6        40.697               
E26  31435524.891 5 165224980.326 5     -2212.894 5        35.041               
E27  30218754.911 6 158800564.055 6     -2976.279 6        39.964               
> 2025 01 08 19 44 44.0000000  0  4                                             
E13  28123709.283 6 147791015.845 6       347.492 6        41.446               
E15  29368264.664 6 154297905.479 6      2124.320 6        40.610               
E26  31435107.506 5 165227190.657 5     -2209.623 5        35.391               
E27  30219318.411 6 158803540.854 6     -2975.488 6        39.633               
> 2025 01 08 19 44 45.0000000  0  4                                             
E13  28123644.419 6 147790669.601 6       345.987 6        41.577               
E15  29368669.130 6 154295781.529 6      2124.022 6        40.670               
E26  31434685.136 5 165229400.758 5     -2211.116 5        35.219               
E27  30219892.310 6 158806518.037 6     -2977.094 6        39.294               
> 2025 01 08 19 44 46.0000000  0  4                                             
E13  28123579.679 6 147790323.599 6       347.220 6        41.627               
E15  29369076.061 6 154293657.450 6      2123.992 6        40.527               
E26  31434268.913 5 165231610.722 5     -2214.019 5        35.661               
E27  30220458.919 6 158809495.413 6     -2977.313 6        39.534               
> 2025 01 08 19 44 47.0000000  0  4                                             
E13  28123515.369 6 147789977.800 6       346.425 6        41.379               
E15  29369485.244 6 154291533.327 6      2124.404 6        40.696               
E26  31433847.329 5 165233820.644 5     -2207.653 5        35.580               
E27  30221024.063 6 158812472.940 6     -2977.072 6        39.652               
> 2025 01 08 19 44 48.0000000  0  4                                             
E13  28123455.132 6 147789632.235 6       346.008 6        41.430               
E15  29369890.102 6 154289409.090 6      2123.623 6        40.461               
E26  31433426.567 5 165236030.506 5     -2208.778 5        35.176               
E27  30221591.887 6 158815450.617 6     -2978.266 6        39.640               
> 2025 01 08 19 44 49.0000000  0  4                                             
E13  28123389.177 6 147789286.907 6       345.432 6        41.488               
E15  29370297.266 6 154287284.749 6      2125.354 6        40.536               
E26  31433011.774 5 165238240.269 5     -2211.849 5        35.326               
E27  30222163.141 6 158818428.515 6     -2976.842 6        39.881               
> 2025 01 08 19 44 50.0000000  0  4                                             
E13  28123326.386 6 147788941.910 6       345.174 6        41.537               
E15  29370701.910 6 154285160.225 6      2125.360 6        40.567               
E26  31432589.100 5 165240449.823 5     -2208.650 5        35.337               
E27  30222733.449 6 158821406.695 6     -2978.529 6        39.862               
> 2025 01 08 19 44 51.0000000  0  4                                             
E13  28123262.683 6 147788597.231 6       344.399 6        41.278               
E15  29371108.519 6 154283035.505 6      2124.978 6        40.992               
E26  31432181.168 5 165242659.222 5     -2210.404 5        35.135               
E27  30223302.024 6 158824385.130 6     -2978.561 6        40.076               
> 2025 01 08 19 44 52.0000000  0  4                                             
E13  28123197.425 6 147788252.616 6       345.149 6        41.292               
E15  29371516.702 6 154280910.859 6      2125.456 6        40.933               
E26  31431755.957 5 165244868.668 5     -2209.132 5        35.038               
E27  30223869.240 6 158827363.596 6     -2976.662 6        40.210               
> 2025 01 08 19 44 53.0000000  0  4                                             
E13  28123132.096 6 147787908.248 6       343.274 6        41.304               
E15  29371919.094 6 154278786.108 6      2125.904 6        40.901               
E26  31431335.856 5 165247078.064 5     -2209.535 5        34.777               
E27  30224436.027 6 158830342.232 6     -2978.982 6        39.937               
> 2025 01 08 19 44 54.0000000  0  4                                             
E13  28123067.964 6 147787564.783 6       342.374 6        41.074               
E15  29372329.939 6 154276660.585 6      2125.617 6        40.637               
E26  31430918.007 5 165249286.701 5     -2207.183 5        35.021               
E27  30225008.908 6 158833321.739 6     -2979.359 6        39.837               
> 2025 01 08 19 44 55.0000000  0  4                                             
E13  28123006.387 6 147787221.588 6       344.195 6        41.134               
E15  29372738.407 6 154274534.908 6      2125.583 6        40.750               
E26  31430499.693 5 165251495.204 5     -2207.029 5        35.352               
E27  30225575.374 6 158836301.463 6     -2977.668 6        39.704               
> 2025 01 08 19 44 56.0000000  0  4                                             
E13  28122941.755 6 147786878.714 6       343.114 6        41.181               
E15  29373142.247 6 154272409.094 6      2125.764 6        40.777               
E26  31430084.506 5 165253703.519 5     -2208.665 5        35.224               
E27  30226144.556 6 158839281.438 6     -2980.657 6        39.718               
> 2025 01 08 19 44 57.0000000  0  4                                             
E13  28122876.998 6 147786536.216 6       342.611 6        41.335               
E15  29373547.516 6 154270283.021 6      2127.000 6        40.891               
E26  31429661.117 5 165255911.662 5     -2211.610 5        35.165               
E27  30226714.364 6 158842261.748 6     -2979.627 6        39.666               
> 2025 01 08 19 44 58.0000000  0  4                                             
E13  28122818.030 6 147786194.026 6       342.619 6        40.854               
E15  29373953.536 6 154268156.754 6      2126.904 6        40.765               
E26  31429240.356 5 165258119.556 5     -2210.349 5        34.819               
E27  30227280.293 6 158845242.342 6     -2982.018 6        39.393               
> 2025 01 08 19 44 59.0000000  0  4                                             
E13  28122753.558 6 147785852.313 6       340.480 6        40.703               
E15  29374360.467 6 154266030.162 6      2126.988 6        40.771               
E26  31428826.974 5 165260327.154 5     -2207.063 5        34.654               
E27  30227850.708 6 158848223.334 6     -2980.576 6        39.563               
> 2025 01 08 19 45 00.0000000  0  4                                             
E13  28122689.677 6 147785510.810 6       341.798 6        41.010               
E15  29374768.882 6 154263903.493 6      2127.681 6        40.716               
E26  31428405.979 5 165262534.742 5     -2207.229 5        34.761               
E27  30228420.319 6 158851204.469 6     -2981.035 6        39.396               
> 2025 01 08 19 45 01.0000000  0  4                                             
E13  28122627.778 6 147785169.544 6       340.357 6        40.861               
E15  29375170.756 6 154261776.724 6      2128.131 6        40.438               
E26  31427989.506 5 165264742.208 5     -2207.633 5        34.791               
E27  30228990.305 6 158854185.816 6     -2982.960 6        39.390               
> 2025 01 08 19 45 02.0000000  0  4                                             
E13  28122563.807 6 147784828.264 6       340.949 6        41.065               
E15  29375581.458 6 154259650.100 6      2126.795 6        40.710               
E26  31427570.156 5 165266949.812 5     -2205.343 5        35.027               
E27  30229556.664 6 158857167.080 6     -2980.870 6        39.323               
> 2025 01 08 19 45 03.0000000  0  4                                             
E13  28122501.766 6 147784487.087 6       341.549 6        41.038               
E15  29375985.208 6 154257523.524 6      2125.590 6        40.697               
E26  31427150.966 5 165269157.513 5     -2209.075 5        34.906               
E27  30230125.614 6 158860148.428 6     -2982.426 6        39.356               
> 2025 01 08 19 45 04.0000000  0  4                                             
E13  28122438.813 6 147784146.309 6       340.192 6        40.662               
E15  29376394.176 6 154255396.669 6      2127.523 6        40.383               
E26  31426734.743 5 165271364.905 5     -2207.982 5        34.776               
E27  30230696.315 6 158863130.093 6     -2979.709 6        39.448               
> 2025 01 08 19 45 05.0000000  0  4                                             
E13  28122373.788 6 147783805.944 6       339.554 6        40.864               
E15  29376797.802 6 154253269.522 6      2127.830 6        40.493               
E26  31426316.376 5 165273572.080 5     -2205.730 5        34.888               
E27  30231266.247 6 158866112.143 6     -2982.161 6        39.356               
> 2025 01 08 19 45 06.0000000  0  4                                             
E13  28122313.159 6 147783465.953 6       340.453 6        40.809               
E15  29377203.983 6 154251142.161 6      2126.971 6        40.404               
E26  31425898.187 5 165275778.966 5     -2206.357 5        35.269               
E27  30231837.359 6 158869094.495 6     -2980.224 6        39.367               
> 2025 01 08 19 45 07.0000000  0  4                                             
E13  28122250.653 6 147783126.153 6       338.473 6        40.670               
E15  29377611.736 6 154249014.719 6      2127.596 6        40.622               
E26  31425480.249 5 165277985.848 5     -2205.279 5        35.318               
E27  30232403.217 6 158872076.995 6     -2980.898 6        39.219               
> 2025 01 08 19 45 08.0000000  0  4                                             
E13  28122185.038 6 147782786.844 6       338.258 6        40.605               
E15  29378018.721 6 154246886.948 6      2128.616 6        40.449               
E26  31425067.188 5 165280192.396 5     -2208.108 5        35.377               
E27  30232977.831 6 158875059.941 6     -2983.666 6        39.003               
> 2025 01 08 19 45 09.0000000  0  4                                             
E13  28122123.282 6 147782447.859 6       337.852 6        40.533               
E15  29378425.277 6 154244758.960 6      2128.423 6        40.432               
E26  31424646.927 5 165282398.735 5     -2205.013 5        35.393               
E27  30233544.440 6 158878043.200 6     -2984.364 6        38.903               
> 2025 01 08 19 45 10.0000000  0  4                                             
E13  28122063.886 6 147782109.097 6       338.417 6        40.725               
E15  29378834.906 6 154242630.914 6      2129.000 6        40.430               
E26  31424228.255 5 165284605.033 5     -2206.813 5        35.397               
E27  30234113.033 6 158881026.539 6     -2982.691 6        38.825               
> 2025 01 08 19 45 11.0000000  0  4                                             
E13  28121998.664 6 147781770.409 6       339.494 6        40.905               
E15  29379238.353 6 154240502.920 6      2127.588 6        40.658               
E26  31423810.817 5 165286811.372 5     -2202.697 5        35.550               
E27  30234684.913 6 158884009.969 6     -2983.402 6        39.120               
> 2025 01 08 19 45 12.0000000  0  4                                             
E13  28121937.319 6 147781432.111 6       337.894 6        41.036               
E15  29379645.177 6 154238374.673 6      2128.831 6        40.215               
E26  31423390.770 5 165289017.498 5     -2206.219 5        35.571               
E27  30235255.256 6 158886993.728 6     -2984.618 6        39.158               
> 2025 01 08 19 45 13.0000000  0  4                                             
E13  28121872.508 6 147781094.125 6       338.968 6        40.885               
E15  29380051.680 6 154236246.232 6      2128.122 6        40.259               
E26  31422972.438 5 165291223.451 5     -2204.784 5        35.357               
E27  30235822.276 6 158889977.728 6     -2983.635 6        39.244               
> 2025 01 08 19 45 14.0000000  0  4                                             
E13  28121812.862 6 147780756.366 6       336.567 6        40.863               
E15  29380459.451 6 154234117.724 6      2129.428 6        40.545               
E26  31422553.249 5 165293429.327 5     -2206.249 5        34.979               
E27  30236393.174 6 158892961.900 6     -2984.346 6        39.397               
> 2025 01 08 19 45 15.0000000  0  4                                             
E13  28121748.855 6 147780418.689 6       336.927 6        40.905               
E15  29380869.134 6 154231989.265 6      2128.511 6        40.557               
E26  31422140.564 5 165295635.228 5     -2205.914 5        34.893               
E27  30236961.176 6 158895946.120 6     -2985.012 6        39.515               
> 2025 01 08 19 45 16.0000000  0  4                                             
E13  28121685.205 6 147780081.360 6       337.033 6        40.820               
E15  29381274.832 6 154229860.589 6      2127.843 6        40.617               
E26  31421719.284 5 165297840.961 5     -2205.136 5        35.094               
E27  30237530.626 6 158898930.620 6     -2985.965 6        39.348               
> 2025 01 08 19 45 17.0000000  0  4                                             
E13  28121624.451 6 147779744.478 6       337.272 6        40.599               
E15  29381682.710 6 154227731.589 6      2128.045 6        40.628               
E26  31421296.324 5 165300046.407 5     -2206.779 5        35.320               
E27  30238101.399 6 158901915.546 6     -2986.362 6        39.193               
> 2025 01 08 19 45 18.0000000  0  4                                             
E13  28121559.675 6 147779407.923 6       335.638 6        40.585               
E15  29382089.320 6 154225602.418 6      2128.912 6        40.564               
E26  31420882.388 5 165302251.692 5     -2206.276 5        35.388               
E27  30238674.047 6 158904900.724 6     -2983.751 6        38.978               
> 2025 01 08 19 45 19.0000000  0  4                                             
E13  28121499.832 6 147779071.470 6       337.463 6        40.920               
E15  29382494.768 6 154223473.262 6      2129.249 6        40.485               
E26  31420464.450 5 165304456.953 5     -2205.090 5        35.345               
E27  30239240.888 6 158907885.963 6     -2985.365 6        38.784               
> 2025 01 08 19 45 20.0000000  0  4                                             
E13  28121439.077 6 147778735.295 6       335.829 6        40.787               
E15  29382900.270 6 154221344.005 6      2128.993 6        40.609               
E26  31420049.531 5 165306662.126 5     -2208.264 5        35.353               
E27  30239809.266 6 158910871.400 6     -2985.597 6        38.774               
> 2025 01 08 19 45 21.0000000  0  4                                             
E13  28121373.266 6 147778399.384 6       336.056 6        40.381               
E15  29383309.417 6 154219214.572 6      2130.889 6        40.955               
E26  31419632.253 5 165308867.161 5     -2207.022 5        35.506               
E27  30240380.467 6 158913857.084 6     -2986.544 6        38.951               
> 2025 01 08 19 45 22.0000000  0  4                                             
E13  28121314.119 6 147778063.858 6       335.555 6        40.160               
E15  29383713.328 6 154217084.902 6      2130.006 6        41.058               
E26  31419214.511 5 165311071.980 5     -2202.661 5        35.794               
E27  30240952.687 6 158916843.110 6     -2985.804 6        38.864               
> 2025 01 08 19 45 23.0000000  0  4                                             
E13  28121251.667 6 147777728.639 6       335.820 6        40.419               
E15  29384124.209 6 154214955.068 6      2130.523 6        41.124               
E26  31418796.001 5 165313276.633 5     -2206.636 5        35.590               
E27  30241522.155 6 158919829.353 6     -2986.064 6        39.009               
> 2025 01 08 19 45 24.0000000  0  4                                             
E13  28121188.214 6 147777393.652 6       334.815 6        40.693               
E15  29384532.337 6 154212825.149 6      2129.221 6        40.873               
E26  31418376.436 5 165315481.192 5     -2204.847 5        35.973               
E27  30242089.925 6 158922815.782 6     -2987.066 6        38.732               
> 2025 01 08 19 45 25.0000000  0  4                                             
E13  28121124.994 6 147777059.087 6       333.884 6        40.742               
E15  29384938.911 6 154210694.936 6      2130.095 6        41.241               
E26  31417956.389 6 165317685.475 6     -2204.720 6        36.107               
E27  30242662.181 6 158925802.614 6     -2987.435 6        38.663               
> 2025 01 08 19 45 26.0000000  0  4                                             
E13  28121066.544 6 147776724.895 6       333.816 6        40.761               
E15  29385347.540 6 154208564.484 6      2130.486 6        41.057               
E26  31417543.668 6 165319889.544 6     -2204.448 6        36.026               
E27  30243231.381 6 158928789.719 6     -2988.357 6        38.580               
> 2025 01 08 19 45 27.0000000  0  4                                             
E13  28121003.073 6 147776390.985 6       332.576 6        40.448               
E15  29385750.915 6 154206433.901 6      2130.720 6        41.038               
E26  31417118.886 6 165322093.507 6     -2206.458 6        36.131               
E27  30243801.152 6 158931777.075 6     -2985.718 6        39.041               
> 2025 01 08 19 45 28.0000000  0  4                                             
E13  28120941.318 6 147776057.599 6       332.392 6        40.430               
E15  29386161.974 6 154204302.895 6      2130.785 6        41.161               
E26  31416709.453 6 165324297.016 6     -2202.796 6        36.232               
E27  30244370.120 6 158934764.900 6     -2986.508 6        38.844               
> 2025 01 08 19 45 29.0000000  0  4                                             
E13  28120881.367 6 147775724.562 6       332.792 6        40.213               
E15  29386568.173 6 154202171.693 6      2131.434 6        41.120               
E26  31416290.746 6 165326500.361 6     -2202.805 6        36.272               
E27  30244940.678 6 158937753.057 6     -2987.127 6        38.715               
> 2025 01 08 19 45 30.0000000  0  4                                             
E13  28120816.556 6 147775391.806 6       332.164 6        40.411               
E15  29386972.924 6 154200040.329 6      2132.022 6        41.278               
E26  31415875.952 6 165328703.560 6     -2203.060 6        36.403               
E27  30245513.183 6 158940741.427 6     -2989.943 6        38.725               
> 2025 01 08 19 45 31.0000000  0  4                                             
E13  28120755.873 6 147775059.278 6       332.003 6        40.286               
E15  29387380.784 6 154197908.916 6      2131.932 6        41.401               
E26  31415460.194 6 165330906.712 6     -2203.395 6        36.481               
E27  30246077.523 6 158943729.939 6     -2990.908 6        38.894               
> 2025 01 08 19 45 32.0000000  0  4                                             
E13  28120694.064 6 147774727.151 6       330.875 6        40.328               
E15  29387792.237 6 154195777.208 6      2132.026 6        41.332               
E26  31415041.612 6 165333109.585 6     -2203.018 6        36.191               
E27  30246652.995 6 158946718.830 6     -2989.568 6        38.860               
> 2025 01 08 19 45 33.0000000  0  4                                             
E13  28120633.310 6 147774395.425 6       332.420 6        40.007               
E15  29388199.704 6 154193645.229 6      2132.272 6        41.057               
E26  31414617.080 6 165335312.202 6     -2201.731 6        36.464               
E27  30247221.498 6 158949708.052 6     -2989.263 6        38.821               
> 2025 01 08 19 45 34.0000000  0  4                                             
E13  28120572.251 6 147774063.879 6       331.351 6        40.062               
E15  29388606.707 6 154191513.224 6      2132.014 6        41.392               
E26  31414200.017 6 165337514.797 6     -2201.349 6        36.209               
E27  30247794.790 6 158952697.445 6     -2990.825 6        38.490               
> 2025 01 08 19 45 35.0000000  0  4                                             
E13  28120511.979 6 147773732.695 6       331.508 6        39.880               
E15  29389010.332 6 154189380.993 6      2133.848 6        41.220               
E26  31413789.655 6 165339717.179 6     -2199.551 6        36.217               
E27  30248362.310 6 158955687.090 6     -2987.046 6        38.463               
> 2025 01 08 19 45 36.0000000  0  5                                             
E13  28120451.492 6 147773401.882 6       331.733 6        39.877               
E15  29389419.372 6 154187248.536 6      2131.791 6        41.239               
E21  28732898.942 6 150992395.016 6      -468.621 6        41.820               
E26  31413371.430 6 165341919.310 6     -2200.839 6        36.217               
E27  30248935.584 6 158958677.056 6     -2986.775 6        38.294               
> 2025 01 08 19 45 37.0000000  0  5                                             
E13  28120389.344 6 147773071.516 6       329.418 6        40.113               
E15  29389827.393 6 154185115.747 6      2133.214 6        41.165               
E21  28732990.485 6 150992865.341 6      -470.037 6        41.853               
E26  31412953.509 6 165344121.178 6     -2200.564 6        36.263               
E27  30249506.856 6 158961667.465 6     -2989.041 6        38.259               
> 2025 01 08 19 45 38.0000000  0  5                                             
E13  28120327.553 6 147772741.382 6       331.547 6        40.177               
E15  29390234.235 6 154182982.847 6      2133.922 6        41.150               
E21  28733079.580 6 150993336.095 6      -471.062 6        41.713               
E26  31412533.945 6 165346322.922 6     -2199.610 6        36.568               
E27  30250076.235 6 158964658.040 6     -2989.233 6        38.300               
> 2025 01 08 19 45 39.0000000  0  5                                             
E13  28120266.208 6 147772411.537 6       328.944 6        40.138               
E15  29390642.113 6 154180849.827 6      2132.831 6        40.847               
E21  28733168.246 6 150993807.273 6      -470.092 6        41.540               
E26  31412120.742 6 165348524.529 6     -2197.373 6        36.524               
E27  30250645.703 6 158967648.817 6     -2988.583 6        38.679               
> 2025 01 08 19 45 40.0000000  0  5                                             
E13  28120204.417 6 147772081.989 6       328.698 6        40.340               
E15  29391049.134 6 154178716.623 6      2132.669 6        41.266               
E21  28733262.702 6 150994278.956 6      -471.680 6        41.609               
E26  31411705.340 6 165350726.001 6     -2203.438 6        36.500               
E27  30251216.046 6 158970639.872 6     -2991.431 6        38.524               
> 2025 01 08 19 45 41.0000000  0  5                                             
E13  28120144.467 6 147771752.868 6       328.128 6        40.083               
E15  29391452.170 6 154176583.149 6      2134.001 6        41.219               
E21  28733353.816 6 150994751.227 6      -470.792 6        41.645               
E26  31411289.760 6 165352927.180 6     -2201.682 6        36.091               
E27  30251793.913 6 158973631.291 6     -2991.661 6        38.302               
> 2025 01 08 19 45 42.0000000  0  5                                             
E13  28120084.713 6 147771423.957 6       329.527 6        39.860               
E15  29391864.605 6 154174449.601 6      2132.785 6        40.922               
E21  28733444.233 6 150995223.890 6      -474.138 6        41.748               
E26  31410864.245 6 165355128.318 6     -2201.628 6        36.085               
E27  30252357.216 6 158976622.874 6     -2993.226 6        38.590               
> 2025 01 08 19 45 43.0000000  0  5                                             
E13  28120022.171 6 147771095.305 6       328.943 6        39.846               
E15  29392273.466 6 154172315.908 6      2133.464 6        40.814               
E21  28733535.973 6 150995696.997 6      -474.391 6        41.856               
E26  31410448.433 6 165357329.291 6     -2197.356 6        36.722               
E27  30252929.829 6 158979614.657 6     -2992.017 6        38.678               
> 2025 01 08 19 45 44.0000000  0  5                                             
E13  28119963.042 6 147770766.934 6       328.036 6        39.768               
E15  29392678.646 6 154170182.090 6      2133.932 6        40.708               
E21  28733629.177 6 150996170.553 6      -475.444 6        41.578               
E26  31410030.781 6 165359530.229 6     -2202.284 6        36.009               
E27  30253500.905 6 158982606.651 6     -2990.707 6        38.749               
> 2025 01 08 19 45 45.0000000  0  5                                             
E13  28119900.447 6 147770438.932 6       327.446 6        39.715               
E15  29393088.186 6 154168048.047 6      2134.643 6        40.680               
E21  28733722.364 6 150996644.636 6      -474.995 6        41.712               
E26  31409614.933 6 165361730.873 6     -2200.042 6        36.027               
E27  30254077.627 6 158985598.980 6     -2993.458 6        38.685               
> 2025 01 08 19 45 46.0000000  0  5                                             
E13  28119840.783 6 147770111.341 6       327.997 6        39.668               
E15  29393497.119 6 154165913.707 6      2133.880 6        40.711               
E21  28733811.424 6 150997119.325 6      -474.847 6        41.804               
E26  31409195.743 6 165363931.248 6     -2199.406 6        36.113               
E27  30254645.398 6 158988591.661 6     -2993.944 6        38.569               
> 2025 01 08 19 45 47.0000000  0  5                                             
E13  28119782.262 6 147769784.398 6       327.084 6        39.903               
E15  29393905.408 6 154163778.862 6      2134.989 6        40.776               
E21  28733903.145 7 150997594.826 7      -473.977 7        42.193               
E26  31408785.185 6 165366131.136 6     -2198.181 6        36.245               
E27  30255214.026 6 158991584.953 6     -2994.861 6        38.541               
> 2025 01 08 19 45 48.0000000  0  5                                             
E13  28119719.416 6 147769457.659 6       326.673 6        39.836               
E15  29394312.625 6 154161643.933 6      2135.002 6        40.682               
E21  28733999.620 6 150998070.742 6      -475.814 6        41.779               
E26  31408363.440 6 165368330.956 6     -2200.223 6        36.096               
E27  30255783.654 6 158994578.399 6     -2991.242 6        38.596               
> 2025 01 08 19 45 49.0000000  0  5                                             
E13  28119661.288 6 147769130.881 6       326.190 6        39.894               
E15  29394720.075 6 154159509.227 6      2133.981 6        40.759               
E21  28734091.806 6 150998546.740 6      -476.206 6        41.689               
E26  31407942.732 5 165370530.987 5     -2197.231 5        35.830               
E27  30256354.659 6 158997571.717 6     -2994.245 6        38.556               
> 2025 01 08 19 45 50.0000000  0  5                                             
E13  28119599.783 6 147768804.021 6       326.268 6        39.913               
E15  29395133.189 6 154157374.690 6      2134.236 6        40.744               
E21  28734184.493 6 150999022.884 6      -476.465 6        41.923               
E26  31407531.923 5 165372731.200 5     -2198.954 5        35.844               
E27  30256931.793 6 159000564.914 6     -2993.261 6        38.435               
> 2025 01 08 19 45 51.0000000  0  5                                             
E13  28119539.243 6 147768477.298 6       326.279 6        39.817               
E15  29395537.332 6 154155240.189 6      2135.330 6        40.949               
E21  28734275.446 7 150999499.304 7      -478.529 7        42.061               
E26  31407113.752 5 165374931.489 5     -2197.791 5        35.617               
E27  30257502.780 6 159003558.214 6     -2992.271 6        38.525               
> 2025 01 08 19 45 52.0000000  0  5                                             
E13  28119477.434 6 147768151.365 6       325.175 6        39.642               
E15  29395948.516 6 154153105.006 6      2136.535 6        41.046               
E21  28734367.079 7 150999976.698 7      -477.644 7        42.158               
E26  31406695.599 5 165377131.082 5     -2197.589 5        35.782               
E27  30258069.228 6 159006552.226 6     -2996.250 6        38.284               
> 2025 01 08 19 45 53.0000000  0  5                                             
E13  28119420.503 6 147767826.038 6       325.595 6        39.840               
E15  29396353.607 6 154150969.373 6      2136.104 6        40.401               
E21  28734460.587 7 151000454.900 7      -478.585 7        42.045               
E26  31406279.733 5 165379330.190 5     -2197.960 5        35.644               
E27  30258638.678 6 159009546.830 6     -2994.424 6        37.999               
> 2025 01 08 19 45 54.0000000  0  5                                             
E13  28119358.784 6 147767500.316 6       324.814 6        39.912               
E15  29396761.289 6 154148834.258 6      2135.533 6        40.418               
E21  28734552.934 6 151000932.848 6      -477.891 6        41.604               
E26  31405859.918 5 165381529.946 5     -2199.304 5        35.517               
E27  30259213.864 6 159012540.941 6     -2993.673 6        38.066               
> 2025 01 08 19 45 55.0000000  0  5                                             
E13  28119300.209 6 147767175.130 6       323.527 6        40.025               
E15  29397170.114 6 154146698.777 6      2134.824 6        40.403               
E21  28734645.853 6 151001411.521 6      -479.056 6        41.661               
E26  31405441.658 5 165383729.244 5     -2197.777 5        35.289               
E27  30259784.868 6 159015535.545 6     -2992.955 6        37.994               
> 2025 01 08 19 45 56.0000000  0  5                                             
E13  28119239.240 6 147766850.238 6       324.450 6        39.823               
E15  29397580.012 6 154144563.105 6      2134.018 6        40.358               
E21  28734739.916 6 151001890.673 6      -479.084 6        41.634               
E26  31405025.506 5 165385928.368 5     -2198.890 5        35.367               
E27  30260359.661 6 159018530.397 6     -2992.906 6        38.187               
> 2025 01 08 19 45 57.0000000  0  5                                             
E13  28119177.270 6 147766525.637 6       325.113 6        39.773               
E15  29397983.584 6 154142427.290 6      2134.586 6        40.426               
E21  28734831.834 6 151002370.282 6      -479.303 6        41.943               
E26  31404607.747 5 165388127.384 5     -2200.863 5        35.601               
E27  30260925.859 6 159021525.496 6     -2995.417 6        38.163               
> 2025 01 08 19 45 58.0000000  0  5                                             
E13  28119118.624 6 147766200.228 6       325.467 6        39.726               
E15  29398394.678 6 154140292.400 6      2135.099 6        40.732               
E21  28734926.236 6 151002849.264 6      -478.544 6        41.962               
E26  31404192.274 5 165390327.323 5     -2197.837 5        35.634               
E27  30261502.975 6 159024519.744 6     -2993.980 6        38.155               
> 2025 01 08 19 45 59.0000000  0  5                                             
E13  28119059.102 6 147765875.702 6       324.736 6        39.651               
E15  29398802.432 6 154138156.779 6      2137.134 6        40.593               
E21  28735015.689 6 151003329.293 6      -479.507 6        41.985               
E26  31403787.987 5 165392526.542 5     -2198.022 5        35.838               
E27  30262074.873 6 159027514.788 6     -2994.855 6        38.300               
> 2025 01 08 19 46 00.0000000  0  5                                             
E13  28119000.813 6 147765551.644 6       323.871 6        39.455               
E15  29399209.381 6 154136020.831 6      2135.565 6        41.006               
E21  28735112.271 6 151003809.984 6      -481.490 6        41.813               
E26  31403366.100 5 165394725.450 5     -2199.280 5        35.868               
E27  30262643.697 6 159030510.284 6     -2996.013 6        38.039               
> 2025 01 08 19 46 01.0000000  0  5                                             
E13  28118940.970 6 147765227.732 6       323.451 6        39.631               
E15  29399617.992 6 154133884.857 6      2136.874 6        40.911               
E21  28735205.708 6 151004291.008 6      -481.935 6        41.815               
E26  31402947.911 5 165396924.363 5     -2201.339 5        35.505               
E27  30263216.114 6 159033505.841 6     -2995.056 6        37.967               
> 2025 01 08 19 46 02.0000000  0  5                                             
E13  28118880.734 6 147764903.628 6       324.681 6        39.855               
E15  29400026.585 6 154131749.236 6      2135.495 6        40.693               
E21  28735298.716 6 151004772.001 6      -481.976 6        41.828               
E26  31402534.565 5 165399123.582 5     -2200.795 5        35.742               
E27  30263790.138 6 159036501.177 6     -2995.654 6        37.944               
> 2025 01 08 19 46 03.0000000  0  5                                             
E13  28118820.086 6 147764579.885 6       324.159 6        39.819               
E15  29400432.783 6 154129613.393 6      2135.305 6        40.358               
E21  28735393.261 7 151005253.509 7      -480.391 7        42.080               
E26  31402115.822 5 165401322.609 5     -2199.285 5        35.742               
E27  30264358.105 6 159039496.806 6     -2996.364 6        37.665               
> 2025 01 08 19 46 04.0000000  0  5                                             
E13  28118759.993 6 147764257.334 6       322.106 6        39.626               
E15  29400846.237 6 154127476.455 6      2137.943 6        40.301               
E21  28735486.198 6 151005736.416 6      -484.723 6        41.999               
E26  31401696.543 5 165403520.591 5     -2201.211 5        35.867               
E27  30264937.437 6 159042493.578 6     -2995.699 6        37.803               
> 2025 01 08 19 46 05.0000000  0  5                                             
E13  28118700.489 6 147763935.909 6       320.677 6        39.605               
E15  29401251.810 6 154125338.573 6      2137.001 6        40.342               
E21  28735582.154 7 151006220.615 7      -485.950 7        42.210               
E26  31401275.692 5 165405717.587 5     -2199.937 5        35.693               
E27  30265499.989 6 159045491.426 6     -2996.341 6        37.572               
> 2025 01 08 19 46 06.0000000  0  5                                             
E13  28118639.109 6 147763614.782 6       320.446 6        39.616               
E15  29401660.492 6 154123200.515 6      2138.043 6        40.402               
E21  28735671.660 7 151006705.271 7      -483.668 7        42.226               
E26  31400862.292 5 165407914.415 5     -2194.645 5        35.890               
E27  30266075.658 6 159048489.506 6     -2998.181 6        37.916               
> 2025 01 08 19 46 07.0000000  0  5                                             
E13  28118582.339 6 147763293.262 6       321.806 6        39.723               
E15  29402068.281 6 154121062.980 6      2137.101 6        40.640               
E21  28735766.527 7 151007189.738 7      -483.905 7        42.211               
E26  31400450.090 5 165410111.790 5     -2196.633 5        35.956               
E27  30266650.576 6 159051487.160 6     -3000.290 6        38.167               
> 2025 01 08 19 46 08.0000000  0  5                                             
E13  28118521.906 6 147762971.838 6       321.800 6        39.696               
E15  29402475.320 6 154118925.490 6      2136.406 6        40.457               
E21  28735860.858 7 151007674.473 7      -485.490 7        42.272               
E26  31400031.794 5 165412309.227 5     -2197.481 5        35.816               
E27  30267222.599 6 159054484.835 6     -2997.849 6        37.842               
> 2025 01 08 19 46 09.0000000  0  5                                             
E13  28118462.616 6 147762651.115 6       320.449 6        39.627               
E15  29402888.309 6 154116787.434 6      2137.796 6        40.267               
E21  28735955.706 6 151008160.077 6      -484.971 6        41.991               
E26  31399615.964 6 165414506.125 6     -2198.723 6        36.051               
E27  30267796.605 6 159057483.165 6     -2998.209 6        37.786               
> 2025 01 08 19 46 10.0000000  0  5                                             
E13  28118404.167 6 147762330.939 6       320.012 6        39.680               
E15  29403296.241 6 154114648.959 6      2138.942 6        40.158               
E21  28736050.823 7 151008646.419 7      -488.652 7        42.197               
E26  31399201.509 5 165416702.605 5     -2195.829 5        35.610               
E27  30268369.200 6 159060482.003 6     -2997.512 6        37.856               
> 2025 01 08 19 46 11.0000000  0  5                                             
E13  28118345.253 6 147762011.063 6       319.586 6        39.849               
E15  29403701.993 6 154112510.340 6      2138.343 6        40.227               
E21  28736145.779 7 151009133.217 7      -487.190 7        42.373               
E26  31398784.214 5 165418898.887 5     -2191.985 5        35.551               
E27  30268943.618 6 159063481.057 6     -2997.593 6        38.186               
> 2025 01 08 19 46 12.0000000  0  5                                             
E13  28118284.480 6 147761691.538 6       319.226 6        39.731               
E15  29404109.549 6 154110371.518 6      2139.182 6        40.679               
E21  28736239.931 7 151009620.532 7      -487.147 7        42.674               
E26  31398367.669 5 165421095.032 5     -2194.847 5        35.686               
E27  30269510.263 6 159066480.410 6     -3000.816 6        38.139               
> 2025 01 08 19 46 13.0000000  0  5                                             
E13  28118226.156 6 147761372.254 6       319.593 6        39.654               
E15  29404520.090 6 154108232.555 6      2137.911 6        40.668               
E21  28736333.154 7 151010108.284 7      -488.552 7        42.993               
E26  31397956.735 6 165423291.053 6     -2193.493 6        36.286               
E27  30270084.126 6 159069479.973 6     -3001.987 6        38.374               
> 2025 01 08 19 46 14.0000000  0  5                                             
E13  28118169.654 6 147761052.977 6       318.485 6        39.488               
E15  29404929.505 6 154106093.733 6      2138.537 6        40.674               
E21  28736432.577 7 151010596.235 7      -487.809 7        43.225               
E26  31397525.377 6 165425487.227 6     -2197.129 6        36.149               
E27  30270657.097 6 159072479.490 6     -2999.801 6        38.121               
> 2025 01 08 19 46 15.0000000  0  5                                             
E13  28118109.989 6 147760733.789 6       317.930 6        39.491               
E15  29405339.010 6 154103954.955 6      2139.687 6        40.996               
E21  28736521.815 7 151011084.427 7      -488.816 7        42.996               
E26  31397115.980 5 165427683.403 5     -2195.439 5        35.644               
E27  30271229.370 6 159075479.035 6     -3001.470 6        38.222               
> 2025 01 08 19 46 16.0000000  0  5                                             
E13  28118051.146 6 147760414.951 6       318.743 6        39.719               
E15  29405747.996 6 154101815.973 6      2138.623 6        40.818               
E21  28736619.290 7 151011573.165 7      -488.603 7        42.769               
E26  31396700.150 6 165429879.418 6     -2194.918 6        36.079               
E27  30271800.106 6 159078478.882 6     -2998.997 6        37.840               
> 2025 01 08 19 46 17.0000000  0  5                                             
E13  28117990.838 6 147760096.520 6       317.951 6        39.829               
E15  29406153.676 6 154099676.740 6      2138.665 6        40.470               
E21  28736715.604 7 151012062.470 7      -490.459 7        42.939               
E26  31396282.336 5 165432075.161 5     -2195.725 5        35.785               
E27  30272374.524 6 159081479.057 6     -3001.321 6        38.072               
> 2025 01 08 19 46 18.0000000  0  5                                             
E13  28117933.443 6 147759778.588 6       317.233 6        39.797               
E15  29406567.040 6 154097537.117 6      2140.420 6        40.661               
E21  28736809.059 7 151012552.474 7      -490.470 7        42.720               
E26  31395867.668 5 165434270.571 5     -2196.207 5        35.742               
E27  30272945.547 6 159084479.694 6     -3001.122 6        38.193               
> 2025 01 08 19 46 19.0000000  0  5                                             
E13  28117874.690 6 147759461.519 6       315.414 6        39.469               
E15  29406974.061 6 154095396.783 6      2141.104 6        40.597               
E21  28736901.514 7 151013043.492 7      -492.772 7        43.005               
E26  31395455.966 5 165436465.292 5     -2198.008 5        35.539               
E27  30273523.860 6 159087481.152 6     -3003.035 6        38.266               
> 2025 01 08 19 46 20.0000000  0  5                                             
E13  28117815.615 6 147759145.072 6       316.908 6        39.542               
E15  29407385.781 6 154093255.962 6      2140.869 6        40.706               
E21  28737002.045 7 151013535.308 7      -492.951 7        43.269               
E26  31395038.903 5 165438659.475 5     -2194.729 5        35.282               
E27  30274096.705 6 159090483.146 6     -3000.945 6        38.385               
> 2025 01 08 19 46 21.0000000  0  5                                             
E13  28117756.826 6 147758828.849 6       315.046 6        39.413               
E15  29407795.929 6 154091115.026 6      2141.968 6        40.900               
E21  28737095.500 7 151014027.553 7      -492.260 7        43.249               
E26  31394625.610 5 165440853.526 5     -2190.714 5        34.975               
E27  30274665.422 6 159093485.351 6     -3002.354 6        38.069               
> 2025 01 08 19 46 22.0000000  0  5                                             
E13  28117698.948 6 147758512.268 6       317.642 6        39.332               
E15  29408203.217 6 154088974.629 6      2139.690 6        40.921               
E21  28737188.455 7 151014519.594 7      -491.163 7        43.115               
E26  31394201.417 5 165443048.195 5     -2192.157 5        34.632               
E27  30275240.447 6 159096487.121 6     -3001.945 6        37.705               
> 2025 01 08 19 46 23.0000000  0  5                                             
E13  28117642.321 6 147758195.842 6       316.619 6        39.459               
E15  29408612.239 6 154086834.179 6      2140.051 6        41.018               
E21  28737287.199 7 151015011.980 7      -492.763 7        42.736               
E26  31393788.446 5 165445242.818 5     -2194.245 5        34.667               
E27  30275814.972 6 159099489.011 6     -3002.427 6        37.844               
> 2025 01 08 19 46 24.0000000  0  5                                             
E13  28117583.871 6 147757880.079 6       314.310 6        39.183               
E15  29409022.030 6 154084693.248 6      2140.606 6        41.046               
E21  28737379.063 7 151015505.186 7      -494.831 7        42.701               
E26  31393376.565 5 165447436.911 5     -2195.216 5        34.823               
E27  30276386.549 6 159102491.472 6     -3001.824 6        38.091               
> 2025 01 08 19 46 25.0000000  0  5                                             
E13  28117525.565 6 147757564.649 6       315.688 6        39.021               
E15  29409430.658 6 154082552.099 6      2141.435 6        41.186               
E21  28737477.611 7 151015998.908 7      -492.426 7        42.828               
E26  31392956.929 5 165449630.820 5     -2193.401 5        34.996               
E27  30276957.786 6 159105494.229 6     -3001.429 6        38.342               
> 2025 01 08 19 46 26.0000000  0  5                                             
E13  28117465.346 6 147757249.549 6       315.491 6        39.165               
E15  29409838.269 6 154080410.746 6      2140.742 6        41.138               
E21  28737573.389 7 151016493.153 7      -494.132 7        42.895               
E26  31392540.188 5 165451824.539 5     -2193.549 5        35.208               
E27  30277533.454 6 159108497.276 6     -3002.941 6        38.226               
> 2025 01 08 19 46 27.0000000  0  5                                             
E13  28117405.038 6 147756935.162 6       314.379 6        39.371               
E15  29410249.971 6 154078268.802 6      2142.763 6        41.103               
E21  28737668.309 7 151016988.278 7      -494.643 7        42.972               
E26  31392131.273 5 165454017.705 5     -2195.824 5        35.100               
E27  30278105.602 6 159111500.990 6     -3003.418 6        38.163               
> 2025 01 08 19 46 28.0000000  0  5                                             
E13  28117348.179 6 147756620.616 6       315.370 6        39.420               
E15  29410659.868 6 154076127.186 6      2142.673 6        41.164               
E21  28737765.535 7 151017483.415 7      -495.670 7        42.708               
E26  31391713.049 5 165456211.159 5     -2193.452 5        35.146               
E27  30278678.572 6 159114504.464 6     -3000.773 6        38.156               
> 2025 01 08 19 46 29.0000000  0  5                                             
E13  28117290.623 6 147756306.121 6       314.443 6        39.225               
E15  29411067.693 6 154073985.657 6      2141.512 6        41.077               
E21  28737859.472 7 151017978.774 7      -495.886 7        42.844               
E26  31391294.270 5 165458404.729 5     -2195.875 5        35.344               
E27  30279254.670 6 159117507.942 6     -3003.433 6        37.976               
> 2025 01 08 19 46 30.0000000  0  5                                             
E13  28117234.854 6 147755992.114 6       314.243 6        39.366               
E15  29411477.555 6 154071843.753 6      2143.440 6        41.090               
E21  28737959.699 7 151018474.831 7      -495.993 7        42.857               
E26  31390869.666 5 165460597.937 5     -2196.651 5        35.120               
E27  30279824.334 6 159120511.868 6     -3003.980 6        37.867               
> 2025 01 08 19 46 31.0000000  0  5                                             
E13  28117176.672 6 147755678.207 6       313.989 6        39.439               
E15  29411888.060 6 154069701.906 6      2142.292 6        40.853               
E21  28738052.440 7 151018971.121 7      -495.834 7        42.730               
E26  31390465.737 5 165462791.203 5     -2194.614 5        35.380               
E27  30280397.161 6 159123515.792 6     -3005.828 6        37.773               
> 2025 01 08 19 46 32.0000000  0  5                                             
E13  28117119.259 6 147755364.378 6       313.794 6        39.574               
E15  29412295.259 6 154067560.124 6      2142.390 6        41.014               
E21  28738151.220 7 151019467.695 7      -497.328 7        42.879               
E26  31390049.300 5 165464984.540 5     -2191.262 5        35.444               
E27  30280970.900 6 159126519.774 6     -3005.803 6        37.725               
> 2025 01 08 19 46 33.0000000  0  5                                             
E13  28117059.291 6 147755050.597 6       313.532 6        39.499               
E15  29412707.480 6 154065418.402 6      2140.812 6        41.151               
E21  28738247.194 7 151019964.494 7      -497.141 7        42.896               
E26  31389628.877 5 165467177.926 5     -2195.022 5        35.419               
E27  30281543.030 6 159129523.756 6     -3001.678 6        38.057               
> 2025 01 08 19 46 34.0000000  0  5                                             
E13  28117001.037 6 147754737.748 6       311.587 6        39.208               
E15  29413114.929 6 154063275.909 6      2143.502 6        41.152               
E21  28738342.043 7 151020462.392 7      -498.451 7        42.759               
E26  31389215.013 5 165469370.552 5     -2190.953 5        35.424               
E27  30282121.433 6 159132528.625 6     -3005.001 6        38.196               
> 2025 01 08 19 46 35.0000000  0  5                                             
E13  28116945.358 6 147754425.166 6       312.323 6        39.377               
E15  29413526.417 6 154061133.274 6      2144.103 6        41.268               
E21  28738438.411 7 151020960.730 7      -498.654 7        42.921               
E26  31388807.009 5 165471563.070 5     -2193.024 5        35.448               
E27  30282691.955 6 159135533.688 6     -3005.320 6        38.125               
> 2025 01 08 19 46 36.0000000  0  5                                             
E13  28116885.085 6 147754113.113 6       312.001 6        39.508               
E15  29413935.368 6 154058990.265 6      2142.709 6        41.425               
E21  28738537.298 7 151021459.788 7      -500.614 7        42.710               
E26  31388387.373 5 165473755.216 5     -2194.733 5        35.405               
E27  30283267.391 6 159138539.244 6     -3005.399 6        38.216               
> 2025 01 08 19 46 37.0000000  0  5                                             
E13  28116826.118 6 147753801.440 6       311.374 6        39.613               
E15  29414345.712 6 154056846.998 6      2143.474 6        41.492               
E21  28738632.039 7 151021959.405 7      -499.418 7        43.083               
E26  31387972.169 5 165475947.116 5     -2188.193 5        35.240               
E27  30283838.449 6 159141545.096 6     -3006.265 6        38.315               
> 2025 01 08 19 46 38.0000000  0  5                                             
E13  28116771.546 6 147753489.981 6       311.008 6        39.399               
E15  29414757.700 6 154054703.657 6      2144.985 6        41.259               
E21  28738729.658 7 151022459.422 7      -500.008 7        42.795               
E26  31387553.140 5 165478138.957 5     -2193.740 5        34.989               
E27  30284417.906 6 159144551.129 6     -3006.973 6        38.044               
> 2025 01 08 19 46 39.0000000  0  5                                             
E13  28116714.776 6 147753178.825 6       311.758 6        39.396               
E15  29415163.523 6 154052560.150 6      2144.328 6        41.309               
E21  28738824.221 7 151022959.880 7      -499.420 7        42.943               
E26  31387142.027 5 165480330.554 5     -2191.777 5        35.195               
E27  30284989.465 6 159147557.403 6     -3006.463 6        38.160               
> 2025 01 08 19 46 40.0000000  0  5                                             
E13  28116656.005 6 147752868.266 6       311.537 6        39.383               
E15  29415575.297 6 154050416.202 6      2144.073 6        41.296               
E21  28738923.394 7 151023461.127 7      -500.525 7        42.873               
E26  31386725.483 5 165482521.799 5     -2190.337 5        35.413               
E27  30285565.026 6 159150564.216 6     -3006.822 6        38.316               
> 2025 01 08 19 46 41.0000000  0  5                                             
E13  28116598.162 6 147752557.670 6       310.889 6        39.130               
E15  29415984.426 6 154048272.377 6      2144.203 6        41.419               
E21  28739018.653 7 151023962.548 7      -501.487 7        42.908               
E26  31386311.154 5 165484713.175 5     -2190.532 5        34.873               
E27  30286139.586 6 159153570.958 6     -3008.141 6        38.435               
> 2025 01 08 19 46 42.0000000  0  5                                             
E13  28116541.625 6 147752247.221 6       309.599 6        39.237               
E15  29416392.841 6 154046128.597 6      2144.230 6        41.267               
E21  28739116.147 7 151024464.256 7      -501.197 7        42.530               
E26  31385893.590 5 165486904.620 5     -2193.546 5        34.943               
E27  30286707.017 6 159156577.765 6     -3005.852 6        38.200               
> 2025 01 08 19 46 43.0000000  0  5                                             
E13  28116485.838 6 147751937.273 6       309.720 6        39.330               
E15  29416802.774 6 154043984.449 6      2143.548 6        41.121               
E21  28739213.747 7 151024966.652 7      -503.422 7        42.395               
E26  31385484.515 5 165489095.622 5     -2193.576 5        34.877               
E27  30287286.956 6 159159585.011 6     -3007.080 6        38.458               
> 2025 01 08 19 46 44.0000000  0  5                                             
E13  28116428.085 6 147751627.773 6       308.819 6        39.373               
E15  29417213.636 6 154041839.973 6      2143.678 6        41.211               
E21  28739313.314 7 151025469.682 7      -503.373 7        42.534               
E26  31385059.089 5 165491286.349 5     -2191.111 5        35.103               
E27  30287855.710 6 159162592.691 6     -3008.538 6        37.962               
> 2025 01 08 19 46 45.0000000  0  5                                             
E13  28116370.190 6 147751318.439 6       309.261 6        39.412               
E15  29417624.588 6 154039695.455 6      2144.744 6        40.754               
E21  28739409.288 7 151025973.043 7      -504.533 7        42.442               
E26  31384650.424 5 165493477.050 5     -2188.987 5        35.142               
E27  30288433.183 6 159165600.467 6     -3006.941 6        38.011               
> 2025 01 08 19 46 46.0000000  0  5                                             
E13  28116313.295 6 147751009.382 6       307.343 6        39.305               
E15  29418035.647 6 154037550.834 6      2145.003 6        40.976               
E21  28739508.193 7 151026476.851 7      -504.181 7        42.523               
E26  31384233.058 5 165495667.628 5     -2185.680 5        35.016               
E27  30289005.045 6 159168608.448 6     -3008.826 6        37.960               
> 2025 01 08 19 46 47.0000000  0  5                                             
E13  28116256.900 6 147750700.625 6       308.893 6        39.074               
E15  29418443.811 6 154035406.022 6      2145.689 6        41.122               
E21  28739603.078 7 151026981.152 7      -503.646 7        42.381               
E26  31383820.033 5 165497858.043 5     -2190.502 5        35.323               
E27  30289581.518 6 159171616.703 6     -3007.879 6        38.171               
> 2025 01 08 19 46 48.0000000  0  5                                             
E13  28116199.237 6 147750392.448 6       307.765 6        39.169               
E15  29418854.978 6 154033260.775 6      2146.021 6        41.325               
E21  28739702.876 7 151027486.224 7      -506.781 7        42.574               
E26  31383407.759 5 165500048.028 5     -2189.834 5        35.471               
E27  30290156.632 6 159174625.461 6     -3008.509 6        38.191               
> 2025 01 08 19 46 49.0000000  0  5                                             
E13  28116140.894 6 147750084.320 6       308.727 6        39.471               
E15  29419263.857 6 154031115.614 6      2144.301 6        41.310               
E21  28739798.529 7 151027991.506 7      -504.715 7        42.453               
E26  31382989.159 5 165502238.107 5     -2190.756 5        35.886               
E27  30290730.174 6 159177634.201 6     -3008.651 6        37.962               
> 2025 01 08 19 46 50.0000000  0  5                                             
E13  28116086.269 6 147749776.267 6       307.149 6        39.497               
E15  29419673.415 6 154028970.518 6      2146.316 6        41.250               
E21  28739902.473 7 151028497.054 7      -505.750 7        42.384               
E26  31382575.777 5 165504428.251 5     -2189.315 5        35.866               
E27  30291309.256 6 159180642.971 6     -3008.749 6        38.189               
> 2025 01 08 19 46 51.0000000  0  5                                             
E13  28116030.589 6 147749469.441 6       307.720 6        39.577               
E15  29420085.742 6 154026824.351 6      2144.598 6        41.135               
E21  28739996.375 7 151029003.966 7      -507.083 7        42.476               
E26  31382166.809 5 165506617.342 5     -2192.497 5        35.796               
E27  30291879.152 6 159183652.894 6     -3011.358 6        38.454               
> 2025 01 08 19 46 52.0000000  0  5                                             
E13  28115973.604 6 147749162.130 6       307.480 6        39.626               
E15  29420496.230 6 154024678.797 6      2145.872 6        41.245               
E21  28740096.406 7 151029510.616 7      -508.659 7        42.975               
E26  31381750.211 5 165508807.039 5     -2191.697 5        35.743               
E27  30292451.872 6 159186662.330 6     -3009.892 6        38.622               
> 2025 01 08 19 46 53.0000000  0  5                                             
E13  28115917.192 6 147748854.942 6       306.339 6        39.333               
E15  29420902.535 6 154022533.258 6      2146.756 6        41.344               
E21  28740191.308 7 151030017.518 7      -506.809 7        42.767               
E26  31381336.132 5 165510996.727 5     -2189.524 5        35.834               
E27  30293026.558 6 159189671.781 6     -3009.653 6        38.762               
> 2025 01 08 19 46 54.0000000  0  5                                             
E13  28115859.207 6 147748548.488 6       304.974 6        39.163               
E15  29421314.470 6 154020387.109 6      2145.959 6        41.075               
E21  28740294.305 7 151030525.393 7      -509.755 7        42.606               
E26  31380916.424 5 165513185.859 5     -2187.109 5        35.880               
E27  30293603.352 6 159192681.954 6     -3010.951 6        38.394               
> 2025 01 08 19 46 55.0000000  0  5                                             
E13  28115802.669 6 147748242.567 6       305.748 6        39.062               
E15  29421726.923 6 154018240.570 6      2146.099 6        40.986               
E21  28740390.333 7 151031033.916 7      -507.434 7        42.609               
E26  31380503.846 5 165515374.576 5     -2188.165 5        35.644               
E27  30294179.289 6 159195692.563 6     -3009.957 6        38.241               
> 2025 01 08 19 46 56.0000000  0  5                                             
E13  28115748.437 6 147747936.534 6       306.230 6        39.134               
E15  29422135.695 6 154016094.292 6      2145.638 6        41.129               
E21  28740489.381 7 151031542.543 7      -508.967 7        42.545               
E26  31380086.158 5 165517563.594 5     -2190.419 5        35.621               
E27  30294754.493 6 159198703.030 6     -3012.325 6        38.311               
> 2025 01 08 19 46 57.0000000  0  5                                             
E13  28115693.275 6 147747630.916 6       305.004 6        39.305               
E15  29422545.324 6 154013947.738 6      2148.206 6        41.629               
E21  28740590.466 7 151032051.760 7      -508.911 7        42.798               
E26  31379669.166 5 165519752.338 5     -2188.359 5        35.912               
E27  30295330.000 6 159201713.837 6     -3010.016 6        38.750               
> 2025 01 08 19 46 58.0000000  0  5                                             
E13  28115636.023 6 147747325.743 6       305.332 6        39.082               
E15  29422956.383 6 154011800.864 6      2147.183 6        41.366               
E21  28740686.298 7 151032561.573 7      -509.831 7        42.635               
E26  31379260.216 6 165521940.763 6     -2185.910 6        36.206               
E27  30295899.021 6 159204725.045 6     -3010.482 6        38.619               
> 2025 01 08 19 46 59.0000000  0  5                                             
E13  28115578.574 6 147747020.776 6       305.353 6        39.066               
E15  29423367.710 6 154009653.911 6      2146.348 6        41.749               
E21  28740784.220 7 151033071.809 7      -510.618 7        42.447               
E26  31378851.373 6 165524129.094 6     -2190.161 6        36.323               
E27  30296481.087 6 159207736.435 6     -3011.066 6        38.550               
> 2025 01 08 19 47 00.0000000  0  5                                             
E13  28115523.930 6 147746715.723 6       305.404 6        39.264               
E15  29423775.713 6 154007507.211 6      2146.517 6        41.567               
E21  28740887.217 7 151033582.118 7      -510.358 7        42.328               
E26  31378432.469 6 165526317.690 6     -2185.787 6        36.273               
E27  30297050.894 6 159210747.642 6     -3010.051 6        38.562               
> 2025 01 08 19 47 01.0000000  0  5                                             
E13  28115465.392 6 147746410.735 6       304.696 6        39.196               
E15  29424190.882 6 154005360.550 6      2148.172 6        41.234               
E21  28740984.532 7 151034092.653 7      -509.410 7        42.012               
E26  31378017.086 6 165528506.380 6     -2189.055 6        36.271               
E27  30297626.992 6 159213758.866 6     -3011.099 6        38.507               
> 2025 01 08 19 47 02.0000000  0  5                                             
E13  28115409.944 6 147746106.939 6       303.413 6        39.153               
E15  29424600.601 6 154003212.883 6      2147.435 6        41.385               
E21  28741083.062 7 151034604.568 7      -511.219 7        42.670               
E26  31377605.383 6 165530693.994 6     -2188.577 6        36.276               
E27  30298204.447 6 159216771.239 6     -3012.245 6        38.612               
> 2025 01 08 19 47 03.0000000  0  5                                             
E13  28115352.477 6 147745802.451 6       304.456 6        39.302               
E15  29425009.784 6 154001066.012 6      2146.336 6        41.331               
E21  28741183.343 7 151035115.968 7      -510.859 7        42.152               
E26  31377187.409 6 165532882.458 6     -2192.072 6        36.435               
E27  30298778.400 6 159219782.857 6     -3012.179 6        38.713               
> 2025 01 08 19 47 04.0000000  0  5                                             
E13  28115298.459 6 147745499.258 6       301.471 6        39.337               
E15  29425419.396 6 153998917.988 6      2148.963 6        41.474               
E21  28741282.337 7 151035628.846 7      -514.451 7        42.395               
E26  31376770.686 6 165535069.773 6     -2187.317 6        36.477               
E27  30299350.423 6 159222795.706 6     -3014.433 6        38.733               
> 2025 01 08 19 47 05.0000000  0  5                                             
E13  28115241.010 6 147745195.216 6       304.644 6        39.188               
E15  29425832.509 6 153996770.953 6      2146.323 6        41.474               
E21  28741380.670 7 151036141.061 7      -511.408 7        42.477               
E26  31376363.111 6 165537258.060 6     -2189.417 6        36.325               
E27  30299927.914 6 159225807.665 6     -3010.478 6        38.546               
> 2025 01 08 19 47 06.0000000  0  5                                             
E13  28115185.223 6 147744889.801 6       303.587 6        39.158               
E15  29426240.888 6 153994625.427 6      2146.703 6        41.325               
E21  28741480.558 7 151036652.065 7      -513.880 7        42.095               
E26  31375945.566 6 165539447.893 6     -2188.848 6        36.224               
E27  30300503.297 6 159228818.193 6     -3009.713 6        38.372               
> 2025 01 08 19 47 07.0000000  0  5                                             
E13  28115128.346 6 147744586.296 6       302.401 6        39.309               
E15  29426648.070 6 153992478.140 6      2148.298 6        41.091               
E21  28741579.088 7 151037165.174 7      -512.525 7        42.373               
E26  31375528.038 6 165541635.923 6     -2187.497 6        36.429               
E27  30301079.519 6 159231830.567 6     -3013.542 6        38.371               
> 2025 01 08 19 47 08.0000000  0  5                                             
E13  28115072.094 6 147744283.874 6       302.713 6        39.102               
E15  29427061.505 6 153990329.881 6      2147.371 6        40.914               
E21  28741680.352 7 151037679.534 7      -514.833 7        42.369               
E26  31375111.297 6 165543823.061 6     -2186.546 6        36.030               
E27  30301653.758 6 159234843.981 6     -3011.767 6        38.421               
> 2025 01 08 19 47 09.0000000  0  5                                             
E13  28115015.485 6 147743981.190 6       302.146 6        39.074               
E15  29427471.063 6 153988182.052 6      2147.140 6        40.972               
E21  28741779.435 7 151038193.822 7      -514.521 7        42.712               
E26  31374705.545 5 165546010.559 5     -2188.747 5        35.877               
E27  30302226.925 6 159237857.080 6     -3014.510 6        38.284               
> 2025 01 08 19 47 10.0000000  0  5                                             
E13  28114959.269 6 147743679.082 6       302.152 6        39.152               
E15  29427883.713 6 153986033.793 6      2149.083 6        41.180               
E21  28741877.107 7 151038708.836 7      -516.698 7        42.694               
E26  31374289.965 5 165548197.657 5     -2187.849 5        35.844               
E27  30302805.935 6 159240870.690 6     -3014.954 6        38.321               
> 2025 01 08 19 47 11.0000000  0  5                                             
E13  28114906.484 6 147743377.913 6       300.211 6        39.296               
E15  29428293.735 6 153983884.698 6      2148.392 6        41.212               
E21  28741980.730 7 151039224.993 7      -516.514 7        42.391               
E26  31373872.473 5 165550383.928 5     -2188.167 5        35.818               
E27  30303380.424 6 159243885.183 6     -3013.811 6        38.682               
> 2025 01 08 19 47 12.0000000  0  5                                             
E13  28114851.394 6 147743076.582 6       300.841 6        39.326               
E15  29428705.294 6 153981735.930 6      2148.961 6        41.092               
E21  28742077.276 7 151039741.155 7      -518.580 7        42.105               
E26  31373454.892 5 165552570.525 5     -2183.170 5        35.616               
E27  30303954.073 6 159246899.443 6     -3014.573 6        38.919               
> 2025 01 08 19 47 13.0000000  0  5                                             
E13  28114794.856 6 147742775.696 6       300.693 6        39.466               
E15  29429115.299 6 153979586.837 6      2149.883 6        40.845               
E21  28742176.771 7 151040257.937 7      -517.420 7        42.021               
E26  31373043.618 6 165554756.858 6     -2187.421 6        36.098               
E27  30304530.957 6 159249914.105 6     -3013.216 6        38.991               
> 2025 01 08 19 47 14.0000000  0  5                                             
E13  28114737.944 6 147742475.363 6       299.882 6        39.234               
E15  29429525.411 6 153977437.340 6      2149.697 6        41.110               
E21  28742278.732 6 151040775.459 6      -518.547 6        41.998               
E26  31372630.755 6 165556942.744 6     -2186.561 6        36.189               
E27  30305112.057 6 159252929.274 6     -3015.258 6        39.173               
> 2025 01 08 19 47 15.0000000  0  5                                             
E13  28114681.692 6 147742175.401 6       300.176 6        39.283               
E15  29429933.915 6 153975287.619 6      2149.696 6        41.043               
E21  28742378.083 7 151041293.519 7      -518.672 7        42.222               
E26  31372217.784 6 165559128.372 6     -2185.647 6        36.036               
E27  30305685.778 6 159255944.750 6     -3016.626 6        38.794               
> 2025 01 08 19 47 16.0000000  0  5                                             
E13  28114626.173 6 147741875.678 6       300.680 6        39.009               
E15  29430343.777 6 153973137.758 6      2150.294 6        41.083               
E21  28742480.509 7 151041812.016 7      -518.840 7        42.300               
E26  31371801.310 5 165561313.942 5     -2183.679 5        35.941               
E27  30306258.927 6 159258960.417 6     -3015.854 6        38.838               
> 2025 01 08 19 47 17.0000000  0  5                                             
E13  28114572.441 6 147741576.017 6       298.749 6        38.880               
E15  29430754.907 6 153970988.027 6      2148.673 6        41.157               
E21  28742578.163 7 151042330.726 7      -519.208 7        42.262               
E26  31371389.876 6 165563499.587 6     -2185.310 6        36.121               
E27  30306834.345 6 159261976.073 6     -3014.915 6        38.744               
> 2025 01 08 19 47 18.0000000  0  5                                             
E13  28114516.654 6 147741276.087 6       299.821 6        38.999               
E15  29431167.539 6 153968838.659 6      2151.035 6        41.121               
E21  28742677.372 7 151042849.356 7      -519.659 7        42.212               
E26  31370968.810 5 165565685.647 5     -2186.334 5        35.889               
E27  30307410.800 6 159264991.415 6     -3016.411 6        38.909               
> 2025 01 08 19 47 19.0000000  0  5                                             
E13  28114461.831 6 147740976.764 6       298.879 6        38.991               
E15  29431574.791 6 153966688.854 6      2149.801 6        40.998               
E21  28742779.279 7 151043368.784 7      -518.558 7        42.364               
E26  31370556.769 6 165567871.243 6     -2185.462 6        36.118               
E27  30307982.501 6 159268007.315 6     -3017.229 6        38.872               
> 2025 01 08 19 47 20.0000000  0  5                                             
E13  28114406.884 6 147740677.453 6       299.976 6        39.264               
E15  29431991.497 6 153964539.158 6      2150.715 6        41.006               
E21  28742882.061 7 151043888.382 7      -517.724 7        42.208               
E26  31370148.497 5 165570056.958 5     -2186.981 5        35.886               
E27  30308560.296 6 159271023.150 6     -3015.624 6        39.032               
> 2025 01 08 19 47 21.0000000  0  5                                             
E13  28114350.740 6 147740377.948 6       299.400 6        39.186               
E15  29432402.395 6 153962389.792 6      2148.091 6        41.098               
E21  28742978.590 6 151044407.974 6      -520.010 6        41.930               
E26  31369726.127 6 165572243.039 6     -2186.584 6        36.063               
E27  30309134.303 6 159274038.736 6     -3013.942 6        39.213               
> 2025 01 08 19 47 22.0000000  0  5                                             
E13  28114297.258 6 147740078.754 6       299.143 6        39.064               
E15  29432811.167 6 153960240.264 6      2150.151 6        40.803               
E21  28743080.640 7 151044928.051 7      -520.364 7        42.027               
E26  31369315.104 5 165574428.931 5     -2186.153 5        35.705               
E27  30309707.613 6 159277054.586 6     -3016.724 6        39.217               
> 2025 01 08 19 47 23.0000000  0  5                                             
E13  28114242.132 6 147739780.310 6       297.949 6        38.922               
E15  29433223.137 6 153958090.116 6      2150.187 6        40.847               
E21  28743181.207 6 151045449.068 6      -520.210 6        41.668               
E26  31368902.544 5 165576614.191 5     -2184.555 5        35.829               
E27  30310285.193 6 159280071.142 6     -3015.774 6        39.265               
> 2025 01 08 19 47 24.0000000  0  5                                             
E13  28114187.042 6 147739482.855 6       296.166 6        39.155               
E15  29433632.642 6 153955939.144 6      2151.178 6        40.964               
E21  28743282.560 6 151045971.231 6      -522.913 6        41.760               
E26  31368491.217 5 165578798.665 5     -2184.512 5        35.825               
E27  30310865.936 6 159283088.613 6     -3017.867 6        39.379               
> 2025 01 08 19 47 25.0000000  0  5                                             
E13  28114132.809 6 147739185.649 6       298.955 6        38.914               
E15  29434046.113 6 153953788.010 6      2151.824 6        40.943               
E21  28743384.181 6 151046493.855 6      -521.748 6        41.646               
E26  31368075.619 5 165580982.989 5     -2184.478 5        35.842               
E27  30311435.994 6 159286106.285 6     -3017.547 6        39.243               
> 2025 01 08 19 47 26.0000000  0  5                                             
E13  28114075.878 6 147738887.455 6       298.824 6        38.935               
E15  29434461.479 6 153951638.039 6      2150.201 6        41.102               
E21  28743485.909 6 151047015.633 6      -524.309 6        41.781               
E26  31367658.949 5 165583168.465 5     -2183.616 5        35.742               
E27  30312013.128 6 159289122.906 6     -3016.569 6        39.061               
> 2025 01 08 19 47 27.0000000  0  5                                             
E13  28114021.092 6 147738590.213 6       296.123 6        38.977               
E15  29434865.694 6 153949487.265 6      2151.576 6        41.005               
E21  28743585.458 6 151047538.545 6      -523.975 6        41.481               
E26  31367245.764 5 165585353.126 5     -2182.431 5        35.648               
E27  30312590.958 6 159292140.420 6     -3017.631 6        38.987               
> 2025 01 08 19 47 28.0000000  0  5                                             
E13  28113967.020 6 147738293.303 6       296.373 6        38.907               
E15  29435277.950 6 153947336.279 6      2152.256 6        40.852               
E21  28743687.168 6 151048061.981 6      -524.069 6        41.348               
E26  31366832.972 5 165587537.628 5     -2185.742 5        35.700               
E27  30313165.322 6 159295158.232 6     -3018.276 6        39.246               
> 2025 01 08 19 47 29.0000000  0  5                                             
E13  28113914.914 6 147737996.401 6       297.031 6        38.827               
E15  29435693.583 6 153945185.421 6      2151.784 6        40.920               
E21  28743790.969 6 151048585.603 6      -522.708 6        41.535               
E26  31366418.553 5 165589722.233 5     -2185.649 5        35.872               
E27  30313738.310 6 159298175.976 6     -3018.865 6        39.000               
> 2025 01 08 19 47 30.0000000  0  5                                             
E13  28113857.126 6 147737700.353 6       295.983 6        38.769               
E15  29436101.926 6 153943033.846 6      2151.669 6        40.708               
E21  28743890.553 6 151049110.273 6      -525.819 6        41.847               
E26  31366003.652 6 165591906.102 6     -2182.785 6        36.228               
E27  30314318.607 6 159301194.539 6     -3019.466 6        39.062               
> 2025 01 08 19 47 31.0000000  0  5                                             
E13  28113803.376 6 147737405.019 6       294.266 6        38.745               
E15  29436512.682 6 153940881.703 6      2153.007 6        40.665               
E21  28743993.783 6 151049635.808 6      -526.622 6        41.839               
E26  31365589.288 6 165594089.440 6     -2182.603 6        36.031               
E27  30314897.259 6 159304213.733 6     -3018.591 6        39.150               
> 2025 01 08 19 47 32.0000000  0  5                                             
E13  28113749.054 6 147737109.393 6       295.942 6        39.242               
E15  29436917.969 6 153938729.989 6      2152.002 6        40.671               
E21  28744096.797 6 151050161.249 6      -525.594 6        41.899               
E26  31365175.727 6 165596273.207 6     -2181.723 6        36.097               
E27  30315471.445 6 159307232.583 6     -3018.914 6        39.235               
> 2025 01 08 19 47 33.0000000  0  5                                             
E13  28113696.090 6 147736813.989 6       295.311 6        39.322               
E15  29437336.640 6 153936578.194 6      2151.303 6        40.480               
E21  28744197.650 7 151050687.068 7      -525.793 7        42.118               
E26  31364761.094 5 165598456.907 5     -2184.502 5        35.841               
E27  30316050.687 6 159310251.611 6     -3018.271 6        39.318               
> 2025 01 08 19 47 34.0000000  0  5                                             
E13  28113640.714 6 147736519.002 6       294.142 6        39.276               
E15  29437748.521 6 153934426.125 6      2152.067 6        40.415               
E21  28744297.681 7 151051213.486 7      -526.132 7        42.001               
E26  31364354.199 5 165600640.319 5     -2183.206 5        35.439               
E27  30316626.945 6 159313270.980 6     -3019.988 6        39.182               
> 2025 01 08 19 47 35.0000000  0  5                                             
E13  28113586.464 6 147736224.654 6       293.009 6        39.260               
E15  29438157.793 6 153932273.540 6      2152.376 6        40.418               
E21  28744401.857 7 151051740.743 7      -528.316 7        42.003               
E26  31363935.241 5 165602823.234 5     -2185.339 5        35.273               
E27  30317201.363 6 159316290.932 6     -3020.178 6        39.171               
> 2025 01 08 19 47 36.0000000  0  5                                             
E13  28113530.909 6 147735930.443 6       294.863 6        39.411               
E15  29438568.566 6 153930120.969 6      2152.906 6        40.542               
E21  28744502.674 7 151052268.301 7      -527.702 7        42.015               
E26  31363523.182 5 165605006.128 5     -2183.652 5        35.702               
E27  30317772.975 6 159319310.975 6     -3020.794 6        39.267               
> 2025 01 08 19 47 37.0000000  0  5                                             
E13  28113477.427 6 147735636.277 6       293.509 6        39.477               
E15  29438978.214 6 153927968.485 6      2152.981 6        40.706               
E21  28744605.975 7 151052796.076 7      -529.251 7        42.098               
E26  31363109.871 5 165607189.151 5     -2185.937 5        35.627               
E27  30318351.306 6 159322331.019 6     -3018.891 6        39.208               
> 2025 01 08 19 47 38.0000000  0  5                                             
E13  28113425.500 6 147735343.456 6       292.910 6        39.632               
E15  29439393.061 6 153925814.801 6      2154.983 6        40.620               
E21  28744706.917 7 151053325.377 7      -529.966 7        42.346               
E26  31362701.868 5 165609370.992 5     -2180.481 5        35.679               
E27  30318929.619 6 159325352.323 6     -3022.134 6        39.085               
> 2025 01 08 19 47 39.0000000  0  5                                             
E13  28113371.356 6 147735051.149 6       292.654 6        39.382               
E15  29439804.209 6 153923660.739 6      2154.950 6        40.840               
E21  28744811.255 7 151053855.380 7      -531.522 7        42.278               
E26  31362284.948 5 165611552.429 5     -2183.868 5        35.251               
E27  30319506.145 6 159328374.100 6     -3021.664 6        39.245               
> 2025 01 08 19 47 40.0000000  0  5                                             
E13  28113318.232 6 147734758.593 6       291.260 6        39.313               
E15  29440213.481 6 153921507.077 6      2153.722 6        40.721               
E21  28744915.324 7 151054385.292 7      -531.319 7        42.149               
E26  31361868.778 5 165613734.266 5     -2179.505 5        35.548               
E27  30320081.349 6 159331395.557 6     -3022.275 6        39.391               
> 2025 01 08 19 47 41.0000000  0  5                                             
E13  28113264.946 6 147734465.914 6       292.589 6        39.232               
E15  29440624.040 6 153919353.653 6      2153.267 6        40.496               
E21  28745016.588 7 151054915.287 7      -531.264 7        42.033               
E26  31361458.809 5 165615916.351 5     -2181.518 5        35.507               
E27  30320658.840 6 159334416.837 6     -3020.875 6        39.633               
> 2025 01 08 19 47 42.0000000  0  5                                             
E13  28113210.982 6 147734173.495 6       293.416 6        39.332               
E15  29441037.476 6 153917200.126 6      2153.354 6        40.528               
E21  28745119.567 6 151055445.710 6      -530.126 6        41.824               
E26  31361042.747 5 165618098.359 5     -2183.088 5        35.575               
E27  30321234.187 6 159337438.337 6     -3020.531 6        39.518               
> 2025 01 08 19 47 43.0000000  0  5                                             
E13  28113157.089 6 147733881.384 6       291.144 6        39.346               
E15  29441449.982 6 153915046.421 6      2153.218 6        40.623               
E21  28745223.314 6 151055976.607 6      -532.134 6        41.950               
E26  31360630.723 5 165620280.182 5     -2181.154 5        35.594               
E27  30321813.894 6 159340460.069 6     -3020.877 6        39.258               
> 2025 01 08 19 47 44.0000000  0  5                                             
E13  28113104.197 6 147733589.552 6       291.265 6        39.401               
E15  29441864.722 6 153912892.586 6      2152.645 6        40.604               
E21  28745326.436 6 151056507.981 6      -531.478 6        41.930               
E26  31360208.371 6 165622461.853 6     -2183.406 6        36.013               
E27  30322391.313 6 159343482.050 6     -3023.453 6        39.403               
> 2025 01 08 19 47 45.0000000  0  5                                             
E13  28113050.929 6 147733298.003 6       291.469 6        39.226               
E15  29442273.476 6 153910738.606 6      2154.603 6        40.555               
E21  28745428.236 7 151057039.795 7      -531.958 7        42.206               
E26  31359807.658 5 165624643.414 5     -2181.151 5        35.823               
E27  30322968.876 6 159346504.243 6     -3022.652 6        39.563               
> 2025 01 08 19 47 46.0000000  0  5                                             
E13  28112997.090 6 147733006.651 6       291.669 6        39.097               
E15  29442683.445 6 153908584.565 6      2154.698 6        40.496               
E21  28745531.841 6 151057572.006 6      -532.140 6        41.873               
E26  31359387.093 5 165626824.894 5     -2178.154 5        35.844               
E27  30323545.259 6 159349526.577 6     -3022.685 6        39.574               
> 2025 01 08 19 47 47.0000000  0  5                                             
E13  28112941.642 6 147732715.522 6       290.738 6        39.544               
E15  29443096.130 6 153906430.424 6      2154.804 6        40.620               
E21  28745635.767 7 151058104.619 7      -533.155 7        42.058               
E26  31358969.672 5 165629006.332 5     -2182.482 5        35.701               
E27  30324118.551 6 159352549.084 6     -3022.664 6        39.502               
> 2025 01 08 19 47 48.0000000  0  5                                             
E13  28112888.964 6 147732424.888 6       290.279 6        39.781               
E15  29443504.759 6 153904275.953 6      2154.269 6        40.272               
E21  28745736.513 7 151058637.871 7      -532.482 7        42.215               
E26  31358556.112 5 165631187.391 5     -2180.944 5        35.494               
E27  30324699.062 6 159355571.985 6     -3021.844 6        39.453               
> 2025 01 08 19 47 49.0000000  0  5                                             
E13  28112833.713 6 147732134.656 6       289.826 6        39.512               
E15  29443921.321 6 153902121.211 6      2154.846 6        40.478               
E21  28745839.385 6 151059171.742 6      -534.814 6        41.942               
E26  31358152.021 5 165633368.153 5     -2183.978 5        35.441               
E27  30325274.927 6 159358595.268 6     -3022.865 6        39.592               
> 2025 01 08 19 47 50.0000000  0  5                                             
E13  28112783.430 6 147731844.532 6       290.550 6        39.457               
E15  29444331.773 6 153899966.493 6      2154.683 6        40.510               
E21  28745946.420 7 151059705.887 7      -535.587 7        42.069               
E26  31357737.710 5 165635549.030 5     -2180.660 5        35.207               
E27  30325848.576 6 159361618.598 6     -3024.131 6        39.803               
> 2025 01 08 19 47 51.0000000  0  5                                             
E13  28112727.142 6 147731554.534 6       290.188 6        39.395               
E15  29444747.192 6 153897811.777 6      2155.098 6        40.734               
E21  28746049.274 7 151060240.348 7      -533.942 7        42.183               
E26  31357324.346 5 165637729.841 5     -2179.077 5        35.409               
E27  30326433.125 6 159364642.027 6     -3024.337 6        39.722               
> 2025 01 08 19 47 52.0000000  0  5                                             
E13  28112677.377 6 147731264.995 6       288.891 6        39.482               
E15  29445159.019 6 153895656.768 6      2154.884 6        40.612               
E21  28746151.199 7 151060775.425 7      -535.675 7        42.263               
E26  31356914.270 5 165639910.396 5     -2181.562 5        35.901               
E27  30327005.256 6 159367665.810 6     -3021.729 6        39.574               
> 2025 01 08 19 47 53.0000000  0  5                                             
E13  28112621.233 6 147730975.924 6       289.043 6        39.524               
E15  29445570.311 6 153893501.411 6      2155.802 6        40.561               
E21  28746254.411 6 151061311.155 6      -537.196 6        41.876               
E26  31356501.496 5 165642090.601 5     -2182.169 5        35.660               
E27  30327578.244 6 159370690.006 6     -3024.348 6        39.574               
> 2025 01 08 19 47 54.0000000  0  5                                             
E13  28112564.945 6 147730687.059 6       289.249 6        39.546               
E15  29445978.493 6 153891345.997 6      2154.563 6        40.518               
E21  28746360.124 6 151061847.294 6      -536.922 6        41.612               
E26  31356091.473 5 165644270.704 5     -2174.623 5        35.633               
E27  30328160.828 6 159373714.395 6     -3026.423 6        39.681               
> 2025 01 08 19 47 55.0000000  0  5                                             
E13  28112516.109 6 147730398.652 6       288.957 6        39.824               
E15  29446392.661 6 153889190.261 6      2155.687 6        40.642               
E21  28746459.636 6 151062384.039 6      -538.053 6        41.784               
E26  31355673.445 5 165646450.568 5     -2178.013 5        35.353               
E27  30328738.676 6 159376739.152 6     -3025.798 6        39.286               
> 2025 01 08 19 47 56.0000000  0  5                                             
E13  28112462.449 6 147730110.433 6       287.534 6        39.765               
E15  29446800.378 6 153887034.488 6      2156.090 6        40.581               
E21  28746567.744 6 151062921.140 6      -536.255 6        41.796               
E26  31355257.651 5 165648630.360 5     -2181.631 5        35.164               
E27  30329315.667 6 159379764.027 6     -3025.204 6        39.352               
> 2025 01 08 19 47 57.0000000  0  5                                             
E13  28112410.718 6 147729822.387 6       288.312 6        39.709               
E15  29447214.475 6 153884878.669 6      2154.790 6        40.415               
E21  28746672.045 6 151063458.638 6      -538.070 6        41.903               
E26  31354838.783 5 165650810.115 5     -2180.637 5        35.532               
E27  30329893.587 6 159382789.043 6     -3025.355 6        39.324               
> 2025 01 08 19 47 58.0000000  0  5                                             
E13  28112357.700 6 147729534.555 6       287.989 6        39.612               
E15  29447627.518 6 153882722.769 6      2155.593 6        40.648               
E21  28746776.293 6 151063996.507 6      -537.135 6        41.971               
E26  31354437.999 5 165652989.785 5     -2180.185 5        35.392               
E27  30330474.276 6 159385814.208 6     -3024.577 6        39.495               
> 2025 01 08 19 47 59.0000000  0  5                                             
E13  28112305.148 6 147729247.135 6       288.220 6        39.516               
E15  29448037.004 6 153880566.609 6      2154.993 6        40.609               
E21  28746880.202 6 151064534.952 6      -539.098 6        41.970               
E26  31354017.558 5 165655169.201 5     -2177.872 5        35.095               
E27  30331049.355 6 159388839.724 6     -3024.708 6        39.455               
> 2025 01 08 19 48 00.0000000  0  5                                             
E13  28112253.631 6 147728960.130 6       287.017 6        39.534               
E15  29448452.548 6 153878410.154 6      2156.335 6        40.682               
E21  28746984.646 6 151065074.014 6      -538.720 6        41.980               
E26  31353602.604 5 165657348.368 5     -2178.502 5        35.208               
E27  30331623.862 6 159391865.598 6     -3025.173 6        39.577               
> 2025 01 08 19 48 01.0000000  0  5                                             
E13  28112197.558 6 147728673.473 6       285.970 6        39.566               
E15  29448863.339 6 153876253.514 6      2155.655 6        40.636               
E21  28747090.055 6 151065613.589 6      -540.501 6        41.951               
E26  31353194.082 5 165659527.256 5     -2179.312 5        35.509               
E27  30332201.246 6 159394891.766 6     -3024.550 6        39.929               
> 2025 01 08 19 48 02.0000000  0  5                                             
E13  28112144.023 6 147728387.111 6       285.059 6        39.561               
E15  29449276.954 6 153874096.695 6      2156.837 6        40.745               
E21  28747194.035 6 151066153.640 6      -540.140 6        41.892               
E26  31352781.290 5 165661706.073 5     -2177.956 5        35.294               
E27  30332778.076 6 159397918.151 6     -3025.865 6        39.903               
> 2025 01 08 19 48 03.0000000  0  5                                             
E13  28112090.773 6 147728101.088 6       286.366 6        39.810               
E15  29449689.960 6 153871939.683 6      2156.918 6        40.614               
E21  28747298.730 7 151066694.231 7      -540.261 7        42.190               
E26  31352369.945 5 165663884.644 5     -2180.186 5        35.434               
E27  30333354.906 6 159400944.853 6     -3028.214 6        39.757               
> 2025 01 08 19 48 04.0000000  0  5                                             
E13  28112036.808 6 147727815.413 6       285.023 6        39.861               
E15  29450101.144 6 153869782.480 6      2157.017 6        40.872               
E21  28747400.833 7 151067235.309 7      -539.742 7        42.024               
E26  31351956.295 5 165666063.035 5     -2179.869 5        35.374               
E27  30333934.255 6 159403971.826 6     -3025.147 6        39.892               
> 2025 01 08 19 48 05.0000000  0  5                                             
E13  28111984.399 6 147727530.072 6       285.878 6        39.731               
E15  29450512.757 6 153867625.051 6      2158.358 6        40.998               
E21  28747507.994 7 151067776.944 7      -542.037 7        42.316               
E26  31351540.233 5 165668241.209 5     -2177.404 5        35.401               
E27  30334513.498 6 159406999.083 6     -3027.758 6        39.844               
> 2025 01 08 19 48 06.0000000  0  5                                             
E13  28111934.312 6 147727245.091 6       284.232 6        39.767               
E15  29450927.569 6 153865467.417 6      2157.136 6        40.802               
E21  28747610.955 7 151068319.075 7      -541.363 7        42.386               
E26  31351129.120 5 165670419.189 5     -2178.941 5        35.923               
E27  30335094.973 6 159410026.622 6     -3026.451 6        39.517               
> 2025 01 08 19 48 07.0000000  0  5                                             
E13  28111879.490 6 147726960.400 6       285.113 6        39.535               
E15  29451338.306 6 153863309.641 6      2157.359 6        40.770               
E21  28747715.918 6 151068861.700 6      -541.669 6        41.945               
E26  31350710.985 5 165672597.008 5     -2176.825 5        35.633               
E27  30335669.337 6 159413054.408 6     -3029.152 6        39.019               
> 2025 01 08 19 48 08.0000000  0  5                                             
E13  28111827.759 6 147726675.747 6       283.304 6        39.651               
E15  29451753.493 6 153861151.983 6      2159.589 6        40.935               
E21  28747820.863 7 151069404.523 7      -543.293 7        42.061               
E26  31350303.625 5 165674774.923 5     -2179.054 5        35.491               
E27  30336247.793 6 159416082.169 6     -3027.862 6        39.308               
> 2025 01 08 19 48 09.0000000  0  5                                             
E13  28111775.224 6 147726391.349 6       283.533 6        39.606               
E15  29452165.070 6 153858994.181 6      2156.980 6        40.936               
E21  28747928.113 7 151069947.796 7      -541.887 7        42.046               
E26  31349890.779 5 165676952.756 5     -2180.363 5        35.427               
E27  30336827.518 6 159419110.134 6     -3028.346 6        39.145               
> 2025 01 08 19 48 10.0000000  0  5                                             
E13  28111724.887 6 147726107.298 6       284.901 6        39.480               
E15  29452577.237 6 153856836.179 6      2158.137 6        41.179               
E21  28748030.216 6 151070491.590 6      -544.059 6        41.647               
E26  31349479.184 5 165679130.385 5     -2183.631 5        35.387               
E27  30337403.883 6 159422138.378 6     -3027.652 6        39.074               
> 2025 01 08 19 48 11.0000000  0  5                                             
E13  28111669.761 6 147725823.456 6       283.760 6        39.419               
E15  29452989.064 6 153854678.112 6      2158.907 6        41.585               
E21  28748137.984 6 151071035.775 6      -545.795 6        41.513               
E26  31349066.660 5 165681307.921 5     -2178.300 5        35.638               
E27  30337981.321 6 159425166.769 6     -3028.316 6        39.266               
> 2025 01 08 19 48 12.0000000  0  5                                             
E13  28111618.244 6 147725539.847 6       282.877 6        39.644               
E15  29453401.642 6 153852519.929 6      2157.589 6        41.224               
E21  28748241.392 6 151071580.376 6      -545.302 6        41.672               
E26  31348652.545 5 165683485.338 5     -2175.301 5        35.444               
E27  30338560.277 6 159428195.376 6     -3027.767 6        39.491               
> 2025 01 08 19 48 13.0000000  0  5                                             
E13  28111565.960 6 147725256.441 6       282.507 6        39.677               
E15  29453809.985 6 153850361.701 6      2159.399 6        41.030               
E21  28748347.892 6 151072125.362 6      -544.284 6        41.626               
E26  31348243.773 5 165685662.753 5     -2177.395 5        35.869               
E27  30339138.465 6 159431224.080 6     -3028.917 6        39.502               
> 2025 01 08 19 48 14.0000000  0  5                                             
E13  28111515.015 6 147724973.525 6       282.471 6        39.965               
E15  29454224.868 6 153848203.132 6      2158.538 6        40.903               
E21  28748454.748 6 151072670.996 6      -544.436 6        41.789               
E26  31347830.320 5 165687839.794 5     -2177.940 5        35.716               
E27  30339716.778 6 159434253.231 6     -3029.221 6        39.288               
> 2025 01 08 19 48 15.0000000  0  5                                             
E13  28111462.820 6 147724691.098 6       281.808 6        39.865               
E15  29454638.000 6 153846044.198 6      2159.771 6        41.386               
E21  28748560.140 6 151073217.312 6      -548.294 6        41.549               
E26  31347417.796 5 165690016.476 5     -2178.428 5        35.564               
E27  30340294.573 6 159437282.818 6     -3031.434 6        39.744               
> 2025 01 08 19 48 16.0000000  0  5                                             
E13  28111410.338 6 147724408.841 6       282.421 6        40.031               
E15  29455048.934 6 153843885.244 6      2159.114 6        41.002               
E21  28748667.032 6 151073763.994 6      -547.299 6        41.438               
E26  31347001.483 5 165692193.123 5     -2177.534 5        35.665               
E27  30340876.639 6 159440312.508 6     -3030.670 6        39.441               
> 2025 01 08 19 48 17.0000000  0  5                                             
E13  28111360.287 6 147724126.882 6       281.726 6        39.980               
E15  29455462.673 6 153841726.128 6      2158.650 6        41.268               
E21  28748771.334 6 151074311.126 6      -545.850 6        41.309               
E26  31346590.924 5 165694369.637 5     -2173.883 5        35.646               
E27  30341452.861 6 159443342.435 6     -3028.885 6        39.281               
> 2025 01 08 19 48 18.0000000  0  5                                             
E13  28111309.700 6 147723845.382 6       280.743 6        40.091               
E15  29455878.575 6 153839566.690 6      2158.868 6        41.078               
E21  28748875.260 6 151074858.902 6      -546.678 6        41.377               
E26  31346184.547 5 165696545.844 5     -2175.807 5        35.758               
E27  30342031.353 6 159446372.767 6     -3028.117 6        39.398               
> 2025 01 08 19 48 19.0000000  0  5                                             
E13  28111255.861 6 147723564.237 6       282.235 6        40.184               
E15  29456287.168 6 153837407.036 6      2159.920 6        40.917               
E21  28748983.850 6 151075407.221 6      -550.187 6        41.412               
E26  31345760.944 5 165698721.851 5     -2174.079 5        35.425               
E27  30342607.808 6 159449403.400 6     -3030.341 6        39.269               
> 2025 01 08 19 48 20.0000000  0  5                                             
E13  28111204.094 6 147723283.581 6       280.029 6        40.309               
E15  29456701.086 6 153835247.036 6      2160.580 6        41.018               
E21  28749088.866 6 151075956.198 6      -549.624 6        41.108               
E26  31345353.495 5 165700897.464 5     -2173.143 5        35.670               
E27  30343192.107 6 159452434.474 6     -3032.443 6        39.354               
> 2025 01 08 19 48 21.0000000  0  5                                             
E13  28111152.113 6 147723003.513 6       280.676 6        39.970               
E15  29457114.861 6 153833086.586 6      2159.748 6        40.731               
E21  28749195.348 6 151076505.947 6      -550.038 6        40.977               
E26  31344940.649 6 165703072.684 6     -2176.082 6        36.078               
E27  30343767.328 6 159455466.053 6     -3032.316 6        38.924               
> 2025 01 08 19 48 22.0000000  0  5                                             
E13  28111099.257 6 147722723.513 6       280.364 6        40.214               
E15  29457527.349 6 153830926.204 6      2159.976 6        40.640               
E21  28749299.256 6 151077055.947 6      -548.407 6        40.666               
E26  31344533.539 5 165705247.919 5     -2176.084 5        35.642               
E27  30344350.323 6 159458497.665 6     -3032.379 6        39.013               
> 2025 01 08 19 48 23.0000000  0  5                                             
E13  28111049.491 6 147722443.479 6       280.273 6        40.071               
E15  29457941.536 6 153828765.998 6      2159.788 6        40.475               
E21  28749411.920 6 151077606.094 6      -551.754 6        40.700               
E26  31344119.210 5 165707423.383 5     -2178.708 5        35.730               
E27  30344925.313 6 159461529.174 6     -3033.864 6        39.080               
> 2025 01 08 19 48 24.0000000  0  5                                             
E13  28110999.726 6 147722163.458 6       279.949 6        40.086               
E15  29458353.006 6 153826605.947 6      2159.047 6        40.584               
E21  28749516.258 6 151078156.412 6      -550.547 6        40.682               
E26  31343713.315 5 165709598.968 5     -2175.966 5        35.986               
E27  30345501.017 6 159464560.611 6     -3030.576 6        38.886               
> 2025 01 08 19 48 25.0000000  0  5                                             
E13  28110948.156 6 147721883.711 6       278.851 6        40.261               
E15  29458764.904 6 153824445.716 6      2160.355 6        40.448               
E21  28749620.827 6 151078707.208 6      -551.400 6        40.841               
E26  31343292.392 5 165711774.369 5     -2175.544 5        35.919               
E27  30346080.348 6 159467592.309 6     -3033.659 6        39.112               
> 2025 01 08 19 48 26.0000000  0  5                                             
E13  28110896.318 6 147721604.616 6       279.005 6        40.222               
E15  29459176.982 6 153822285.018 6      2160.814 6        40.641               
E21  28749727.166 6 151079258.821 6      -551.891 6        40.998               
E26  31342885.657 5 165713949.331 5     -2174.230 5        35.678               
E27  30346661.646 6 159470624.539 6     -3032.613 6        39.072               
> 2025 01 08 19 48 27.0000000  0  5                                             
E13  28110844.087 6 147721325.866 6       277.996 6        40.191               
E15  29459592.383 6 153820124.066 6      2161.121 6        40.434               
E21  28749836.703 6 151079810.980 6      -551.405 6        41.108               
E26  31342470.864 5 165716124.004 5     -2173.974 5        35.489               
E27  30347239.762 6 159473657.121 6     -3032.646 6        38.777               
> 2025 01 08 19 48 28.0000000  0  5                                             
E13  28110795.608 6 147721047.290 6       280.204 6        40.050               
E15  29460006.176 6 153817963.114 6      2161.371 6        40.417               
E21  28749943.649 6 151080363.475 6      -552.354 6        41.100               
E26  31342058.715 5 165718298.719 5     -2173.210 5        35.454               
E27  30347816.431 6 159476689.778 6     -3032.936 6        38.740               
> 2025 01 08 19 48 29.0000000  0  5                                             
E13  28110742.216 6 147720768.922 6       279.297 6        39.984               
E15  29460418.915 6 153815802.076 6      2160.098 6        40.518               
E21  28750050.667 6 151080916.365 6      -554.436 6        40.963               
E26  31341645.315 5 165720473.313 5     -2174.272 5        35.614               
E27  30348395.816 6 159479722.625 6     -3032.119 6        38.922               
