     3.02           OBSERVATION DATA    G                   RINEX VERSION / TYPE
G = GPS  R = GLONASS  E = GALILEO  S = GEO  M = MIXED       COMMENT             
GNSS-SDR            jmfriedt            20250108 205239 UTC PGM / RUN BY / DATE 
GPS OBSERVATION DATA FILE GENERATED BY GNSS-SDR             COMMENT             
GNSS-SDR VERSION 0.0.19.git-main-87fcfd237                  COMMENT             
See https://gnss-sdr.org                                    COMMENT             
DEFAULT MARKER NAME                                         MARKER NAME         
jmfriedt            CTTC                                    OBSERVER / AGENCY   
GNSS-SDR            Software Receiver   0.0.19.gi           REC # / TYPE / VERS 
Antenna number      Antenna type                            ANT # / TYPE        
        0.0000        0.0000        0.0000                  APPROX POSITION XYZ 
        0.0000        0.0000        0.0000                  ANTENNA: DELTA H/E/N
G    4 C1C L1C D1C S1C                                      SYS / # / OBS TYPES 
DBHZ                                                        SIGNAL STRENGTH UNIT
  2025    01    08    19    46   12.1200000     GPS         TIME OF FIRST OBS   
                                                            END OF HEADER       
> 2025 01 08 19 46 13.0000000  0  4                                             
G23  26340151.657 6 138418412.555 6     -1675.278 6        41.195               
G16  26477585.850 6 139140606.371 6     -3173.315 6        41.679               
G08  25900483.400 7 136107957.269 7      1915.366 7        42.610               
G10  26005904.488 7 136663900.479 7     -1132.887 7        43.676               
> 2025 01 08 19 46 14.0000000  0  4                                             
G23  26340474.604 6 138420087.794 6     -1673.471 6        40.929               
G16  26478186.142 6 139143779.613 6     -3174.325 6        41.793               
G08  25900117.317 7 136106041.719 7      1913.344 7        42.837               
G10  26005688.970 7 136665029.798 7     -1128.695 7        43.152               
> 2025 01 08 19 46 15.0000000  0  4                                             
G23  26340796.264 6 138421763.413 6     -1671.529 6        41.093               
G16  26478789.222 6 139146953.043 6     -3173.913 6        41.687               
G08  25899755.916 7 136104126.281 7      1913.997 7        42.417               
G10  26005477.115 7 136666158.725 7     -1128.541 7        43.831               
> 2025 01 08 19 46 16.0000000  0  4                                             
G23  26341116.655 6 138423439.712 6     -1676.733 6        40.700               
G16  26479397.787 6 139150126.956 6     -3169.112 6        41.419               
G08  25899395.069 7 136102211.233 7      1912.079 7        42.302               
G10  26005265.581 7 136667287.015 7     -1129.284 7        43.155               
> 2025 01 08 19 46 17.0000000  0  4                                             
G23  26341434.259 6 138425116.696 6     -1675.491 6        40.946               
G16  26479999.187 6 139153301.392 6     -3172.393 6        41.416               
G08  25899033.239 7 136100296.607 7      1913.173 7        43.023               
G10  26005052.368 7 136668414.620 7     -1127.923 7        43.797               
> 2025 01 08 19 46 18.0000000  0  4                                             
G23  26341756.724 6 138426794.534 6     -1679.627 6        40.808               
G16  26480613.453 6 139156476.508 6     -3176.141 6        41.571               
G08  25898668.264 7 136098382.557 7      1914.846 7        42.903               
G10  26004840.745 7 136669541.386 7     -1124.237 7        43.881               
> 2025 01 08 19 46 19.0000000  0  4                                             
G23  26342082.494 6 138428473.504 6     -1678.654 6        40.702               
G16  26481218.248 6 139159652.565 6     -3174.819 6        41.591               
G08  25898306.131 7 136096469.363 7      1911.677 7        42.143               
G10  26004628.872 7 136670667.038 7     -1124.814 7        43.921               
> 2025 01 08 19 46 20.0000000  0  4                                             
G23  26342398.526 6 138430153.388 6     -1681.239 6        41.032               
G16  26481824.508 6 139162829.355 6     -3174.790 6        41.343               
G08  25897941.710 6 136094556.807 6      1909.581 6        41.744               
G10  26004414.033 7 136671791.773 7     -1126.710 7        43.942               
> 2025 01 08 19 46 21.0000000  0  4                                             
G23  26342722.384 6 138431833.881 6     -1683.407 6        41.379               
G16  26482428.427 6 139166006.576 6     -3178.471 6        41.095               
G08  25897577.914 6 136092644.586 6      1913.349 6        41.757               
G10  26004203.339 7 136672915.919 7     -1123.678 7        43.577               
> 2025 01 08 19 46 22.0000000  0  4                                             
G23  26343040.774 6 138433514.244 6     -1680.892 6        41.223               
G16  26483036.331 6 139169183.506 6     -3176.284 6        41.490               
G08  25897222.053 7 136090731.985 7      1912.421 7        42.508               
G10  26003991.037 7 136674040.178 7     -1124.915 7        43.398               
> 2025 01 08 19 46 23.0000000  0  4                                             
G23  26343361.130 6 138435195.096 6     -1684.465 6        41.160               
G16  26483643.431 6 139172360.735 6     -3178.403 6        41.314               
G08  25896856.864 7 136088819.582 7      1907.870 7        42.330               
G10  26003780.290 7 136675163.989 7     -1121.546 7        43.592               
> 2025 01 08 19 46 24.0000000  0  4                                             
G23  26343681.450 6 138436876.908 6     -1682.754 6        40.957               
G16  26484255.517 6 139175538.734 6     -3177.436 6        41.683               
G08  25896493.997 7 136086907.848 7      1909.929 7        42.191               
G10  26003568.649 7 136676286.856 7     -1123.567 7        43.610               
> 2025 01 08 19 46 25.0000000  0  4                                             
G23  26343999.822 6 138438559.371 6     -1681.699 6        40.597               
G16  26484858.578 6 139178717.204 6     -3178.400 6        41.570               
G08  25896133.704 7 136084996.512 7      1910.635 7        42.421               
G10  26003354.775 7 136677409.069 7     -1119.246 7        43.697               
> 2025 01 08 19 46 26.0000000  0  4                                             
G23  26344332.258 6 138440242.487 6     -1682.810 6        41.144               
G16  26485465.214 6 139181896.159 6     -3182.242 6        41.714               
G08  25895777.342 7 136083085.560 7      1907.384 7        42.492               
G10  26003143.778 7 136678530.642 7     -1121.037 7        44.252               
> 2025 01 08 19 46 27.0000000  0  4                                             
G23  26344651.238 6 138441926.626 6     -1683.065 6        41.241               
G16  26486069.205 6 139185075.944 6     -3180.835 6        41.477               
G08  25895409.169 7 136081175.327 7      1914.088 7        42.506               
G10  26002928.259 7 136679651.214 7     -1119.124 7        43.389               
> 2025 01 08 19 46 28.0000000  0  4                                             
G23  26344976.704 6 138443610.892 6     -1686.766 6        41.228               
G16  26486681.862 6 139188255.668 6     -3177.315 6        41.672               
G08  25895047.411 6 136079264.975 6      1913.407 6        41.959               
G10  26002725.893 7 136680771.651 7     -1120.614 7        43.749               
> 2025 01 08 19 46 29.0000000  0  4                                             
G23  26345297.167 6 138445295.521 6     -1686.136 6        41.110               
G16  26487287.265 6 139191435.580 6     -3180.096 6        41.656               
G08  25894685.741 7 136077354.689 7      1907.171 7        42.081               
G10  26002512.447 7 136681891.748 7     -1120.314 7        43.895               
> 2025 01 08 19 46 30.0000000  0  4                                             
G23  26345618.827 6 138446980.953 6     -1685.832 6        40.940               
G16  26487894.508 6 139194616.121 6     -3181.312 6        41.364               
G08  25894322.482 7 136075444.940 7      1910.959 7        42.481               
G10  26002297.000 7 136683011.068 7     -1119.850 7        44.250               
> 2025 01 08 19 46 31.0000000  0  4                                             
G23  26345939.683 6 138448666.773 6     -1688.800 6        40.696               
G16  26488497.498 6 139197796.869 6     -3177.699 6        41.562               
G08  25893971.928 7 136073535.331 7      1910.646 7        42.467               
G10  26002085.395 7 136684129.983 7     -1117.478 7        44.046               
> 2025 01 08 19 46 32.0000000  0  4                                             
G23  26346258.485 6 138450352.976 6     -1687.034 6        40.513               
G16  26489105.080 6 139200977.812 6     -3177.114 6        41.169               
G08  25893606.042 7 136071625.813 7      1908.813 7        42.482               
G10  26001875.006 7 136685248.544 7     -1118.560 7        43.576               
> 2025 01 08 19 46 33.0000000  0  4                                             
G23  26346584.380 6 138452039.578 6     -1688.776 6        40.526               
G16  26489711.501 6 139204158.987 6     -3180.594 6        41.172               
G08  25893242.514 7 136069716.426 7      1908.967 7        42.624               
G10  26001660.810 7 136686366.710 7     -1117.090 7        43.667               
> 2025 01 08 19 46 34.0000000  0  4                                             
G23  26346910.990 6 138453727.380 6     -1688.077 6        40.858               
G16  26490324.641 6 139207341.191 6     -3183.316 6        41.497               
G08  25892883.347 7 136067807.957 7      1908.088 7        42.870               
G10  26001453.440 7 136687483.669 7     -1114.499 7        43.867               
> 2025 01 08 19 46 35.0000000  0  4                                             
G23  26347232.346 6 138455415.772 6     -1690.224 6        40.982               
G16  26490922.485 6 139210523.792 6     -3178.920 6        40.756               
G08  25892519.962 7 136065899.824 7      1908.008 7        42.974               
G10  26001242.246 7 136688600.070 7     -1115.894 7        43.802               
> 2025 01 08 19 46 36.0000000  0  4                                             
G23  26347561.851 6 138457104.992 6     -1688.109 6        40.919               
G16  26491538.931 6 139213707.043 6     -3181.651 6        40.991               
G08  25892156.631 7 136063992.218 7      1908.667 7        42.693               
G10  26001032.624 7 136689715.657 7     -1114.755 7        43.790               
> 2025 01 08 19 46 37.0000000  0  4                                             
G23  26347882.850 6 138458794.908 6     -1689.643 6        41.413               
G16  26492142.010 6 139216890.792 6     -3182.945 6        41.248               
G08  25891798.447 7 136062085.053 7      1904.887 7        43.199               
G10  26000822.681 7 136690830.550 7     -1113.360 7        43.915               
> 2025 01 08 19 46 38.0000000  0  4                                             
G23  26348202.009 6 138460485.331 6     -1691.257 6        41.259               
G16  26492747.019 6 139220074.893 6     -3184.795 6        40.985               
G08  25891434.955 7 136060178.117 7      1908.794 7        42.454               
G10  26000611.773 7 136691944.932 7     -1113.770 7        44.063               
> 2025 01 08 19 46 39.0000000  0  4                                             
G23  26348527.154 6 138462176.372 6     -1692.895 6        41.077               
G16  26493355.084 6 139223259.429 6     -3186.421 6        40.340               
G08  25891073.894 7 136058271.524 7      1906.253 7        42.387               
G10  26000407.316 7 136693058.716 7     -1113.485 7        44.420               
> 2025 01 08 19 46 40.0000000  0  4                                             
G23  26348849.082 6 138463868.305 6     -1691.717 6        41.627               
G16  26493970.297 6 139226444.668 6     -3185.324 6        41.043               
G08  25890715.763 7 136056365.555 7      1908.860 7        42.910               
G10  26000194.621 7 136694171.620 7     -1113.908 7        43.936               
> 2025 01 08 19 46 41.0000000  0  4                                             
G23  26349172.922 6 138465560.549 6     -1693.449 6        41.858               
G16  26494581.293 6 139229630.032 6     -3186.350 6        40.970               
G08  25890353.844 7 136054459.626 7      1904.195 7        42.540               
G10  25999987.644 7 136695284.224 7     -1109.221 7        44.090               
> 2025 01 08 19 46 42.0000000  0  4                                             
G23  26349501.534 6 138467253.188 6     -1689.012 6        41.076               
G16  26495182.764 6 139232815.635 6     -3187.915 6        40.932               
G08  25889988.672 7 136052553.837 7      1906.537 7        42.806               
G10  25999775.127 7 136696396.432 7     -1112.095 7        44.011               
> 2025 01 08 19 46 43.0000000  0  4                                             
G23  26349828.072 6 138468946.666 6     -1693.187 6        41.027               
G16  26495799.853 6 139236001.870 6     -3184.297 6        41.107               
G08  25889635.545 7 136050648.586 7      1904.961 7        42.931               
G10  25999564.219 7 136697507.820 7     -1110.267 7        44.088               
> 2025 01 08 19 46 44.0000000  0  4                                             
G23  26350146.445 6 138470640.902 6     -1692.401 6        41.266               
G16  26496410.723 6 139239188.719 6     -3186.348 6        41.290               
G08  25889274.322 7 136048743.842 7      1903.901 7        42.585               
G10  25999349.702 7 136698618.447 7     -1109.290 7        43.850               
> 2025 01 08 19 46 45.0000000  0  4                                             
G23  26350466.979 6 138472335.602 6     -1695.301 6        41.206               
G16  26497007.245 6 139242375.824 6     -3187.480 6        40.960               
G08  25888909.169 7 136046839.283 7      1904.668 7        42.877               
G10  25999143.940 7 136699728.618 7     -1109.821 7        44.160               
> 2025 01 08 19 46 46.0000000  0  4                                             
G23  26350792.910 6 138474030.879 6     -1699.318 6        41.290               
G16  26497614.220 6 139245563.344 6     -3185.362 6        41.377               
G08  25888553.379 7 136044935.030 7      1903.979 7        42.793               
G10  25998935.426 7 136700838.251 7     -1109.801 7        44.491               
> 2025 01 08 19 46 47.0000000  0  4                                             
G23  26351119.341 6 138475726.765 6     -1694.238 6        41.067               
G16  26498221.516 6 139248751.283 6     -3188.487 6        40.841               
G08  25888189.029 7 136043031.113 7      1900.116 7        42.566               
G10  25998723.428 7 136701947.257 7     -1108.275 7        44.168               
> 2025 01 08 19 46 48.0000000  0  4                                             
G23  26351443.039 6 138477423.534 6     -1698.654 6        41.533               
G16  26498830.743 6 139251939.959 6     -3191.385 6        40.597               
G08  25887832.810 7 136041127.825 7      1902.447 7        43.095               
G10  25998515.647 7 136703055.386 7     -1107.569 7        44.031               
> 2025 01 08 19 46 49.0000000  0  4                                             
G23  26351763.734 6 138479120.699 6     -1700.370 6        41.362               
G16  26499444.722 6 139255128.812 6     -3189.736 6        40.508               
G08  25887475.716 7 136039224.640 7      1901.803 7        42.751               
G10  25998307.419 7 136704163.136 7     -1108.221 7        43.751               
> 2025 01 08 19 46 50.0000000  0  4                                             
G23  26352093.346 6 138480818.193 6     -1699.822 6        40.963               
G16  26500053.663 6 139258317.841 6     -3186.419 6        40.695               
G08  25887106.578 7 136037321.540 7      1899.826 7        42.829               
G10  25998099.799 7 136705270.545 7     -1105.136 7        43.852               
> 2025 01 08 19 46 51.0000000  0  4                                             
G23  26352416.918 6 138482517.223 6     -1694.887 6        41.358               
G16  26500654.420 6 139261508.208 6     -3189.069 6        40.886               
G08  25886744.694 7 136035419.668 7      1900.970 7        42.676               
G10  25997891.214 7 136706376.453 7     -1105.136 7        43.868               
> 2025 01 08 19 46 52.0000000  0  4                                             
G23  26352738.525 6 138484216.106 6     -1702.377 6        40.572               
G16  26501261.823 6 139264698.223 6     -3187.580 6        40.232               
G08  25886387.742 7 136033517.387 7      1904.733 7        42.291               
G10  25997681.753 7 136707482.515 7     -1104.410 7        44.201               
> 2025 01 08 19 46 53.0000000  0  4                                             
G23  26353060.561 6 138485915.399 6     -1699.004 6        40.584               
G16  26501876.143 6 139267888.484 6     -3191.003 6        40.506               
G08  25886032.274 7 136031615.265 7      1903.507 7        42.370               
G10  25997475.652 7 136708588.180 7     -1104.766 7        44.040               
> 2025 01 08 19 46 54.0000000  0  4                                             
G23  26353392.406 6 138487615.760 6     -1702.789 6        40.653               
G16  26502485.119 6 139271079.620 6     -3189.967 6        40.881               
G08  25885672.910 7 136029713.903 7      1901.495 7        42.516               
G10  25997263.797 7 136709692.801 7     -1105.662 7        44.473               
> 2025 01 08 19 46 55.0000000  0  4                                             
G23  26353721.411 6 138489316.934 6     -1704.260 6        40.974               
G16  26503084.839 6 139274271.411 6     -3191.169 6        40.466               
G08  25885308.042 7 136027813.130 7      1899.536 7        42.381               
G10  25997060.483 7 136710796.579 7     -1103.505 7        44.130               
> 2025 01 08 19 46 56.0000000  0  4                                             
G23  26354038.675 6 138491018.288 6     -1700.156 6        41.151               
G16  26503704.483 6 139277463.214 6     -3192.360 6        41.032               
G08  25884951.645 7 136025912.267 7      1902.142 7        42.632               
G10  25996848.985 7 136711900.185 7     -1102.698 7        44.030               
> 2025 01 08 19 46 57.0000000  0  4                                             
G23  26354366.893 6 138492720.375 6     -1700.035 6        41.248               
G16  26504315.747 6 139280655.558 6     -3194.648 6        40.947               
G08  25884586.956 7 136024011.825 7      1900.625 7        42.620               
G10  25996645.690 7 136713003.073 7     -1101.241 7        44.769               
> 2025 01 08 19 46 58.0000000  0  4                                             
G23  26354692.378 6 138494423.228 6     -1703.079 6        41.088               
G16  26504916.753 6 139283848.467 6     -3191.443 6        41.062               
G08  25884228.128 6 136022111.903 6      1898.611 6        41.969               
G10  25996438.820 7 136714105.232 7     -1101.528 7        44.525               
> 2025 01 08 19 46 59.0000000  0  4                                             
G23  26355016.665 6 138496126.562 6     -1702.265 6        41.676               
G16  26505532.341 6 139287041.717 6     -3194.202 6        40.278               
G08  25883874.357 7 136020212.216 7      1898.740 7        42.586               
G10  25996211.169 7 136715206.883 7     -1102.750 7        44.219               
> 2025 01 08 19 47 00.0000000  0  4                                             
G23  26355351.316 6 138497830.144 6     -1703.404 6        41.476               
G16  26506142.300 6 139290235.009 6     -3194.352 6        40.068               
G08  25883505.934 7 136018312.444 7      1902.814 7        42.522               
G10  25996016.789 7 136716308.305 7     -1101.600 7        44.740               
> 2025 01 08 19 47 01.0000000  0  4                                             
G23  26355673.691 6 138499534.098 6     -1701.164 6        41.148               
G16  26506745.594 6 139293428.488 6     -3196.312 6        40.457               
G08  25883142.871 6 136016412.830 6      1900.207 6        41.431               
G10  25995812.386 7 136717409.354 7     -1100.005 7        44.141               
> 2025 01 08 19 47 02.0000000  0  4                                             
G23  26356000.783 6 138501239.509 6     -1705.835 6        41.502               
G16  26507357.144 6 139296623.254 6     -3194.788 6        40.950               
G08  25882794.586 6 136014514.404 6      1899.612 6        41.970               
G10  25995600.673 7 136718508.950 7     -1098.267 7        43.961               
> 2025 01 08 19 47 03.0000000  0  4                                             
G23  26356327.483 6 138502944.574 6     -1702.551 6        41.211               
G16  26507971.338 6 139299817.487 6     -3192.711 6        41.404               
G08  25882441.530 6 136012615.347 6      1899.015 6        41.389               
G10  25995383.743 7 136719608.910 7     -1101.801 7        44.557               
> 2025 01 08 19 47 04.0000000  0  4                                             
G23  26356659.525 6 138504651.230 6     -1708.634 6        41.199               
G16  26508571.737 6 139303013.116 6     -3197.941 6        40.589               
G08  25882072.749 7 136010717.580 7      1896.184 7        42.251               
G10  25995188.435 7 136720707.299 7     -1100.333 7        44.590               
> 2025 01 08 19 47 05.0000000  0  4                                             
G23  26356979.666 6 138506357.344 6     -1705.335 6        40.923               
G16  26509191.774 6 139306208.044 6     -3194.033 6        40.319               
G08  25881723.320 6 136008819.050 6      1902.188 6        41.703               
G10  25994970.915 7 136721806.206 7     -1100.841 7        43.793               
> 2025 01 08 19 47 06.0000000  0  4                                             
G23  26357301.791 6 138508062.381 6     -1703.595 6        41.129               
G16  26509801.787 6 139309401.719 6     -3195.874 6        40.640               
G08  25881356.451 7 136006919.171 7      1899.548 7        42.112               
G10  25994767.530 7 136722906.215 7     -1099.363 7        44.443               
> 2025 01 08 19 47 07.0000000  0  4                                             
G23  26357627.811 6 138509769.659 6     -1709.949 6        41.049               
G16  26510411.907 6 139312597.430 6     -3196.184 6        41.270               
G08  25880995.121 7 136005021.236 7      1898.918 7        42.925               
G10  25994559.410 7 136724003.994 7     -1096.416 7        44.497               
> 2025 01 08 19 47 08.0000000  0  4                                             
G23  26357962.963 6 138511478.301 6     -1709.093 6        41.283               
G16  26511016.148 6 139315794.321 6     -3199.214 6        40.758               
G08  25880631.433 7 136003124.414 7      1898.848 7        42.405               
G10  25994354.756 7 136725100.397 7     -1096.316 7        43.991               
> 2025 01 08 19 47 09.0000000  0  4                                             
G23  26358283.712 6 138513186.982 6     -1708.205 6        41.674               
G16  26511631.432 6 139318991.084 6     -3198.222 6        40.657               
G08  25880273.052 7 136001227.357 7      1896.889 7        42.296               
G10  25994145.635 7 136726196.767 7     -1095.289 7        43.780               
> 2025 01 08 19 47 10.0000000  0  4                                             
G23  26358615.146 6 138514896.562 6     -1711.595 6        41.396               
G16  26512235.405 6 139322188.552 6     -3198.652 6        40.826               
G08  25879913.510 7 135999330.934 7      1894.470 7        42.395               
G10  25993940.605 7 136727292.273 7     -1093.996 7        44.235               
> 2025 01 08 19 47 11.0000000  0  4                                             
G23  26358942.686 6 138516607.391 6     -1706.864 6        41.586               
G16  26512836.769 6 139325387.104 6     -3203.084 6        40.538               
G08  25879554.432 7 135997435.477 7      1897.695 7        42.057               
G10  25993733.468 7 136728386.521 7     -1095.654 7        43.994               
> 2025 01 08 19 47 12.0000000  0  4                                             
G23  26359268.009 6 138518318.354 6     -1711.968 6        41.572               
G16  26513454.483 6 139328585.582 6     -3197.072 6        40.794               
G08  25879192.798 6 135995539.903 6      1895.587 6        41.345               
G10  25993532.709 7 136729480.642 7     -1094.361 7        44.365               
> 2025 01 08 19 47 13.0000000  0  4                                             
G23  26359593.350 6 138520030.043 6     -1708.215 6        41.262               
G16  26514065.157 6 139331784.643 6     -3196.573 6        41.243               
G08  25878835.632 6 135993644.797 6      1896.277 6        41.811               
G10  25993329.056 7 136730574.022 7     -1094.846 7        44.066               
> 2025 01 08 19 47 14.0000000  0  4                                             
G23  26359919.853 6 138521742.613 6     -1714.648 6        41.593               
G16  26514681.013 6 139334984.391 6     -3197.162 6        40.547               
G08  25878472.712 7 135991750.279 7      1892.503 7        42.519               
G10  25993123.723 7 136731666.535 7     -1092.358 7        44.290               
> 2025 01 08 19 47 15.0000000  0  4                                             
G23  26360250.966 6 138523455.875 6     -1714.707 6        40.959               
G16  26515291.544 6 139338184.624 6     -3200.826 6        40.517               
G08  25878119.120 7 135989856.177 7      1893.933 7        42.291               
G10  25992915.066 7 136732758.384 7     -1090.550 7        43.815               
> 2025 01 08 19 47 16.0000000  0  4                                             
G23  26360576.343 6 138525169.678 6     -1711.250 6        41.324               
G16  26515898.447 6 139341385.229 6     -3201.858 6        40.489               
G08  25877762.204 7 135987962.365 7      1895.554 7        42.156               
G10  25992705.463 7 136733849.689 7     -1091.422 7        44.229               
> 2025 01 08 19 47 17.0000000  0  4                                             
G23  26360902.649 6 138526883.812 6     -1713.489 6        40.824               
G16  26516523.041 6 139344586.005 6     -3203.181 6        40.476               
G08  25877407.111 7 135986068.626 7      1894.333 7        42.366               
G10  25992500.916 7 136734940.683 7     -1089.764 7        43.932               
> 2025 01 08 19 47 18.0000000  0  4                                             
G23  26361232.833 6 138528598.020 6     -1715.211 6        41.314               
G16  26517121.957 6 139347786.653 6     -3200.315 6        40.449               
G08  25877047.836 7 135984174.668 7      1894.740 7        42.316               
G10  25992296.441 7 136736031.595 7     -1091.939 7        43.586               
> 2025 01 08 19 47 19.0000000  0  4                                             
G23  26361564.607 6 138530313.120 6     -1714.311 6        41.522               
G16  26517741.047 6 139350988.033 6     -3201.801 6        41.721               
G08  25876685.882 6 135982281.369 6      1894.302 6        41.431               
G10  25992091.251 7 136737121.599 7     -1087.646 7        44.030               
> 2025 01 08 19 47 20.0000000  0  4                                             
G23  26361891.450 6 138532028.540 6     -1713.475 6        41.335               
G16  26518346.271 6 139354189.539 6     -3201.046 6        41.546               
G08  25876329.395 6 135980388.102 6      1891.729 6        41.994               
G10  25991883.881 7 136738211.308 7     -1088.936 7        44.711               
> 2025 01 08 19 47 21.0000000  0  4                                             
G23  26362224.582 6 138533744.077 6     -1715.714 6        41.093               
G16  26518950.119 6 139357390.968 6     -3203.054 6        40.896               
G08  25875970.370 7 135978494.687 7      1893.724 7        42.164               
G10  25991675.046 7 136739300.913 7     -1089.934 7        44.486               
> 2025 01 08 19 47 22.0000000  0  4                                             
G23  26362546.385 6 138535460.217 6     -1716.068 6        40.539               
G16  26519564.188 6 139360592.829 6     -3206.863 6        40.768               
G08  25875607.111 6 135976601.614 6      1891.557 6        41.911               
G10  25991473.090 7 136740389.899 7     -1088.104 7        44.330               
> 2025 01 08 19 47 23.0000000  0  4                                             
G23  26362879.464 6 138537177.444 6     -1718.972 6        41.475               
G16  26520174.951 6 139363795.603 6     -3201.970 6        41.329               
G08  25875257.414 7 135974709.333 7      1893.575 7        42.101               
G10  25991264.273 7 136741477.826 7     -1087.014 7        44.162               
> 2025 01 08 19 47 24.0000000  0  4                                             
G23  26363206.324 6 138538895.919 6     -1719.262 6        41.339               
G16  26520794.292 6 139366999.461 6     -3203.140 6        40.766               
G08  25874890.831 6 135972818.079 6      1892.057 6        41.924               
G10  25991064.318 7 136742564.487 7     -1087.033 7        44.411               
> 2025 01 08 19 47 25.0000000  0  4                                             
G23  26363543.423 6 138540614.975 6     -1719.319 6        41.413               
G16  26521406.145 6 139370203.687 6     -3202.878 6        40.869               
G08  25874526.374 7 135970927.122 7      1892.253 7        42.040               
G10  25990859.218 7 136743650.577 7     -1085.052 7        44.769               
> 2025 01 08 19 47 26.0000000  0  4                                             
G23  26363863.957 6 138542333.326 6     -1718.246 6        40.961               
G16  26522015.889 6 139373407.025 6     -3203.386 6        41.281               
G08  25874166.814 6 135969035.178 6      1892.600 6        41.809               
G10  25990656.082 7 136744737.389 7     -1086.708 7        45.069               
> 2025 01 08 19 47 27.0000000  0  4                                             
G23  26364192.962 6 138544052.956 6     -1718.347 6        41.227               
G16  26522623.651 6 139376611.451 6     -3203.657 6        40.932               
G08  25873813.704 6 135967144.250 6      1890.272 6        41.613               
G10  25990451.339 7 136745822.929 7     -1081.707 7        44.336               
> 2025 01 08 19 47 28.0000000  0  4                                             
G23  26364520.876 6 138545773.227 6     -1717.432 6        40.920               
G16  26523241.829 6 139379816.347 6     -3202.706 6        40.957               
G08  25873455.537 6 135965253.695 6      1894.942 6        41.563               
G10  25990246.417 7 136746907.829 7     -1085.182 7        44.723               
> 2025 01 08 19 47 29.0000000  0  4                                             
G23  26364852.829 6 138547493.759 6     -1717.868 6        41.100               
G16  26523853.307 6 139383021.363 6     -3204.310 6        41.607               
G08  25873097.406 6 135963363.173 6      1889.503 6        41.974               
G10  25990042.496 7 136747992.448 7     -1082.708 7        44.248               
> 2025 01 08 19 47 30.0000000  0  4                                             
G23  26365183.656 6 138549215.547 6     -1724.979 6        41.163               
G16  26524463.070 6 139386227.390 6     -3206.198 6        41.047               
G08  25872737.917 6 135961473.584 6      1889.216 6        41.776               
G10  25989835.519 7 136749075.863 7     -1082.911 7        44.525               
> 2025 01 08 19 47 31.0000000  0  4                                             
G23  26365505.710 6 138550938.277 6     -1720.932 6        41.593               
G16  26525072.404 6 139389434.218 6     -3206.895 6        41.652               
G08  25872383.128 6 135959584.701 6      1886.892 6        41.960               
G10  25989632.009 7 136750158.298 7     -1082.221 7        44.554               
> 2025 01 08 19 47 32.0000000  0  4                                             
G23  26365842.433 6 138552661.042 6     -1722.944 6        41.148               
G16  26525686.419 6 139392640.884 6     -3210.574 6        41.464               
G08  25872024.908 6 135957695.605 6      1889.314 6        41.623               
G10  25989426.050 7 136751240.711 7     -1081.877 7        44.912               
> 2025 01 08 19 47 33.0000000  0  4                                             
G23  26366168.007 6 138554384.296 6     -1722.591 6        41.057               
G16  26526302.543 6 139395847.881 6     -3203.700 6        41.227               
G08  25871674.210 6 135955806.710 6      1886.088 6        41.850               
G10  25989223.112 7 136752322.631 7     -1079.163 7        44.529               
> 2025 01 08 19 47 34.0000000  0  4                                             
G23  26366503.212 6 138556108.327 6     -1723.841 6        41.015               
G16  26526913.342 6 139399055.457 6     -3209.241 6        41.549               
G08  25871313.363 6 135953918.309 6      1886.207 6        41.915               
G10  25989020.870 7 136753403.805 7     -1080.514 7        44.850               
> 2025 01 08 19 47 35.0000000  0  4                                             
G23  26366830.108 6 138557833.275 6     -1722.613 6        41.168               
G16  26527529.091 6 139402263.762 6     -3209.027 6        41.328               
G08  25870960.075 7 135952030.601 7      1888.995 7        42.577               
G10  25988820.005 7 136754484.048 7     -1078.169 7        44.851               
> 2025 01 08 19 47 36.0000000  0  4                                             
G23  26367164.991 6 138559558.689 6     -1727.339 6        40.877               
G16  26528132.545 6 139405472.347 6     -3208.790 6        41.655               
G08  25870601.050 7 135950143.053 7      1891.492 7        42.040               
G10  25988615.583 7 136755563.850 7     -1079.320 7        44.955               
> 2025 01 08 19 47 37.0000000  0  4                                             
G23  26367493.120 6 138561284.434 6     -1724.830 6        41.097               
G16  26528748.723 6 139408681.087 6     -3210.009 6        41.580               
G08  25870241.347 7 135948255.588 7      1883.184 7        42.076               
G10  25988408.106 7 136756643.319 7     -1079.816 7        44.873               
> 2025 01 08 19 47 38.0000000  0  4                                             
G23  26367818.193 6 138563011.802 6     -1725.647 6        40.816               
G16  26529364.454 6 139411891.287 6     -3213.215 6        41.436               
G08  25869887.236 6 135946369.508 6      1885.178 6        41.943               
G10  25988207.151 7 136757721.117 7     -1074.466 7        44.479               
> 2025 01 08 19 47 39.0000000  0  4                                             
G23  26368151.737 6 138564740.007 6     -1728.045 6        40.954               
G16  26529984.527 6 139415102.127 6     -3212.000 6        41.966               
G08  25869525.782 7 135944483.974 7      1884.375 7        42.460               
G10  25988002.014 7 136758798.126 7     -1075.742 7        44.868               
> 2025 01 08 19 47 40.0000000  0  4                                             
G23  26368483.993 6 138566468.257 6     -1727.316 6        41.496               
G16  26530588.178 6 139418312.797 6     -3209.853 6        41.384               
G08  25869174.656 6 135942598.213 6      1886.964 6        41.903               
G10  25987797.807 7 136759875.107 7     -1076.859 7        44.562               
> 2025 01 08 19 47 41.0000000  0  4                                             
G23  26368811.104 6 138568196.714 6     -1731.917 6        40.954               
G16  26531197.655 6 139421523.526 6     -3210.494 6        41.082               
G08  25868813.969 7 135940712.405 7      1888.165 7        42.042               
G10  25987592.778 7 136760951.861 7     -1075.539 7        44.577               
> 2025 01 08 19 47 42.0000000  0  4                                             
G23  26369143.968 6 138569925.733 6     -1729.270 6        40.601               
G16  26531809.972 6 139424734.634 6     -3207.921 6        41.472               
G08  25868457.232 6 135938826.882 6      1887.276 6        41.716               
G10  25987391.894 7 136762028.063 7     -1074.838 7        44.361               
> 2025 01 08 19 47 43.0000000  0  4                                             
G23  26369476.814 6 138571655.329 6     -1731.062 6        40.471               
G16  26532425.489 6 139427946.146 6     -3211.920 6        40.944               
G08  25868094.437 6 135936941.685 6      1885.609 6        41.634               
G10  25987187.973 7 136763103.673 7     -1074.657 7        44.465               
> 2025 01 08 19 47 44.0000000  0  4                                             
G23  26369808.231 6 138573385.541 6     -1732.676 6        40.338               
G16  26533037.842 6 139431158.055 6     -3212.320 6        40.897               
G08  25867737.343 6 135935056.823 6      1888.097 6        41.449               
G10  25986986.554 7 136764178.691 7     -1072.613 7        44.702               
> 2025 01 08 19 47 45.0000000  0  4                                             
G23  26370134.591 6 138575116.324 6     -1732.323 6        40.307               
G16  26533648.981 6 139434370.390 6     -3212.962 6        41.590               
G08  25867393.203 6 135933172.295 6      1880.825 6        41.272               
G10  25986785.491 7 136765253.137 7     -1074.733 7        44.866               
> 2025 01 08 19 47 46.0000000  0  4                                             
G23  26370467.062 6 138576847.604 6     -1730.415 6        40.463               
G16  26534257.582 6 139437583.037 6     -3210.793 6        41.170               
G08  25867027.925 6 135931287.997 6      1881.682 6        41.875               
G10  25986580.015 7 136766327.054 7     -1070.446 7        44.720               
> 2025 01 08 19 47 47.0000000  0  4                                             
G23  26370797.281 6 138578579.441 6     -1730.248 6        40.618               
G16  26534877.369 6 139440796.051 6     -3214.065 6        41.585               
G08  25866666.685 7 135929403.970 7      1884.840 7        42.012               
G10  25986377.810 7 136767400.454 7     -1072.709 7        44.480               
> 2025 01 08 19 47 48.0000000  0  4                                             
G23  26371134.094 6 138580312.046 6     -1734.497 6        40.896               
G16  26535482.789 6 139444009.650 6     -3213.943 6        41.298               
G08  25866319.311 6 135927520.449 6      1884.114 6        41.532               
G10  25986176.658 7 136768473.092 7     -1071.721 7        44.708               
> 2025 01 08 19 47 49.0000000  0  4                                             
G23  26371464.975 6 138582045.354 6     -1735.219 6        40.845               
G16  26536101.522 6 139447223.762 6     -3214.546 6        41.112               
G08  25865959.000 7 135925637.387 7      1879.514 7        42.109               
G10  25985975.346 7 136769545.019 7     -1073.204 7        44.865               
> 2025 01 08 19 47 50.0000000  0  4                                             
G23  26371789.602 6 138583779.074 6     -1736.288 6        40.520               
G16  26536717.950 6 139450438.114 6     -3215.094 6        41.249               
G08  25865608.660 7 135923754.468 7      1882.266 7        42.098               
G10  25985771.281 7 136770616.526 7     -1072.752 7        44.267               
> 2025 01 08 19 47 51.0000000  0  4                                             
G23  26372120.482 6 138585513.273 6     -1735.704 6        40.419               
G16  26537334.824 6 139453652.756 6     -3212.794 6        40.587               
G08  25865245.490 7 135921871.748 7      1885.396 7        42.130               
G10  25985574.186 7 136771687.589 7     -1071.756 7        44.617               
> 2025 01 08 19 47 52.0000000  0  4                                             
G23  26372460.458 6 138587248.172 6     -1735.362 6        40.380               
G16  26537944.569 6 139456867.913 6     -3216.005 6        41.340               
G08  25864883.463 7 135919989.469 7      1883.300 7        42.270               
G10  25985371.247 7 136772757.916 7     -1070.474 7        44.980               
> 2025 01 08 19 47 53.0000000  0  4                                             
G23  26372783.638 6 138588983.871 6     -1731.079 6        40.479               
G16  26538559.621 6 139460083.703 6     -3214.335 6        41.052               
G08  25864522.223 6 135918107.731 6      1883.614 6        41.929               
G10  25985167.612 7 136773827.461 7     -1069.239 7        45.037               
> 2025 01 08 19 47 54.0000000  0  4                                             
G23  26373117.342 6 138590720.098 6     -1736.104 6        40.172               
G16  26539172.528 6 139463299.819 6     -3214.467 6        41.095               
G08  25864177.065 6 135916226.264 6      1882.572 6        41.788               
G10  25984968.748 7 136774896.474 7     -1067.040 7        44.835               
> 2025 01 08 19 47 55.0000000  0  4                                             
G23  26373446.471 6 138592457.054 6     -1734.814 6        40.030               
G16  26539786.526 6 139466516.477 6     -3216.878 6        41.458               
G08  25863820.203 6 135914345.268 6      1882.375 6        41.856               
G10  25984770.348 7 136775964.757 7     -1067.813 7        45.014               
> 2025 01 08 19 47 56.0000000  0  4                                             
G23  26373778.835 6 138594194.491 6     -1739.580 6        40.789               
G16  26540396.109 6 139469733.471 6     -3215.347 6        41.053               
G08  25863469.666 6 135912464.474 6      1884.424 6        41.546               
G10  25984566.337 7 136777032.570 7     -1067.744 7        44.666               
> 2025 01 08 19 47 57.0000000  0  4                                             
G23  26374117.364 6 138595932.418 6     -1740.463 6        40.321               
G16  26541020.042 6 139472950.740 6     -3215.733 6        40.648               
G08  25863109.445 6 135910583.925 6      1884.006 6        41.605               
G10  25984365.472 7 136778099.885 7     -1069.180 7        45.106               
> 2025 01 08 19 47 58.0000000  0  4                                             
G23  26374447.083 6 138597670.878 6     -1739.411 6        40.283               
G16  26541630.073 6 139476168.369 6     -3217.137 6        40.998               
G08  25862749.348 7 135908703.627 7      1881.096 7        42.382               
G10  25984163.838 7 136779166.678 7     -1067.894 7        44.943               
> 2025 01 08 19 47 59.0000000  0  4                                             
G23  26374774.211 6 138599410.028 6     -1739.426 6        40.277               
G16  26542238.227 6 139479386.528 6     -3221.886 6        40.742               
G08  25862396.238 7 135906823.777 7      1881.434 7        42.141               
G10  25983961.435 7 136780232.771 7     -1065.679 7        44.696               
> 2025 01 08 19 48 00.0000000  0  4                                             
G23  26375118.976 6 138601149.941 6     -1737.635 6        40.582               
G16  26542853.547 6 139482605.213 6     -3218.933 6        41.249               
G08  25862043.307 6 135904944.394 6      1881.978 6        41.388               
G10  25983760.319 7 136781298.126 7     -1065.046 7        45.022               
> 2025 01 08 19 48 01.0000000  0  4                                             
G23  26375445.211 6 138602890.447 6     -1739.329 6        40.828               
G16  26543471.654 6 139485824.358 6     -3218.275 6        41.224               
G08  25861682.567 6 135903065.370 6      1881.799 6        41.656               
G10  25983557.649 7 136782362.851 7     -1062.672 7        44.538               
> 2025 01 08 19 48 02.0000000  0  4                                             
G23  26375779.272 6 138604631.587 6     -1736.856 6        41.514               
G16  26544084.401 6 139489043.944 6     -3219.464 6        41.191               
G08  25861326.295 7 135901186.707 7      1879.747 7        42.257               
G10  25983356.855 7 136783426.985 7     -1063.821 7        45.086               
> 2025 01 08 19 48 03.0000000  0  4                                             
G23  26376114.316 6 138606373.370 6     -1744.119 6        41.320               
G16  26544702.973 6 139492263.988 6     -3221.760 6        41.133               
G08  25860971.720 7 135899308.428 7      1876.446 7        42.510               
G10  25983153.898 7 136784490.451 7     -1063.757 7        45.246               
> 2025 01 08 19 48 04.0000000  0  4                                             
G23  26376455.204 6 138608115.792 6     -1743.162 6        40.302               
G16  26545313.379 6 139495484.488 6     -3220.622 6        40.722               
G08  25860618.306 6 135897430.535 6      1875.493 6        41.965               
G10  25982956.964 7 136785553.279 7     -1062.348 7        45.178               
> 2025 01 08 19 48 05.0000000  0  4                                             
G23  26376780.116 6 138609858.860 6     -1744.634 6        40.437               
G16  26545927.894 6 139498705.434 6     -3219.935 6        41.042               
G08  25860263.695 7 135895553.019 7      1877.145 7        42.004               
G10  25982757.671 7 136786615.469 7     -1059.618 7        45.423               
> 2025 01 08 19 48 06.0000000  0  4                                             
G23  26377122.487 6 138611602.563 6     -1742.452 6        41.101               
G16  26546538.640 6 139501926.854 6     -3221.582 6        40.983               
G08  25859904.582 6 135893675.877 6      1878.055 6        41.283               
G10  25982556.608 7 136787677.003 7     -1061.222 7        45.843               
> 2025 01 08 19 48 07.0000000  0  4                                             
G23  26377447.667 6 138613346.883 6     -1743.866 6        40.958               
G16  26547153.638 6 139505148.695 6     -3221.913 6        40.643               
G08  25859548.059 7 135891799.080 7      1877.862 7        42.054               
G10  25982354.831 7 136788737.954 7     -1059.961 7        45.633               
> 2025 01 08 19 48 08.0000000  0  4                                             
G23  26377779.548 6 138615091.515 6     -1746.992 6        41.111               
G16  26547781.734 6 139508370.683 6     -3222.547 6        41.123               
G08  25859203.401 7 135889922.362 7      1875.312 7        42.070               
G10  25982156.342 7 136789798.569 7     -1059.342 7        45.308               
> 2025 01 08 19 48 09.0000000  0  4                                             
G23  26378116.076 6 138616836.735 6     -1747.122 6        40.839               
G16  26548386.207 6 139511593.045 6     -3222.587 6        40.985               
G08  25858842.947 7 135888045.942 7      1879.228 7        42.260               
G10  25981958.854 7 136790858.603 7     -1059.241 7        44.750               
> 2025 01 08 19 48 10.0000000  0  4                                             
G23  26378442.847 6 138618582.594 6     -1744.804 6        40.815               
G16  26549002.992 6 139514815.884 6     -3223.436 6        41.028               
G08  25858482.440 6 135886169.923 6      1877.413 6        41.727               
G10  25981757.363 7 136791917.997 7     -1059.039 7        45.398               
> 2025 01 08 19 48 11.0000000  0  4                                             
G23  26378780.500 6 138620328.977 6     -1748.001 6        40.795               
G16  26549617.454 6 139518039.055 6     -3223.564 6        40.543               
G08  25858134.977 7 135884294.156 7      1875.203 7        42.041               
G10  25981558.230 7 136792976.867 7     -1056.926 7        45.549               
> 2025 01 08 19 48 12.0000000  0  4                                             
G23  26379119.010 6 138622075.896 6     -1750.265 6        40.440               
G16  26550236.759 6 139521262.596 6     -3223.229 6        41.066               
G08  25857779.097 7 135882418.659 7      1878.366 7        42.231               
G10  25981355.345 7 136794035.203 7     -1057.795 7        45.633               
> 2025 01 08 19 48 13.0000000  0  4                                             
G23  26379449.462 6 138623823.307 6     -1748.583 6        41.059               
G16  26550856.171 6 139524486.429 6     -3223.105 6        41.151               
G08  25857421.538 7 135880543.394 7      1872.869 7        42.221               
G10  25981157.249 7 136795093.046 7     -1056.650 7        44.817               
> 2025 01 08 19 48 14.0000000  0  4                                             
G23  26379791.136 6 138625571.495 6     -1750.715 6        41.172               
G16  26551473.706 6 139527710.862 6     -3221.504 6        40.807               
G08  25857067.231 7 135878668.637 7      1873.932 7        42.490               
G10  25980960.994 7 136796150.121 7     -1055.719 7        44.980               
> 2025 01 08 19 48 15.0000000  0  4                                             
G23  26380130.004 6 138627320.492 6     -1749.012 6        40.774               
G16  26552079.591 6 139530935.927 6     -3225.336 6        40.796               
G08  25856712.620 6 135876794.445 6      1872.255 6        41.853               
G10  25980760.378 7 136797206.373 7     -1055.792 7        44.746               
> 2025 01 08 19 48 16.0000000  0  4                                             
G23  26380454.970 6 138629069.982 6     -1752.544 6        41.357               
G16  26552702.631 6 139534161.275 6     -3222.910 6        41.000               
G08  25856360.493 6 135874920.469 6      1874.656 6        41.825               
G10  25980562.801 7 136798262.156 7     -1055.967 7        45.390               
> 2025 01 08 19 48 17.0000000  0  4                                             
G23  26380792.534 6 138630820.036 6     -1750.994 6        41.484               
G16  26553313.162 6 139537387.024 6     -3222.577 6        40.965               
G08  25856010.314 7 135873046.816 7      1874.223 7        42.021               
G10  25980359.683 7 136799317.345 7     -1054.539 7        45.552               
> 2025 01 08 19 48 18.0000000  0  4                                             
G23  26381128.489 6 138632570.858 6     -1751.922 6        41.638               
G16  26553932.609 6 139540613.398 6     -3225.330 6        41.520               
G08  25855649.020 7 135871173.672 7      1873.913 7        42.517               
G10  25980165.322 7 136800371.758 7     -1053.446 7        45.746               
> 2025 01 08 19 48 19.0000000  0  4                                             
G23  26381466.160 6 138634322.370 6     -1752.747 6        40.855               
G16  26554542.908 6 139543840.228 6     -3226.228 6        41.140               
G08  25855295.732 6 135869300.943 6      1871.078 6        41.976               
G10  25979966.851 7 136801425.504 7     -1053.550 7        45.527               
> 2025 01 08 19 48 20.0000000  0  4                                             
G23  26381797.970 6 138636074.645 6     -1747.661 6        41.315               
G16  26555162.838 6 139547067.647 6     -3227.428 6        40.425               
G08  25854938.101 7 135867428.720 7      1873.376 7        42.231               
G10  25979763.358 7 136802478.492 7     -1051.267 7        45.508               
> 2025 01 08 19 48 21.0000000  0  4                                             
G23  26382139.447 6 138637827.808 6     -1750.724 6        41.692               
G16  26555776.960 6 139550295.791 6     -3228.879 6        41.102               
G08  25854583.884 6 135865557.140 6      1871.925 6        41.675               
G10  25979568.675 7 136803530.573 7     -1052.347 7        45.401               
> 2025 01 08 19 48 22.0000000  0  4                                             
G23  26382476.886 6 138639581.366 6     -1751.158 6        40.889               
G16  26556396.140 6 139553524.122 6     -3227.805 6        41.251               
G08  25854227.111 6 135863685.673 6      1873.428 6        41.823               
G10  25979367.542 7 136804582.265 7     -1052.615 7        45.277               
> 2025 01 08 19 48 23.0000000  0  4                                             
G23  26382808.803 6 138641335.160 6     -1755.276 6        41.370               
G16  26557007.886 6 139556752.533 6     -3229.410 6        40.835               
G08  25853878.272 7 135861814.199 7      1868.208 7        42.434               
G10  25979172.466 7 136805633.717 7     -1051.658 7        46.094               
> 2025 01 08 19 48 24.0000000  0  4                                             
G23  26383141.721 6 138643089.277 6     -1757.652 6        40.965               
G16  26557627.619 6 139559981.050 6     -3224.402 6        41.270               
G08  25853522.946 7 135859942.768 7      1870.099 7        42.118               
G10  25978971.796 7 136806684.856 7     -1052.125 7        45.203               
> 2025 01 08 19 48 25.0000000  0  4                                             
G23  26383471.297 6 138644843.981 6     -1753.469 6        40.276               
G16  26558245.709 6 139563209.990 6     -3232.442 6        41.192               
G08  25853162.564 7 135858071.690 7      1870.318 7        42.090               
G10  25978777.632 7 136807735.374 7     -1048.460 7        45.076               
> 2025 01 08 19 48 26.0000000  0  4                                             
G23  26383820.011 6 138646599.616 6     -1756.373 6        40.554               
G16  26558857.901 6 139566439.685 6     -3228.830 6        41.099               
G08  25852809.633 7 135856201.263 7      1871.976 7        42.172               
G10  25978575.998 7 136808784.991 7     -1049.322 7        45.091               
> 2025 01 08 19 48 27.0000000  0  4                                             
G23  26384151.678 6 138648355.913 6     -1754.773 6        41.132               
G16  26559473.328 6 139569669.869 6     -3232.799 6        41.555               
G08  25852459.042 7 135854331.251 7      1870.656 7        42.618               
G10  25978378.134 7 136809833.934 7     -1049.642 7        44.972               
> 2025 01 08 19 48 28.0000000  0  4                                             
G23  26384484.989 6 138650112.686 6     -1761.481 6        41.116               
G16  26560090.167 6 139572900.328 6     -3233.986 6        41.057               
G08  25852106.683 7 135852461.448 7      1869.102 7        42.208               
G10  25978183.719 7 136810882.391 7     -1046.238 7        44.858               
> 2025 01 08 19 48 29.0000000  0  4                                             
G23  26384814.636 6 138651869.960 6     -1753.716 6        41.035               
G16  26560712.331 6 139576131.102 6     -3232.303 6        41.474               
G08  25851750.536 7 135850591.905 7      1868.636 7        42.462               
G10  25977984.265 7 136811930.361 7     -1046.068 7        44.603               
