     3.02           OBSERVATION DATA    E                   RINEX VERSION / TYPE
G = GPS  R = GLONASS  E = GALILEO  S = GEO  M = MIXED       COMMENT             
GNSS-SDR            jmfriedt            20250104 072633 UTC PGM / RUN BY / DATE 
GALILEO OBSERVATION DATA FILE GENERATED BY GNSS-SDR         COMMENT             
GNSS-SDR VERSION 0.0.19                                     COMMENT             
See https://gnss-sdr.org                                    COMMENT             
DEFAULT MARKER NAME                                         MARKER NAME         
jmfriedt            CTTC                                    OBSERVER / AGENCY   
GNSS-SDR            Software Receiver   0.0.19              REC # / TYPE / VERS 
Antenna number      Antenna type                            ANT # / TYPE        
        0.0000        0.0000        0.0000                  APPROX POSITION XYZ 
        0.0000        0.0000        0.0000                  ANTENNA: DELTA H/E/N
E    4 C1B L1B D1B S1B                                      SYS / # / OBS TYPES 
DBHZ                                                        SIGNAL STRENGTH UNIT
  2025    01    03    15    38    6.1600000     GAL         TIME OF FIRST OBS   
    18    18   137     7                                    LEAP SECONDS        
    18    18   137     7                                    LEAP SECONDS        
    18    18   137     7                                    LEAP SECONDS        
                                                            END OF HEADER       
> 2025 01 03 15 38 07.0000000  0  5                                             
E05  27616365.836 6 145123253.501 6      1071.277 6        37.071               
E24  27889989.610 6 146562881.895 6      1928.621 6        41.087               
E26  28514203.633 6 149843148.812 6     -1208.290 6        37.470               
E31  26028750.606 6 136782015.581 6      -324.839 6        39.932               
E33  27297731.744 6 143450559.453 6      1541.935 6        40.921               
> 2025 01 03 15 38 08.0000000  0  5                                             
E05  27616571.920 6 145122181.957 6      1076.250 6        37.040               
E24  27889616.648 6 146560954.671 6      1922.903 6        41.116               
E26  28514435.912 6 149844358.755 6     -1214.396 6        37.526               
E31  26028810.699 6 136782343.277 6      -331.089 6        39.842               
E33  27297434.529 6 143449019.339 6      1536.307 6        40.582               
> 2025 01 03 15 38 09.0000000  0  5                                             
E05  27616770.516 6 145121110.070 6      1073.207 6        37.156               
E24  27889249.743 6 146559027.514 6      1928.726 6        41.168               
E26  28514657.989 6 149845569.034 6     -1207.448 6        37.561               
E31  26028871.454 6 136782671.116 6      -326.158 6        39.621               
E33  27297141.012 6 143447479.624 6      1542.766 6        40.739               
> 2025 01 03 15 38 10.0000000  0  5                                             
E05  27616971.292 6 145120039.527 6      1073.108 6        37.366               
E24  27888877.335 6 146557098.678 6      1930.844 6        40.779               
E26  28514885.569 6 149846777.975 6     -1206.387 6        37.606               
E31  26028929.350 6 136782997.409 6      -325.197 6        40.101               
E33  27296844.315 6 143445938.555 6      1540.764 6        40.638               
> 2025 01 03 15 38 11.0000000  0  5                                             
E05  27617175.410 6 145118967.647 6      1069.735 6        37.239               
E24  27888510.252 6 146555170.873 6      1930.843 6        40.629               
E26  28515111.862 6 149847988.285 6     -1207.729 6        37.280               
E31  26028990.408 6 136783324.822 6      -326.695 6        40.402               
E33  27296546.814 6 143444398.834 6      1540.457 6        40.754               
> 2025 01 03 15 38 12.0000000  0  5                                             
E05  27617376.454 6 145117896.249 6      1070.853 6        37.643               
E24  27888142.829 6 146553242.310 6      1927.757 6        40.446               
E26  28515342.068 6 149849198.148 6     -1212.005 6        37.124               
E31  26029051.127 6 136783651.581 6      -327.572 6        40.325               
E33  27296251.385 6 143442858.657 6      1540.644 6        40.575               
> 2025 01 03 15 38 13.0000000  0  5                                             
E05  27617577.838 6 145116822.686 6      1073.442 6        37.269               
E24  27887768.169 6 146551315.522 6      1927.149 6        40.630               
E26  28515569.648 6 149850410.108 6     -1211.614 6        37.623               
E31  26029111.417 6 136783980.239 6      -327.003 6        40.356               
E33  27295959.066 6 143441320.619 6      1538.944 6        40.654               
> 2025 01 03 15 38 14.0000000  0  5                                             
E05  27617778.490 6 145115751.206 6      1074.503 6        37.283               
E24  27887401.175 6 146549386.443 6      1929.770 6        40.704               
E26  28515799.015 6 149851620.087 6     -1210.977 6        37.647               
E31  26029168.866 6 136784306.666 6      -325.426 6        40.412               
E33  27295661.118 6 143439780.543 6      1541.628 6        40.411               
> 2025 01 03 15 38 15.0000000  0  5                                             
E05  27617977.193 6 145114678.538 6      1075.527 6        36.768               
E24  27887029.357 6 146547458.179 6      1926.849 6        40.621               
E26  28516028.811 6 149852831.204 6     -1212.013 6        37.921               
E31  26029230.621 6 136784634.076 6      -328.779 6        40.333               
E33  27295366.958 6 143438241.657 6      1538.241 6        40.431               
> 2025 01 03 15 38 16.0000000  0  5                                             
E05  27618181.490 6 145113606.610 6      1073.065 6        36.874               
E24  27886658.110 6 146545528.906 6      1929.084 6        40.672               
E26  28516259.178 6 149854041.620 6     -1209.877 6        37.764               
E31  26029289.178 6 136784960.533 6      -326.208 6        40.117               
E33  27295071.315 6 143436702.052 6      1538.749 6        40.390               
> 2025 01 03 15 38 17.0000000  0  5                                             
E05  27618382.409 6 145112533.580 6      1074.850 6        36.977               
E24  27886290.008 6 146543600.431 6      1929.886 6        40.933               
E26  28516483.756 6 149855253.159 6     -1211.238 6        37.659               
E31  26029347.485 6 136785287.886 6      -326.511 6        40.132               
E33  27294775.582 6 143435163.551 6      1540.197 6        40.437               
> 2025 01 03 15 38 18.0000000  0  5                                             
E05  27618585.151 6 145111460.268 6      1075.423 6        37.009               
E24  27885923.729 6 146541671.930 6      1927.833 6        40.783               
E26  28516710.764 6 149856464.985 6     -1212.883 6        37.622               
E31  26029408.097 6 136785615.337 6      -326.308 6        40.384               
E33  27294477.759 6 143433625.365 6      1537.115 6        40.777               
> 2025 01 03 15 38 19.0000000  0  5                                             
E05  27618786.714 6 145110387.195 6      1069.035 6        37.143               
E24  27885548.283 6 146539742.877 6      1932.613 6        40.715               
E26  28516934.842 6 149857676.593 6     -1209.369 6        37.779               
E31  26029467.261 6 136785942.355 6      -323.951 6        40.386               
E33  27294185.404 6 143432086.966 6      1540.729 6        40.971               
> 2025 01 03 15 38 20.0000000  0  5                                             
E05  27618983.952 6 145109313.805 6      1067.541 6        37.366               
E24  27885180.109 6 146537813.850 6      1931.071 6        40.944               
E26  28517170.409 6 149858888.546 6     -1209.634 6        38.043               
E31  26029526.818 6 136786269.482 6      -324.458 6        40.170               
E33  27293888.010 6 143430548.879 6      1539.967 6        40.792               
> 2025 01 03 15 38 21.0000000  0  5                                             
E05  27619189.660 6 145108242.754 6      1070.473 6        37.240               
E24  27884814.652 6 146535882.148 6      1929.009 6        40.491               
E26  28517394.594 6 149860098.132 6     -1212.001 6        38.156               
E31  26029586.179 6 136786594.044 6      -324.016 6        40.052               
E33  27293593.797 6 143429008.443 6      1540.507 6        40.915               
> 2025 01 03 15 38 22.0000000  0  5                                             
E05  27619387.667 6 145107170.622 6      1074.704 6        37.275               
E24  27884441.029 6 146533951.204 6      1929.852 6        40.511               
E26  28517623.049 6 149861308.814 6     -1213.069 6        38.063               
E31  26029643.628 6 136786919.476 6      -327.068 6        40.252               
E33  27293298.136 6 143427469.106 6      1537.848 6        40.811               
> 2025 01 03 15 38 23.0000000  0  5                                             
E05  27619591.159 6 145106098.403 6      1073.254 6        37.054               
E24  27884072.498 6 146532020.080 6      1930.028 6        40.484               
E26  28517850.361 6 149862519.610 6     -1211.962 6        37.950               
E31  26029704.311 6 136787244.829 6      -325.998 6        40.245               
E33  27293002.225 6 143425929.909 6      1536.343 6        41.148               
> 2025 01 03 15 38 24.0000000  0  5                                             
E05  27619791.042 6 145105025.711 6      1071.265 6        36.950               
E24  27883701.591 6 146530089.135 6      1932.392 6        40.818               
E26  28518079.245 6 149863730.926 6     -1209.680 6        38.034               
E31  26029764.280 6 136787570.460 6      -323.347 6        40.042               
E33  27292708.244 6 143424391.183 6      1538.642 6        41.130               
> 2025 01 03 15 38 25.0000000  0  5                                             
E05  27619996.679 6 145103952.886 6      1076.243 6        36.775               
E24  27883330.612 6 146528157.995 6      1927.557 6        40.633               
E26  28518306.343 6 149864942.343 6     -1214.417 6        38.477               
E31  26029823.301 6 136787895.998 6      -328.358 6        40.089               
E33  27292410.832 6 143422852.603 6      1535.166 6        41.031               
> 2025 01 03 15 38 26.0000000  0  5                                             
E05  27620196.508 6 145102880.533 6      1074.463 6        36.402               
E24  27882958.936 6 146526226.069 6      1931.050 6        40.829               
E26  28518531.439 6 149866153.338 6     -1212.490 6        38.695               
E31  26029880.357 6 136788220.872 6      -325.872 6        40.153               
E33  27292117.708 6 143421313.560 6      1536.038 6        40.805               
> 2025 01 03 15 38 27.0000000  0  5                                             
E05  27620402.359 6 145101807.447 6      1070.066 6        36.617               
E24  27882588.529 6 146524294.603 6      1932.003 6        40.787               
E26  28518767.042 6 149867365.093 6     -1210.562 6        38.500               
E31  26029944.507 6 136788546.301 6      -323.835 6        40.217               
E33  27291824.084 6 143419775.260 6      1540.908 6        40.452               
> 2025 01 03 15 38 28.0000000  0  5                                             
E05  27620599.133 6 145100735.675 6      1067.328 6        36.475               
E24  27882219.802 6 146522361.500 6      1936.543 6        40.584               
E26  28518989.458 6 149868575.504 6     -1208.368 6        38.403               
E31  26029998.989 6 136788870.181 6      -322.491 6        40.312               
E33  27291525.368 6 143418235.671 6      1542.066 6        40.674               
> 2025 01 03 15 38 29.0000000  0  5                                             
E05  27620799.462 6 145099663.714 6      1070.611 6        36.591               
E24  27881848.198 6 146520428.258 6      1933.663 6        40.614               
E26  28519217.752 6 149869786.131 6     -1210.475 6        38.168               
E31  26030060.941 6 136789194.065 6      -323.239 6        40.152               
E33  27291231.816 6 143416696.285 6      1540.911 6        40.586               
> 2025 01 03 15 38 30.0000000  0  5                                             
E05  27621003.687 6 145098591.999 6      1075.229 6        36.659               
E24  27881478.952 6 146518494.478 6      1932.177 6        40.855               
E26  28519442.795 6 149870996.497 6     -1210.038 6        37.924               
E31  26030119.516 6 136789517.488 6      -325.058 6        40.214               
E33  27290934.707 6 143415156.643 6      1537.966 6        40.579               
> 2025 01 03 15 38 31.0000000  0  5                                             
E05  27621206.376 6 145097518.624 6      1070.461 6        36.352               
E24  27881108.241 6 146516562.051 6      1937.764 6        40.906               
E26  28519671.357 6 149872208.558 6     -1207.256 6        37.958               
E31  26030177.465 6 136789842.364 6      -321.059 6        40.181               
E33  27290639.493 6 143413618.687 6      1541.751 6        40.540               
> 2025 01 03 15 38 32.0000000  0  5                                             
E05  27621406.848 6 145096447.602 6      1070.060 6        36.596               
E24  27880736.280 6 146514626.990 6      1935.961 6        40.788               
E26  28519899.223 6 149873418.288 6     -1207.455 6        38.160               
E31  26030238.541 6 136790164.711 6      -321.835 6        40.138               
E33  27290345.280 6 143412078.418 6      1539.024 6        40.682               
> 2025 01 03 15 38 33.0000000  0  5                                             
E05  27621606.892 6 145095376.341 6      1074.809 6        36.243               
E24  27880367.892 6 146512691.850 6      1932.219 6        40.507               
E26  28520129.180 6 149874628.286 6     -1213.124 6        37.592               
E31  26030295.669 6 136790487.107 6      -327.129 6        40.236               
E33  27290047.778 6 143410538.410 6      1536.166 6        40.804               
> 2025 01 03 15 38 34.0000000  0  6                                             
E05  27621811.600 5 145094304.867 5      1070.934 5        35.999               
E09  30212260.450 6 158765831.512 6      2835.966 6        36.225               
E24  27879996.466 6 146510756.615 6      1934.208 6        40.580               
E26  28520355.259 6 149875838.485 6     -1211.275 6        37.767               
E31  26030353.600 6 136790809.488 6      -322.135 6        40.366               
E33  27289754.208 6 143408998.581 6      1540.207 6        40.989               
> 2025 01 03 15 38 35.0000000  0  6                                             
E05  27622015.074 6 145093233.301 6      1071.888 6        36.016               
E09  30212791.697 6 158762996.654 6      2834.522 6        36.418               
E24  27879625.416 6 146508821.157 6      1933.329 6        40.696               
E26  28520581.927 6 149877048.785 6     -1210.567 6        37.836               
E31  26030416.249 6 136791131.757 6      -321.737 6        40.193               
E33  27289459.173 6 143407458.878 6      1539.392 6        41.012               
> 2025 01 03 15 38 36.0000000  0  6                                             
E05  27622207.756 6 145092160.579 6      1077.892 6        36.427               
E09  30213334.146 6 158760160.966 6      2837.377 6        36.148               
E24  27879254.866 6 146506886.547 6      1932.384 6        40.384               
E26  28520812.402 6 149878260.269 6     -1214.073 6        37.788               
E31  26030474.538 6 136791454.998 6      -324.588 6        40.298               
E33  27289161.832 6 143405920.371 6      1536.299 6        41.151               
> 2025 01 03 15 38 37.0000000  0  6                                             
E05  27622413.946 6 145091089.192 6      1072.348 6        36.385               
E09  30213868.126 6 158757326.914 6      2833.439 6        36.164               
E24  27878885.621 6 146504950.347 6      1935.354 6        40.692               
E26  28521041.304 6 149879470.470 6     -1212.966 6        37.880               
E31  26030531.343 6 136791776.731 6      -324.153 6        40.265               
E33  27288867.315 6 143404380.543 6      1537.416 6        40.995               
> 2025 01 03 15 38 38.0000000  0  6                                             
E05  27622616.528 6 145090017.692 6      1073.230 6        36.962               
E09  30214404.447 6 158754493.146 6      2833.614 6        36.394               
E24  27878513.034 6 146503013.896 6      1934.865 6        40.580               
E26  28521268.401 6 149880680.745 6     -1208.779 6        38.061               
E31  26030591.115 6 136792098.328 6      -322.244 6        39.975               
E33  27288570.725 6 143402840.820 6      1539.127 6        40.989               
> 2025 01 03 15 38 39.0000000  0  6                                             
E05  27622815.660 6 145088945.328 6      1073.165 6        36.909               
E09  30214939.482 6 158751658.836 6      2837.070 6        36.305               
E24  27878142.931 6 146501078.057 6      1934.162 6        40.732               
E26  28521495.963 6 149881891.927 6     -1214.017 6        37.971               
E31  26030649.279 6 136792420.621 6      -321.299 6        39.748               
E33  27288274.296 6 143401301.997 6      1537.847 6        41.165               
> 2025 01 03 15 38 40.0000000  0  6                                             
E05  27623026.121 6 145087874.696 6      1071.987 6        37.126               
E09  30215479.930 6 158748826.650 6      2832.319 6        36.200               
E24  27877773.399 6 146499140.112 6      1937.571 6        40.899               
E26  28521725.134 6 149883101.333 6     -1209.916 6        37.850               
E31  26030708.729 6 136792740.928 6      -321.452 6        39.821               
E33  27287979.260 6 143399761.409 6      1539.888 6        41.080               
> 2025 01 03 15 38 41.0000000  0  6                                             
E05  27623220.125 6 145086803.061 6      1069.761 6        37.182               
E09  30216015.858 6 158745993.743 6      2833.677 6        36.113               
E24  27877400.151 6 146497202.942 6      1936.407 6        41.072               
E26  28521949.211 6 149884311.826 6     -1213.812 6        38.120               
E31  26030769.519 6 136793062.115 6      -321.264 6        39.651               
E33  27287685.547 6 143398221.926 6      1538.626 6        41.041               
> 2025 01 03 15 38 42.0000000  0  6                                             
E05  27623420.241 6 145085731.054 6      1075.259 6        37.053               
E09  30216551.267 6 158743160.866 6      2831.914 6        36.319               
E24  27877029.387 6 146495265.784 6      1935.482 6        40.906               
E26  28522175.933 6 149885522.638 6     -1209.967 6        38.114               
E31  26030825.056 6 136793383.392 6      -321.616 6        39.725               
E33  27287388.368 6 143396682.752 6      1538.860 6        41.262               
> 2025 01 03 15 38 43.0000000  0  6                                             
E05  27623627.932 6 145084658.728 6      1068.775 6        37.272               
E09  30217088.321 6 158740327.946 6      2835.372 6        36.121               
E24  27876659.409 6 146493328.676 6      1937.412 6        40.773               
E26  28522406.515 6 149886733.857 6     -1210.609 6        38.212               
E31  26030883.256 6 136793704.867 6      -320.959 6        39.575               
E33  27287094.476 6 143395143.977 6      1537.803 6        40.982               
> 2025 01 03 15 38 44.0000000  0  6                                             
E05  27623822.544 6 145083586.404 6      1069.872 6        37.465               
E09  30217629.163 5 158737495.399 5      2831.825 5        35.985               
E24  27876287.751 6 146491391.241 6      1941.789 6        41.253               
E26  28522633.756 6 149887945.055 6     -1210.262 6        38.175               
E31  26030939.436 6 136794026.101 6      -317.905 6        39.564               
E33  27286801.442 6 143393605.181 6      1540.942 6        40.771               
> 2025 01 03 15 38 45.0000000  0  6                                             
E05  27624029.217 6 145082515.216 6      1071.822 6        37.344               
E09  30218162.660 6 158734664.371 6      2829.082 6        36.182               
E24  27875913.877 6 146489452.360 6      1941.524 6        41.158               
E26  28522860.960 6 149889155.114 6     -1208.591 6        38.085               
E31  26030999.798 6 136794345.989 6      -319.504 6        39.717               
E33  27286503.351 6 143392065.249 6      1540.825 6        41.099               
> 2025 01 03 15 38 46.0000000  0  6                                             
E05  27624226.830 6 145081443.195 6      1072.164 6        36.877               
E09  30218700.786 6 158731832.822 6      2834.053 6        36.084               
E24  27875544.096 6 146487514.028 6      1934.451 6        41.223               
E26  28523085.395 6 149890366.021 6     -1210.813 6        38.210               
E31  26031055.549 6 136794666.527 6      -322.278 6        39.772               
E33  27286208.333 6 143390526.186 6      1539.177 6        41.386               
> 2025 01 03 15 38 47.0000000  0  6                                             
E05  27624428.589 6 145080369.884 6      1070.382 6        36.924               
E09  30219230.924 5 158729000.333 5      2830.352 5        35.946               
E24  27875173.206 6 146485576.695 6      1937.622 6        41.214               
E26  28523314.851 6 149891578.292 6     -1212.866 6        37.720               
E31  26031115.392 6 136794988.167 6      -320.661 6        39.831               
E33  27285911.546 6 143388988.465 6      1537.337 6        41.150               
> 2025 01 03 15 38 48.0000000  0  6                                             
E05  27624629.598 6 145079298.490 6      1069.677 6        37.075               
E09  30219770.962 6 158726170.131 6      2828.512 6        36.235               
E24  27874798.940 6 146483637.056 6      1939.435 6        40.987               
E26  28523547.202 6 149892788.566 6     -1211.822 6        37.962               
E31  26031174.860 6 136795307.662 6      -321.392 6        39.890               
E33  27285616.207 6 143387448.761 6      1537.568 6        40.808               
> 2025 01 03 15 38 49.0000000  0  6                                             
E05  27624833.180 6 145078224.776 6      1074.520 6        37.103               
E09  30220305.978 6 158723337.916 6      2831.868 6        36.395               
E24  27874430.873 6 146481699.500 6      1938.887 6        40.965               
E26  28523772.745 6 149894001.244 6     -1212.519 6        37.668               
E31  26031232.917 6 136795629.298 6      -322.731 6        39.930               
E33  27285323.048 6 143385911.454 6      1536.910 6        40.881               
> 2025 01 03 15 38 50.0000000  0  6                                             
E05  27625034.278 6 145077148.894 6      1075.800 6        36.958               
E09  30220843.961 6 158720503.898 6      2830.312 6        36.194               
E24  27874058.554 6 146479763.836 6      1938.644 6        40.835               
E26  28524003.023 6 149895216.086 6     -1212.717 6        37.710               
E31  26031293.189 6 136795952.892 6      -322.208 6        40.003               
E33  27285026.404 6 143384376.311 6      1535.883 6        41.022               
> 2025 01 03 15 38 51.0000000  0  6                                             
E05  27625237.824 6 145076074.599 6      1078.763 6        36.802               
E09  30221383.194 6 158717671.808 6      2835.432 6        36.158               
E24  27873686.414 6 146477826.231 6      1935.715 6        41.209               
E26  28524230.103 6 149896429.319 6     -1216.421 6        37.704               
E31  26031349.745 6 136796274.671 6      -324.478 6        39.698               
E33  27284731.887 6 143382839.585 6      1533.953 6        41.163               
> 2025 01 03 15 38 52.0000000  0  6                                             
E05  27625437.689 6 145074998.401 6      1073.306 6        36.331               
E09  30221918.657 6 158714838.115 6      2832.240 6        36.063               
E24  27873315.239 6 146475890.275 6      1937.211 6        41.320               
E26  28524459.130 6 149897644.529 6     -1212.023 6        37.661               
E31  26031410.160 6 136796598.236 6      -321.941 6        40.033               
E33  27284438.496 6 143381304.823 6      1535.524 6        40.816               
> 2025 01 03 15 38 53.0000000  0  6                                             
E05  27625642.897 6 145073922.739 6      1073.966 6        36.467               
E09  30222450.189 6 158712005.385 6      2832.378 6        36.085               
E24  27872947.226 6 146473953.420 6      1935.854 6        41.382               
E26  28524688.800 6 149898859.163 6     -1216.482 6        37.799               
E31  26031467.680 6 136796920.990 6      -324.110 6        40.108               
E33  27284143.067 6 143379769.500 6      1535.251 6        40.603               
> 2025 01 03 15 38 54.0000000  0  6                                             
E05  27625836.972 6 145072847.007 6      1074.557 6        36.457               
E09  30222988.226 6 158709172.884 6      2830.274 6        36.128               
E24  27872576.265 6 146472016.370 6      1938.774 6        41.334               
E26  28524917.292 6 149900073.905 6     -1212.413 6        37.899               
E31  26031527.577 6 136797243.644 6      -320.811 6        40.001               
E33  27283845.923 6 143378234.275 6      1536.454 6        40.749               
> 2025 01 03 15 38 55.0000000  0  6                                             
E05  27626040.268 6 145071771.832 6      1077.993 6        36.382               
E09  30223526.530 6 158706341.312 6      2830.248 6        36.414               
E24  27872203.464 6 146470078.445 6      1936.674 6        41.634               
E26  28525145.425 6 149901288.103 6     -1215.410 6        37.744               
E31  26031586.009 6 136797565.528 6      -324.058 6        40.055               
E33  27283552.299 6 143376698.513 6      1533.636 6        41.017               
> 2025 01 03 15 38 56.0000000  0  6                                             
E05  27626243.993 6 145070696.509 6      1075.280 6        36.360               
E09  30224062.708 6 158703509.913 6      2833.102 6        36.546               
E24  27871833.825 6 146468140.375 6      1937.194 6        41.193               
E26  28525375.561 6 149902502.458 6     -1212.415 6        38.012               
E31  26031644.172 6 136797887.371 6      -320.341 6        39.889               
E33  27283259.176 6 143375162.909 6      1536.127 6        41.093               
> 2025 01 03 15 38 57.0000000  0  6                                             
E05  27626446.002 6 145069620.533 6      1074.251 6        36.601               
E09  30224601.102 6 158700678.193 6      2832.069 6        36.362               
E24  27871458.826 6 146466202.673 6      1936.932 6        41.077               
E26  28525596.600 6 149903717.485 6     -1216.283 6        37.865               
E31  26031704.552 6 136798209.683 6      -321.627 6        39.854               
E33  27282967.303 6 143373628.016 6      1534.507 6        41.091               
> 2025 01 03 15 38 58.0000000  0  6                                             
E05  27626650.102 6 145068542.952 6      1076.040 6        36.617               
E09  30225132.097 6 158697845.247 6      2832.500 6        36.468               
E24  27871091.707 6 146464266.177 6      1936.698 6        41.216               
E26  28525828.808 6 149904934.114 6     -1216.745 6        37.833               
E31  26031762.322 6 136798533.357 6      -324.743 6        40.184               
E33  27282670.928 6 143372094.676 6      1533.889 6        41.068               
> 2025 01 03 15 38 59.0000000  0  6                                             
E05  27626853.684 6 145067466.507 6      1075.488 6        36.727               
E09  30225672.850 6 158695013.778 6      2831.864 6        36.503               
E24  27870719.031 6 146462328.328 6      1937.323 6        40.767               
E26  28526058.533 6 149906149.635 6     -1217.645 6        37.906               
E31  26031821.165 6 136798855.716 6      -322.414 6        40.241               
E33  27282373.748 6 143370560.253 6      1535.800 6        41.090               
> 2025 01 03 15 39 00.0000000  0  6                                             
E05  27627057.748 6 145066388.344 6      1078.834 6        36.915               
E09  30226202.345 6 158692180.926 6      2832.350 6        36.183               
E24  27870347.694 6 146460391.906 6      1936.977 6        41.252               
E26  28526283.575 6 149907366.906 6     -1216.917 6        37.938               
E31  26031879.811 6 136799179.614 6      -324.643 6        40.097               
E33  27282079.159 6 143369027.583 6      1531.966 6        40.975               
> 2025 01 03 15 39 01.0000000  0  6                                             
E05  27627258.382 6 145065310.227 6      1079.878 6        36.707               
E09  30226747.010 6 158689348.460 6      2831.755 6        36.479               
E24  27869975.983 6 146458455.092 6      1935.505 6        41.107               
E26  28526516.998 6 149908584.108 6     -1218.712 6        37.790               
E31  26031939.530 6 136799503.243 6      -324.681 6        40.304               
E33  27281785.964 6 143367494.858 6      1531.322 6        41.307               
> 2025 01 03 15 39 02.0000000  0  6                                             
E05  27627464.715 6 145064230.940 6      1077.130 6        36.977               
E09  30227281.437 6 158686515.172 6      2832.875 6        36.607               
E24  27869604.075 6 146456519.155 6      1938.859 6        41.086               
E26  28526746.347 6 149909802.494 6     -1217.097 6        37.747               
E31  26031998.908 6 136799827.848 6      -324.008 6        40.092               
E33  27281492.376 6 143365963.316 6      1534.056 6        41.259               
> 2025 01 03 15 39 03.0000000  0  6                                             
E05  27627666.296 6 145063152.433 6      1081.900 6        36.483               
E09  30227819.598 6 158683682.999 6      2833.415 6        36.756               
E24  27869232.203 6 146454582.135 6      1934.542 6        41.225               
E26  28526977.787 6 149911020.134 6     -1221.546 6        37.641               
E31  26032058.662 6 136800151.479 6      -325.761 6        40.206               
E33  27281195.715 6 143364431.029 6      1529.904 6        41.083               
> 2025 01 03 15 39 04.0000000  0  6                                             
E05  27627863.998 6 145062071.421 6      1082.414 6        36.629               
E09  30228354.758 6 158680848.698 6      2835.325 6        36.509               
E24  27868865.941 6 146452647.299 6      1934.902 6        40.849               
E26  28527205.581 6 149912240.285 6     -1221.227 6        37.635               
E31  26032119.220 6 136800477.414 6      -325.062 6        40.233               
E33  27280900.751 6 143362901.247 6      1529.977 6        41.151               
> 2025 01 03 15 39 05.0000000  0  6                                             
E05  27628067.598 6 145060991.153 6      1082.234 6        36.451               
E09  30228892.526 6 158678015.451 6      2835.252 6        36.486               
E24  27868492.407 6 146450711.454 6      1936.058 6        40.812               
E26  28527435.716 6 149913459.732 6     -1219.714 6        37.714               
E31  26032180.386 6 136800802.412 6      -324.694 6        40.252               
E33  27280608.521 6 143361370.775 6      1530.529 6        40.850               
> 2025 01 03 15 39 06.0000000  0  6                                             
E05  27628269.590 6 145059909.058 6      1083.300 6        36.260               
E09  30229427.614 6 158675180.791 6      2835.186 6        36.528               
E24  27868118.963 6 146448777.093 6      1932.312 6        40.783               
E26  28527665.190 6 149914680.959 6     -1224.252 6        38.026               
E31  26032236.745 6 136801129.011 6      -328.502 6        40.426               
E33  27280318.667 6 143359842.103 6      1527.028 6        40.925               
> 2025 01 03 15 39 07.0000000  0  6                                             
E05  27628477.514 6 145058825.981 6      1083.376 6        36.516               
E09  30229966.812 6 158672345.405 6      2834.107 6        36.652               
E24  27867748.949 6 146446843.447 6      1934.656 6        40.620               
E26  28527895.289 6 149915903.247 6     -1219.818 6        37.528               
E31  26032297.553 6 136801456.434 6      -326.714 6        40.649               
E33  27280023.471 6 143358314.474 6      1529.156 6        40.866               
> 2025 01 03 15 39 08.0000000  0  6                                             
E05  27628678.165 6 145057743.622 6      1084.144 6        36.525               
E09  30230503.901 6 158669511.127 6      2835.215 6        36.596               
E24  27867375.468 6 146444908.760 6      1932.581 6        40.720               
E26  28528120.761 6 149917124.796 6     -1225.019 6        37.347               
E31  26032356.557 6 136801782.921 6      -326.584 6        40.643               
E33  27279727.489 6 143356786.101 6      1526.224 6        41.166               
> 2025 01 03 15 39 09.0000000  0  6                                             
E05  27628881.300 6 145056659.558 6      1083.944 6        36.420               
E09  30231045.154 6 158666675.478 6      2836.976 6        36.829               
E24  27867008.314 6 146442975.494 6      1932.551 6        40.701               
E26  28528356.953 6 149918348.065 6     -1223.975 6        37.322               
E31  26032417.937 6 136802110.930 6      -328.692 6        40.396               
E33  27279435.884 6 143355259.481 6      1526.742 6        40.848               
> 2025 01 03 15 39 10.0000000  0  6                                             
E05  27629087.633 6 145055573.539 6      1085.820 6        36.180               
E09  30231580.885 6 158663838.246 6      2835.062 6        36.609               
E24  27866637.835 6 146441043.856 6      1932.429 6        40.496               
E26  28528586.964 6 149919573.296 6     -1223.940 6        37.763               
E31  26032476.619 6 136802440.657 6      -327.905 6        40.470               
E33  27279143.940 6 143353734.818 6      1524.594 6        40.957               
> 2025 01 03 15 39 11.0000000  0  6                                             
E05  27629295.075 6 145054490.166 6      1084.933 6        36.574               
E09  30232114.901 6 158661003.998 6      2833.581 6        36.508               
E24  27866265.159 6 146439109.263 6      1934.557 6        40.445               
E26  28528812.203 6 149920795.898 6     -1223.055 6        37.875               
E31  26032535.265 6 136802767.551 6      -326.890 6        40.479               
E33  27278847.868 6 143352207.525 6      1527.691 6        40.605               
> 2025 01 03 15 39 12.0000000  0  6                                             
E05  27629494.922 6 145053405.062 6      1087.031 6        36.765               
E09  30232648.487 6 158658168.342 6      2836.711 6        36.574               
E24  27865893.823 6 146437176.125 6      1930.624 6        40.416               
E26  28529045.197 6 149922020.251 6     -1226.740 6        37.983               
E31  26032594.876 6 136803095.992 6      -331.156 6        40.108               
E33  27278557.336 6 143350682.022 6      1523.030 6        40.589               
> 2025 01 03 15 39 13.0000000  0  6                                             
E05  27629704.955 6 145052317.188 6      1091.647 6        36.704               
E09  30233189.311 6 158655330.276 6      2839.295 6        36.271               
E24  27865527.490 6 146435245.427 6      1929.621 6        40.572               
E26  28529277.244 6 149923247.404 6     -1231.173 6        37.943               
E31  26032655.934 6 136803427.002 6      -333.735 6        40.351               
E33  27278264.212 6 143349159.257 6      1521.526 6        40.417               
> 2025 01 03 15 39 14.0000000  0  6                                             
E05  27629909.787 6 145051229.632 6      1085.994 6        36.782               
E09  30233730.975 6 158652492.865 6      2835.781 6        36.473               
E24  27865156.600 6 146433314.140 6      1931.536 6        40.802               
E26  28529506.557 6 149924474.221 6     -1223.550 6        37.469               
E31  26032714.170 6 136803757.496 6      -327.577 6        40.446               
E33  27277970.660 6 143347636.228 6      1524.485 6        40.525               
> 2025 01 03 15 39 15.0000000  0  6                                             
E05  27630110.242 6 145050142.659 6      1085.969 6        36.643               
E09  30234265.027 6 158649656.397 6      2839.808 6        36.307               
E24  27864788.248 6 146431381.951 6      1932.947 6        40.894               
E26  28529739.498 6 149925700.511 6     -1227.594 6        37.769               
E31  26032773.298 6 136804087.188 6      -329.744 6        40.278               
E33  27277681.485 6 143346112.604 6      1522.586 6        40.497               
> 2025 01 03 15 39 16.0000000  0  6                                             
E05  27630313.824 6 145049057.470 6      1085.780 6        36.467               
E09  30234803.599 6 158646822.069 6      2835.003 6        36.467               
E24  27864417.001 6 146429447.687 6      1933.558 6        40.821               
E26  28529971.884 6 149926924.977 6     -1222.829 6        38.055               
E31  26032835.768 6 136804414.938 6      -328.814 6        40.370               
E33  27277386.754 6 143344587.244 6      1523.634 6        40.505               
> 2025 01 03 15 39 17.0000000  0  6                                             
E05  27630517.977 6 145047973.013 6      1085.514 6        36.756               
E09  30235338.026 6 158643988.806 6      2836.416 6        36.534               
E24  27864046.755 6 146427512.370 6      1933.157 6        40.467               
E26  28530201.894 6 149928148.759 6     -1223.301 6        38.329               
E31  26032893.271 6 136804741.724 6      -327.243 6        40.288               
E33  27277093.380 6 143343061.138 6      1526.147 6        40.593               
> 2025 01 03 15 39 18.0000000  0  6                                             
E05  27630726.527 6 145046888.086 6      1086.317 6        36.748               
E09  30235871.934 6 158641155.424 6      2831.940 6        36.196               
E24  27863674.847 6 146425577.229 6      1934.435 6        40.643               
E26  28530431.333 6 149929373.010 6     -1223.509 6        38.061               
E31  26032953.203 6 136805068.793 6      -327.353 6        39.951               
E33  27276800.149 6 143341535.545 6      1524.543 6        40.696               
> 2025 01 03 15 39 19.0000000  0  6                                             
E05  27630926.249 6 145045802.878 6      1086.558 6        36.923               
E09  30236413.651 6 158638322.073 6      2831.896 6        36.672               
E24  27863301.849 6 146423642.074 6      1934.774 6        40.862               
E26  28530662.397 6 149930597.577 6     -1227.045 6        38.192               
E31  26033012.171 6 136805395.950 6      -327.971 6        40.022               
E33  27276510.743 6 143340010.257 6      1524.012 6        40.851               
> 2025 01 03 15 39 20.0000000  0  6                                             
E05  27631130.420 6 145044716.941 6      1085.741 6        36.903               
E09  30236947.453 6 158635488.378 6      2834.388 6        36.482               
E24  27862932.514 6 146421707.323 6      1936.563 6        41.164               
E26  28530887.672 6 149931822.854 6     -1226.934 6        38.091               
E31  26033074.338 6 136805723.617 6      -327.300 6        39.931               
E33  27276216.208 6 143338485.686 6      1523.571 6        40.924               
> 2025 01 03 15 39 21.0000000  0  6                                             
E05  27631333.519 6 145043632.447 6      1085.335 6        37.137               
E09  30237481.969 6 158632656.454 6      2833.671 6        36.303               
E24  27862563.305 6 146419770.860 6      1936.946 6        40.940               
E26  28531124.222 6 149933046.743 6     -1224.375 6        37.689               
E31  26033132.430 6 136806049.659 6      -327.168 6        39.943               
E33  27275921.762 6 143336959.735 6      1523.921 6        40.932               
> 2025 01 03 15 39 22.0000000  0  6                                             
E05  27631535.314 6 145042549.714 6      1084.195 6        37.317               
E09  30238017.914 6 158629826.626 6      2833.048 6        36.231               
E24  27862194.863 6 146417832.327 6      1936.445 6        41.300               
E26  28531352.159 6 149934268.845 6     -1221.606 6        37.569               
E31  26033192.863 6 136806373.741 6      -327.106 6        40.087               
E33  27275632.337 6 143335432.004 6      1524.616 6        41.052               
> 2025 01 03 15 39 23.0000000  0  6                                             
E05  27631739.736 6 145041465.462 6      1086.922 6        37.184               
E09  30238557.148 6 158626995.692 6      2832.312 6        36.566               
E24  27861820.722 6 146415894.968 6      1937.001 6        41.162               
E26  28531581.043 6 149935492.496 6     -1225.332 6        37.947               
E31  26033253.653 6 136806699.119 6      -325.850 6        40.331               
E33  27275338.017 6 143333905.792 6      1525.989 6        40.877               
> 2025 01 03 15 39 24.0000000  0  6                                             
E05  27631948.035 6 145040378.712 6      1086.226 6        36.923               
E09  30239094.452 6 158624162.517 6      2833.873 6        36.544               
E24  27861448.099 6 146413959.871 6      1936.059 6        41.496               
E26  28531814.341 6 149936718.704 6     -1226.143 6        37.880               
E31  26033313.443 6 136807026.848 6      -327.932 6        40.186               
E33  27275045.000 6 143332382.169 6      1523.029 6        41.145               
> 2025 01 03 15 39 25.0000000  0  6                                             
E05  27632149.008 6 145039291.319 6      1086.036 6        37.249               
E09  30239628.807 6 158621329.095 6      2833.628 6        36.189               
E24  27861076.870 6 146412025.058 6      1936.289 6        41.379               
E26  28532048.443 6 149937945.468 6     -1224.782 6        37.440               
E31  26033372.500 6 136807354.966 6      -327.513 6        40.235               
E33  27274755.397 6 143330859.148 6      1524.328 6        41.112               
> 2025 01 03 15 39 26.0000000  0  6                                             
E05  27632353.180 6 145038205.065 6      1086.421 6        37.100               
E09  30240166.950 5 158618497.144 5      2832.721 5        35.977               
E24  27860707.428 6 146410088.833 6      1938.092 6        41.109               
E26  28532271.038 6 149939171.168 6     -1225.802 6        37.828               
E31  26033433.451 6 136807681.788 6      -326.961 6        40.475               
E33  27274458.485 6 143329335.034 6      1522.093 6        41.048               
> 2025 01 03 15 39 27.0000000  0  6                                             
E05  27632559.602 6 145037119.048 6      1088.981 6        37.361               
E09  30240699.072 6 158615665.780 6      2831.396 6        36.102               
E24  27860336.985 6 146408152.051 6      1935.013 6        40.975               
E26  28532502.102 6 149940396.614 6     -1226.745 6        37.842               
E31  26033491.526 6 136808008.151 6      -328.241 6        40.448               
E33  27274167.899 6 143327810.684 6      1524.345 6        41.291               
> 2025 01 03 15 39 28.0000000  0  6                                             
E05  27632761.308 6 145036031.830 6      1088.906 6        37.293               
E09  30241241.039 6 158612833.543 6      2834.687 6        36.083               
E24  27859962.915 6 146406216.202 6      1937.351 6        40.847               
E26  28532734.096 6 149941623.349 6     -1229.887 6        37.889               
E31  26033551.387 6 136808335.548 6      -326.628 6        40.306               
E33  27273876.116 6 143326287.604 6      1522.829 6        41.284               
> 2025 01 03 15 39 29.0000000  0  6                                             
E05  27632965.319 6 145034945.219 6      1087.400 6        37.040               
E09  30241780.255 6 158610002.306 6      2833.815 6        36.226               
E24  27859592.258 6 146404279.413 6      1937.001 6        40.752               
E26  28532964.427 6 149942849.427 6     -1226.767 6        38.120               
E31  26033611.337 6 136808662.099 6      -326.331 6        40.351               
E33  27273582.457 6 143324763.885 6      1522.290 6        41.181               
> 2025 01 03 15 39 30.0000000  0  6                                             
E05  27633166.077 6 145033856.641 6      1088.804 6        36.668               
E09  30242312.180 6 158607169.456 6      2831.565 6        36.518               
E24  27859221.762 6 146402344.292 6      1937.415 6        40.782               
E26  28533198.244 6 149944077.481 6     -1225.629 6        37.896               
E31  26033670.841 6 136808990.441 6      -327.827 6        40.353               
E33  27273293.711 6 143323242.145 6      1523.710 6        41.101               
> 2025 01 03 15 39 31.0000000  0  6                                             
E05  27633369.605 6 145032769.009 6      1083.341 6        36.811               
E09  30242845.910 6 158604337.828 6      2833.209 6        36.277               
E24  27858850.497 6 146400407.964 6      1935.459 6        40.736               
E26  28533428.718 6 149945304.637 6     -1231.619 6        37.560               
E31  26033730.863 6 136809317.657 6      -329.846 6        40.293               
E33  27273000.427 6 143321719.518 6      1520.568 6        41.054               
> 2025 01 03 15 39 32.0000000  0  6                                             
E05  27633580.960 6 145031679.650 6      1091.025 6        36.676               
E09  30243383.142 6 158601504.832 6      2834.427 6        36.293               
E24  27858479.536 6 146398473.030 6      1935.148 6        40.939               
E26  28533659.926 6 149946533.531 6     -1230.860 6        37.606               
E31  26033789.903 6 136809646.377 6      -330.271 6        40.235               
E33  27272704.498 6 143320198.634 6      1520.239 6        41.254               
> 2025 01 03 15 39 33.0000000  0  6                                             
E05  27633780.307 6 145030588.586 6      1091.518 6        36.840               
E09  30243921.125 6 158598670.526 6      2834.107 6        36.216               
E24  27858111.041 6 146396539.506 6      1933.110 6        41.014               
E26  28533889.507 6 149947764.115 6     -1229.184 6        37.355               
E31  26033850.943 6 136809976.617 6      -329.641 6        40.286               
E33  27272411.196 6 143318679.464 6      1518.298 6        41.209               
> 2025 01 03 15 39 34.0000000  0  6                                             
E05  27633991.965 6 145029497.116 6      1091.147 6        36.647               
E09  30244457.964 6 158595836.131 6      2833.473 6        36.051               
E24  27857739.455 6 146394606.083 6      1930.709 6        40.732               
E26  28534121.858 6 149948995.146 6     -1231.907 6        37.502               
E31  26033910.518 6 136810307.064 6      -331.997 6        40.601               
E33  27272123.701 6 143317160.722 6      1518.094 6        41.268               
> 2025 01 03 15 39 35.0000000  0  6                                             
E05  27634192.206 6 145028405.269 6      1094.038 6        36.897               
E09  30244991.033 5 158593001.703 5      2833.188 5        35.954               
E24  27857368.923 6 146392672.717 6      1933.719 6        40.971               
E26  28534352.797 6 149950226.527 6     -1232.464 6        37.657               
E31  26033969.540 6 136810637.668 6      -330.738 6        40.525               
E33  27271831.042 6 143315642.365 6      1517.938 6        40.995               
> 2025 01 03 15 39 36.0000000  0  6                                             
E05  27634400.684 6 145027312.593 6      1090.164 6        36.955               
E09  30245524.798 6 158590166.778 6      2835.608 6        36.177               
E24  27856996.264 6 146390739.939 6      1932.205 6        40.808               
E26  28534582.932 6 149951458.809 6     -1232.202 6        37.579               
E31  26034030.723 6 136810968.957 6      -330.399 6        40.438               
E33  27271540.367 6 143314124.896 6      1517.367 6        41.034               
> 2025 01 03 15 39 37.0000000  0  6                                             
E05  27634604.998 6 145026219.301 6      1092.928 6        36.945               
E09  30246061.423 6 158587331.640 6      2835.485 6        36.182               
E24  27856632.433 6 146388807.399 6      1930.205 6        41.253               
E26  28534814.961 6 149952691.660 6     -1233.252 6        37.272               
E31  26034092.461 6 136811300.608 6      -331.810 6        40.689               
E33  27271251.496 6 143312607.996 6      1516.419 6        40.935               
> 2025 01 03 15 39 38.0000000  0  6                                             
E05  27634810.117 6 145025125.239 6      1091.754 6        36.832               
E09  30246602.068 5 158584496.002 5      2836.344 5        35.864               
E24  27856260.043 6 146386875.375 6      1930.122 6        41.216               
E26  28535042.059 6 149953925.330 6     -1232.581 6        37.433               
E31  26034152.483 6 136811632.864 6      -331.964 6        40.602               
E33  27270955.710 6 143311091.943 6      1515.509 6        40.899               
> 2025 01 03 15 39 39.0000000  0  6                                             
E05  27635016.361 6 145024030.660 6      1095.264 6        36.859               
E09  30247139.979 6 158581660.281 6      2835.359 6        36.189               
E24  27855886.777 6 146384943.532 6      1932.293 6        41.125               
E26  28535276.643 6 149955159.511 6     -1233.203 6        37.475               
E31  26034212.344 6 136811965.387 6      -330.701 6        40.639               
E33  27270665.625 6 143309576.384 6      1516.068 6        40.897               
> 2025 01 03 15 39 40.0000000  0  6                                             
E05  27635217.888 6 145022936.723 6      1090.421 6        36.814               
E09  30247672.548 6 158578825.473 6      2834.196 6        36.304               
E24  27855518.085 6 146383010.807 6      1931.482 6        41.310               
E26  28535515.659 6 149956393.125 6     -1231.891 6        37.494               
E31  26034273.331 6 136812297.172 6      -332.824 6        40.615               
E33  27270374.753 6 143308060.264 6      1517.128 6        40.655               
> 2025 01 03 15 39 41.0000000  0  6                                             
E05  27635426.902 6 145021841.549 6      1091.669 6        36.827               
E09  30248216.892 6 158575989.842 6      2835.994 6        36.245               
E24  27855147.446 6 146381078.916 6      1932.182 6        41.547               
E26  28535743.650 6 149957627.883 6     -1233.831 6        37.346               
E31  26034330.226 6 136812629.889 6      -331.923 6        40.646               
E33  27270081.361 6 143306545.317 6      1515.745 6        40.804               
> 2025 01 03 15 39 42.0000000  0  6                                             
E05  27635630.072 6 145020745.849 6      1095.261 6        36.857               
E09  30248753.087 6 158573153.991 6      2835.145 6        36.310               
E24  27854779.594 6 146379147.331 6      1931.124 6        41.471               
E26  28535977.055 6 149958863.261 6     -1236.201 6        37.227               
E31  26034394.537 6 136812962.987 6      -333.524 6        40.635               
E33  27269790.900 6 143305030.966 6      1512.132 6        40.716               
> 2025 01 03 15 39 43.0000000  0  6                                             
E05  27635841.910 6 145019648.670 6      1097.279 6        36.462               
E09  30249284.852 6 158570317.015 6      2836.956 6        36.648               
E24  27854409.598 6 146377216.909 6      1931.062 6        41.258               
E26  28536212.247 6 149960100.092 6     -1237.839 6        37.214               
E31  26034455.131 6 136813297.357 6      -334.536 6        40.600               
E33  27269501.547 6 143303518.102 6      1512.843 6        40.646               
> 2025 01 03 15 39 44.0000000  0  6                                             
E05  27636041.221 6 145018552.669 6      1097.546 6        36.357               
E09  30249827.909 6 158567481.569 6      2834.152 6        36.671               
E24  27854037.922 6 146375285.005 6      1931.670 6        41.181               
E26  28536444.044 6 149961335.775 6     -1236.654 6        36.769               
E31  26034517.333 6 136813630.364 6      -333.220 6        40.727               
E33  27269207.208 6 143302004.091 6      1511.694 6        40.848               
> 2025 01 03 15 39 45.0000000  0  6                                             
E05  27636250.539 6 145017454.589 6      1093.906 6        36.226               
E09  30250361.764 6 158564644.367 6      2831.707 6        36.636               
E24  27853668.123 6 146373354.885 6      1933.226 6        40.827               
E26  28536677.217 6 149962573.557 6     -1233.077 6        37.161               
E31  26034579.320 6 136813965.243 6      -332.241 6        40.728               
E33  27268919.714 6 143300492.194 6      1515.147 6        41.083               
> 2025 01 03 15 39 46.0000000  0  6                                             
E05  27636455.925 6 145016358.557 6      1094.957 6        36.490               
E09  30250903.517 6 158561809.582 6      2835.842 6        36.150               
E24  27853295.858 6 146371422.397 6      1932.196 6        40.576               
E26  28536907.853 6 149963809.290 6     -1238.109 6        37.149               
E31  26034639.378 6 136814297.870 6      -334.891 6        40.379               
E33  27268631.862 6 143298978.257 6      1511.674 6        40.701               
> 2025 01 03 15 39 47.0000000  0  6                                             
E05  27636667.316 6 145015262.229 6      1098.644 6        36.465               
E09  30251436.496 6 158558974.852 6      2830.641 6        36.321               
E24  27852925.808 6 146369489.923 6      1931.407 6        40.289               
E26  28537139.507 6 149965045.337 6     -1236.792 6        36.879               
E31  26034698.346 6 136814630.602 6      -333.396 6        40.980               
E33  27268338.095 6 143297464.627 6      1512.824 6        40.936               
> 2025 01 03 15 39 48.0000000  0  6                                             
E05  27636870.486 6 145014164.401 6      1098.200 6        36.690               
E09  30251973.675 6 158556138.970 6      2832.453 6        36.325               
E24  27852557.206 6 146367558.634 6      1933.010 6        40.337               
E26  28537375.789 6 149966282.895 6     -1237.347 6        37.416               
E31  26034761.013 6 136814964.648 6      -332.923 6        41.097               
E33  27268048.456 6 143295952.522 6      1513.418 6        40.700               
> 2025 01 03 15 39 49.0000000  0  6                                             
E05  27637078.142 6 145013067.001 6      1096.549 6        37.021               
E09  30252508.977 6 158553303.848 6      2834.103 6        36.466               
E24  27852186.209 6 146365626.644 6      1932.003 6        40.595               
E26  28537611.517 6 149967520.077 6     -1236.679 6        37.343               
E31  26034822.661 6 136815298.071 6      -333.841 6        41.016               
E33  27267761.122 6 143294440.030 6      1512.862 6        40.575               
> 2025 01 03 15 39 50.0000000  0  6                                             
E05  27637286.084 6 145011970.029 6      1096.372 6        36.921               
E09  30253050.069 6 158550469.496 6      2831.089 6        36.323               
E24  27851814.569 6 146363693.909 6      1934.110 6        40.710               
E26  28537840.241 6 149968756.779 6     -1235.850 6        37.388               
E31  26034884.559 6 136815630.853 6      -333.470 6        40.592               
E33  27267470.339 6 143292927.120 6      1514.203 6        40.445               
> 2025 01 03 15 39 51.0000000  0  6                                             
E05  27637490.256 6 145010872.777 6      1101.348 6        36.527               
E09  30253581.244 6 158547635.225 6      2833.670 6        36.418               
E24  27851446.521 6 146361761.136 6      1931.724 6        40.869               
E26  28538077.059 6 149969993.804 6     -1239.420 6        37.438               
E31  26034942.937 6 136815963.706 6      -332.971 6        40.796               
E33  27267180.772 6 143291414.494 6      1513.079 6        40.550               
> 2025 01 03 15 39 52.0000000  0  6                                             
E05  27637694.034 6 145009774.543 6      1099.655 6        37.063               
E09  30254122.890 6 158544800.317 6      2832.648 6        36.421               
E24  27851076.328 6 146359829.039 6      1933.666 6        40.776               
E26  28538310.839 6 149971231.835 6     -1237.101 6        37.316               
E31  26035004.871 6 136816297.368 6      -331.557 6        40.545               
E33  27266891.901 6 143289902.888 6      1511.889 6        40.894               
> 2025 01 03 15 39 53.0000000  0  6                                             
E05  27637900.904 6 145008677.315 6      1092.811 6        36.946               
E09  30254656.798 6 158541966.736 6      2832.660 6        36.038               
E24  27850704.081 6 146357895.709 6      1934.912 6        40.877               
E26  28538541.099 6 149972468.867 6     -1236.728 6        37.387               
E31  26035065.000 6 136816629.829 6      -331.138 6        40.730               
E33  27266601.798 6 143288390.308 6      1513.747 6        40.768               
> 2025 01 03 15 39 54.0000000  0  6                                             
E05  27638112.777 6 145007580.247 6      1101.344 6        36.884               
E09  30255196.032 6 158539133.685 6      2836.576 6        36.301               
E24  27850335.157 6 146355961.856 6      1930.755 6        40.929               
E26  28538777.060 6 149973705.786 6     -1239.476 6        37.406               
E31  26035123.271 6 136816961.934 6      -334.529 6        40.632               
E33  27266308.102 6 143286877.582 6      1510.062 6        40.889               
> 2025 01 03 15 39 55.0000000  0  6                                             
E05  27638314.732 6 145006482.134 6      1097.827 6        36.905               
E09  30255728.546 6 158536299.939 6      2834.233 6        36.475               
E24  27849961.552 6 146354028.765 6      1932.574 6        41.028               
E26  28539006.677 6 149974943.718 6     -1239.009 6        37.370               
E31  26035184.222 6 136817294.885 6      -335.449 6        40.674               
E33  27266020.411 6 143285365.916 6      1510.458 6        40.976               
> 2025 01 03 15 39 56.0000000  0  6                                             
E05  27638519.011 6 145005384.113 6      1096.590 6        36.434               
E09  30256268.691 6 158533466.653 6      2830.491 6        36.435               
E24  27849593.736 6 146352095.291 6      1936.201 6        41.139               
E26  28539239.903 6 149976181.562 6     -1235.189 6        37.506               
E31  26035246.335 6 136817627.534 6      -330.233 6        40.809               
E33  27265729.414 6 143283854.186 6      1513.201 6        41.171               
> 2025 01 03 15 39 57.0000000  0  6                                             
E05  27638728.615 6 145004285.759 6      1095.913 6        36.482               
E09  30256808.747 6 158530633.354 6      2834.688 6        36.641               
E24  27849221.113 6 146350161.819 6      1933.439 6        41.066               
E26  28539469.109 6 149977419.780 6     -1238.372 6        37.625               
E31  26035306.875 6 136817960.331 6      -332.010 6        40.912               
E33  27265441.544 6 143282342.802 6      1510.702 6        41.059               
> 2025 01 03 15 39 58.0000000  0  6                                             
E05  27638933.805 6 145003187.920 6      1098.863 6        36.804               
E09  30257338.921 6 158527800.927 6      2832.820 6        36.466               
E24  27848850.045 6 146348227.553 6      1936.397 6        41.232               
E26  28539709.197 6 149978657.475 6     -1236.022 6        37.264               
E31  26035368.559 6 136818292.416 6      -330.167 6        40.367               
E33  27265146.294 6 143280830.930 6      1513.164 6        41.029               
> 2025 01 03 15 39 59.0000000  0  6                                             
E05  27639139.960 6 145002090.999 6      1099.365 6        36.502               
E09  30257877.386 6 158524969.781 6      2828.141 6        36.665               
E24  27848480.317 6 146346292.055 6      1937.205 6        41.555               
E26  28539939.172 6 149979894.256 6     -1234.323 6        37.471               
E31  26035428.045 6 136818623.352 6      -328.853 6        40.643               
E33  27264855.333 6 143279318.137 6      1515.146 6        40.968               
> 2025 01 03 15 40 00.0000000  0  6                                             
E05  27639348.366 6 145000994.021 6      1096.752 6        36.087               
E09  30258412.617 6 158522138.883 6      2826.423 6        36.711               
E24  27848109.088 6 146344356.344 6      1936.254 6        41.699               
E26  28540174.703 6 149981131.170 6     -1237.455 6        37.538               
E31  26035486.477 6 136818954.216 6      -329.376 6        40.762               
E33  27264565.676 6 143277805.476 6      1513.894 6        40.851               
> 2025 01 03 15 40 01.0000000  0  6                                             
E05  27639553.127 6 144999896.441 6      1095.455 6        36.236               
E09  30258950.170 6 158519307.770 6      2830.882 6        36.695               
E24  27847739.413 6 146342420.909 6      1935.875 6        41.356               
E26  28540404.034 6 149982368.661 6     -1237.608 6        37.789               
E31  26035548.357 6 136819285.427 6      -330.524 6        40.638               
E33  27264277.985 6 143276293.413 6      1513.426 6        40.785               
> 2025 01 03 15 40 02.0000000  0  6                                             
E05  27639762.624 6 144998798.490 6      1102.779 6        36.324               
E09  30259485.401 6 158516476.595 6      2832.570 6        36.506               
E24  27847369.614 6 146340485.560 6      1933.694 6        41.076               
E26  28540633.973 6 149983606.522 6     -1239.165 6        37.395               
E31  26035609.773 6 136819616.846 6      -332.879 6        40.446               
E33  27263985.701 6 143274781.735 6      1508.444 6        40.816               
> 2025 01 03 15 40 03.0000000  0  6                                             
E05  27639971.763 6 144997701.137 6      1098.859 6        36.579               
E09  30260023.027 6 158513646.401 6      2831.081 6        36.542               
E24  27846999.600 6 146338549.306 6      1934.247 6        41.002               
E26  28540867.182 6 149984843.818 6     -1238.919 6        37.784               
E31  26035668.616 6 136819947.446 6      -331.985 6        40.406               
E33  27263694.204 6 143273269.481 6      1511.077 6        40.815               
> 2025 01 03 15 40 04.0000000  0  6                                             
E05  27640173.093 6 144996603.419 6      1096.618 6        36.857               
E09  30260559.347 6 158510816.201 6      2826.326 6        36.559               
E24  27846625.459 6 146336613.107 6      1936.781 6        41.026               
E26  28541100.908 6 149986081.478 6     -1237.999 6        38.289               
E31  26035729.603 6 136820278.244 6      -329.486 6        40.377               
E33  27263405.512 6 143271757.614 6      1512.436 6        41.088               
> 2025 01 03 15 40 05.0000000  0  6                                             
E05  27640380.463 6 144995505.501 6      1097.909 6        36.789               
E09  30261092.523 6 158507986.141 6      2825.852 6        36.640               
E24  27846253.568 6 146334676.811 6      1937.264 6        40.990               
E26  28541334.814 6 149987319.361 6     -1238.098 6        38.503               
E31  26035790.876 6 136820609.020 6      -330.719 6        40.304               
E33  27263110.637 6 143270245.976 6      1510.964 6        41.407               
> 2025 01 03 15 40 06.0000000  0  6                                             
E05  27640585.474 6 144994407.525 6      1095.747 6        37.036               
E09  30261633.812 6 158505156.329 6      2826.539 6        36.431               
E24  27845885.377 6 146332740.288 6      1938.062 6        41.096               
E26  28541565.289 6 149988557.298 6     -1236.997 6        38.354               
E31  26035852.059 6 136820939.689 6      -328.791 6        40.074               
E33  27262825.019 6 143268734.434 6      1513.287 6        41.089               
> 2025 01 03 15 40 07.0000000  0  6                                             
E05  27640793.416 6 144993309.708 6      1098.103 6        36.911               
E09  30262167.613 6 158502327.050 6      2827.206 6        36.369               
E24  27845515.310 6 146330803.324 6      1938.190 6        41.038               
E26  28541801.571 6 149989795.125 6     -1237.918 6        38.448               
E31  26035912.600 6 136821269.994 6      -328.972 6        40.218               
E33  27262535.255 6 143267222.744 6      1512.461 6        41.005               
> 2025 01 03 15 40 08.0000000  0  6                                             
E05  27641002.644 6 144992212.338 6      1098.996 6        37.189               
E09  30262705.381 6 158499498.544 6      2829.457 6        36.052               
E24  27845141.025 6 146328865.583 6      1937.372 6        41.053               
E26  28542031.009 6 149991032.523 6     -1239.400 6        38.191               
E31  26035971.246 6 136821599.633 6      -329.169 6        40.429               
E33  27262244.669 6 143265710.627 6      1510.969 6        41.083               
> 2025 01 03 15 40 09.0000000  0  6                                             
E05  27641203.474 6 144991113.028 6      1101.207 6        36.774               
E09  30263238.897 6 158496668.464 6      2830.476 6        36.268               
E24  27844775.675 6 146326929.487 6      1935.296 6        40.976               
E26  28542267.809 6 149992271.816 6     -1238.852 6        38.161               
E31  26036032.090 6 136821931.034 6      -331.812 6        40.234               
E33  27261954.887 6 143264200.472 6      1511.277 6        40.987               
> 2025 01 03 15 40 10.0000000  0  6                                             
E05  27641417.867 6 144990015.603 6      1096.255 6        37.044               
E09  30263773.949 6 158493840.630 6      2826.291 6        36.233               
E24  27844397.102 6 146324991.205 6      1938.100 6        41.194               
E26  28542499.981 6 149993509.304 6     -1236.967 6        38.699               
E31  26036092.201 6 136822260.335 6      -330.128 6        40.301               
E33  27261662.299 6 143262688.464 6      1511.558 6        41.226               
> 2025 01 03 15 40 11.0000000  0  6                                             
E05  27641620.734 6 144988917.273 6      1098.516 6        37.130               
E09  30264311.074 6 158491012.239 6      2829.452 6        36.120               
E24  27844031.645 6 146323053.532 6      1937.700 6        41.481               
E26  28542730.670 6 149994747.688 6     -1240.253 6        38.269               
E31  26036153.581 6 136822590.360 6      -329.048 6        40.747               
E33  27261377.539 6 143261177.380 6      1511.887 6        41.246               
> 2025 01 03 15 40 12.0000000  0  6                                             
E05  27641823.208 6 144987817.549 6      1098.110 6        37.019               
E09  30264845.858 6 158488182.788 6      2825.286 6        36.182               
E24  27843657.217 6 146321116.971 6      1937.913 6        41.196               
E26  28542966.291 6 149995987.462 6     -1241.822 6        38.065               
E31  26036214.372 6 136822921.599 6      -331.106 6        40.659               
E33  27261082.164 6 143259667.708 6      1510.425 6        41.270               
> 2025 01 03 15 40 13.0000000  0  6                                             
E05  27642032.383 6 144986717.761 6      1101.134 6        37.244               
E09  30265386.056 6 158485353.632 6      2829.223 6        36.156               
E24  27843287.150 6 146319180.152 6      1936.094 6        41.009               
E26  28543198.267 6 149997227.298 6     -1238.637 6        37.797               
E31  26036273.482 6 136823252.675 6      -330.353 6        40.503               
E33  27260795.491 6 143258158.126 6      1507.807 6        41.055               
> 2025 01 03 15 40 14.0000000  0  6                                             
E05  27642241.665 6 144985617.559 6      1100.935 6        37.109               
E09  30265915.283 6 158482524.392 6      2828.883 6        36.213               
E24  27842915.671 6 146317243.466 6      1934.556 6        40.950               
E26  28543433.012 6 149998467.609 6     -1240.988 6        37.791               
E31  26036333.540 6 136823583.992 6      -332.935 6        40.500               
E33  27260506.317 6 143256648.983 6      1509.712 6        40.895               
> 2025 01 03 15 40 15.0000000  0  6                                             
E05  27642444.567 6 144984517.273 6      1098.829 6        37.119               
E09  30266451.265 6 158479695.437 6      2826.157 6        36.363               
E24  27842547.194 6 146315306.540 6      1937.915 6        40.954               
E26  28543668.633 6 149999707.997 6     -1241.122 6        37.748               
E31  26036393.759 6 136823915.178 6      -329.480 6        40.358               
E33  27260216.410 6 143255139.926 6      1510.488 6        41.011               
> 2025 01 03 15 40 16.0000000  0  6                                             
E05  27642653.653 6 144983416.834 6      1101.687 6        37.126               
E09  30266989.051 6 158476866.698 6      2827.789 6        36.462               
E24  27842175.661 6 146313369.467 6      1935.371 6        41.002               
E26  28543901.896 6 150000948.511 6     -1240.250 6        37.838               
E31  26036454.746 6 136824246.311 6      -332.067 6        40.341               
E33  27259925.019 6 143253631.054 6      1507.942 6        40.963               
> 2025 01 03 15 40 17.0000000  0  6                                             
E05  27642859.254 6 144982314.933 6      1101.133 6        36.734               
E09  30267526.068 6 158474036.777 6      2828.806 6        36.573               
E24  27841801.001 6 146311433.607 6      1936.125 6        40.833               
E26  28544132.763 6 150002190.554 6     -1242.363 6        37.789               
E31  26036515.250 6 136824578.762 6      -333.145 6        40.192               
E33  27259636.738 6 143252123.701 6      1506.999 6        41.006               
> 2025 01 03 15 40 18.0000000  0  6                                             
E05  27643064.944 6 144981212.777 6      1102.341 6        36.777               
E09  30268059.352 6 158471206.984 6      2832.523 6        36.423               
E24  27841431.380 6 146309497.656 6      1935.511 6        40.964               
E26  28544365.061 6 150003432.874 6     -1244.510 6        38.032               
E31  26036575.362 6 136824911.228 6      -332.140 6        40.376               
E33  27259344.902 6 143250616.585 6      1506.717 6        40.996               
> 2025 01 03 15 40 19.0000000  0  6                                             
E05  27643272.582 6 144980110.711 6      1102.947 6        36.746               
E09  30268593.099 6 158468377.657 6      2829.296 6        36.547               
E24  27841062.957 6 146307561.343 6      1935.868 6        41.087               
E26  28544600.860 6 150004675.081 6     -1241.909 6        38.126               
E31  26036635.580 6 136825243.431 6      -332.076 6        40.762               
E33  27259055.799 6 143249109.433 6      1505.880 6        41.116               
> 2025 01 03 15 40 20.0000000  0  6                                             
E05  27643481.006 6 144979008.380 6      1100.815 6        36.627               
E09  30269130.331 6 158465548.365 6      2831.045 6        36.247               
E24  27840689.905 6 146305624.976 6      1935.995 6        40.851               
E26  28544835.302 6 150005917.573 6     -1240.185 6        37.690               
E31  26036697.175 6 136825575.694 6      -333.700 6        40.778               
E33  27258767.500 6 143247602.533 6      1506.538 6        41.062               
> 2025 01 03 15 40 21.0000000  0  6                                             
E05  27643684.713 6 144977905.987 6      1102.210 6        36.562               
E09  30269667.260 6 158462719.399 6      2829.931 6        36.320               
E24  27840318.944 6 146303688.391 6      1935.587 6        40.773               
E26  28545070.923 6 150007160.141 6     -1242.522 6        37.485               
E31  26036760.199 6 136825907.830 6      -333.499 6        40.802               
E33  27258480.470 6 143246095.748 6      1506.871 6        41.005               
> 2025 01 03 15 40 22.0000000  0  6                                             
E05  27643892.744 6 144976803.457 6      1103.610 6        36.458               
E09  30270200.275 6 158459890.602 6      2827.151 6        36.261               
E24  27839948.519 6 146301751.650 6      1935.147 6        40.938               
E26  28545305.668 6 150008402.888 6     -1244.567 6        37.805               
E31  26036817.576 6 136826239.903 6      -332.630 6        40.814               
E33  27258190.187 6 143244589.154 6      1506.943 6        40.753               
> 2025 01 03 15 40 23.0000000  0  6                                             
E05  27644102.527 6 144975700.019 6      1106.501 6        36.536               
E09  30270738.990 6 158457061.279 6      2831.570 6        36.256               
E24  27839575.611 6 146299815.479 6      1935.641 6        40.627               
E26  28545536.643 6 150009646.537 6     -1243.848 6        37.976               
E31  26036880.404 6 136826572.697 6      -332.883 6        40.865               
E33  27257899.369 6 143243083.447 6      1503.845 6        40.655               
> 2025 01 03 15 40 24.0000000  0  6                                             
E05  27644312.309 6 144974595.068 6      1105.306 6        36.595               
E09  30271279.350 6 158454230.838 6      2826.833 6        36.225               
E24  27839205.275 6 146297880.534 6      1934.240 6        40.557               
E26  28545771.013 6 150010891.671 6     -1246.673 6        37.842               
E31  26036938.871 6 136826906.766 6      -334.239 6        40.892               
E33  27257612.679 6 143241579.256 6      1503.424 6        40.989               
> 2025 01 03 15 40 25.0000000  0  6                                             
E05  27644514.569 6 144973489.278 6      1107.626 6        36.761               
E09  30271815.099 6 158451399.796 6      2830.397 6        36.184               
E24  27838833.760 6 146295946.177 6      1933.125 6        40.832               
E26  28546005.491 6 150012137.712 6     -1246.416 6        38.021               
E31  26037001.413 6 136827241.536 6      -333.701 6        41.097               
E33  27257321.628 6 143240075.986 6      1503.137 6        41.044               
> 2025 01 03 15 40 26.0000000  0  6                                             
E05  27644725.959 6 144972383.509 6      1106.785 6        36.630               
E09  30272346.577 5 158448569.179 5      2832.111 5        35.931               
E24  27838464.015 6 146294011.463 6      1933.495 6        40.594               
E26  28546242.202 6 150013383.739 6     -1245.907 6        37.760               
E31  26037062.382 6 136827576.061 6      -333.073 6        40.716               
E33  27257036.528 6 143238572.687 6      1503.474 6        40.941               
> 2025 01 03 15 40 27.0000000  0  6                                             
E05  27644931.292 6 144971277.122 6      1105.951 6        36.839               
E09  30272875.857 5 158445738.313 5      2831.130 5        35.964               
E24  27838092.428 6 146292077.080 6      1933.827 6        40.533               
E26  28546473.266 6 150014630.385 6     -1245.331 6        38.013               
E31  26037123.262 6 136827911.026 6      -335.697 6        40.929               
E33  27256747.264 6 143237070.043 6      1500.960 6        40.833               
> 2025 01 03 15 40 28.0000000  0  6                                             
E05  27645141.718 6 144970170.453 6      1105.732 6        36.771               
E09  30273420.291 5 158442907.503 5      2831.176 5        35.861               
E24  27837722.146 6 146290142.663 6      1934.087 6        40.844               
E26  28546710.030 6 150015877.319 6     -1247.127 6        38.336               
E31  26037184.338 6 136828246.037 6      -334.964 6        40.740               
E33  27256458.911 6 143235567.679 6      1502.282 6        40.825               
> 2025 01 03 15 40 29.0000000  0  6                                             
E05  27645354.556 6 144969062.900 6      1108.953 6        37.059               
E09  30273956.790 6 158440076.135 6      2830.806 6        36.046               
E24  27837351.722 6 146288208.858 6      1934.227 6        40.754               
E26  28546945.330 6 150017125.162 6     -1247.493 6        38.389               
E31  26037246.629 6 136828581.802 6      -336.622 6        40.689               
E33  27256168.558 6 143234066.261 6      1499.746 6        40.917               
> 2025 01 03 15 40 30.0000000  0  6                                             
E05  27645558.995 6 144967954.837 6      1107.902 6        37.246               
E09  30274493.790 6 158437244.604 6      2834.631 6        36.374               
E24  27836980.939 6 146286275.252 6      1933.822 6        41.036               
E26  28547178.949 6 150018373.531 6     -1247.518 6        38.235               
E31  26037308.152 6 136828917.840 6      -336.662 6        40.646               
E33  27255879.258 6 143232565.367 6      1500.541 6        41.023               
> 2025 01 03 15 40 31.0000000  0  6                                             
E05  27645766.973 6 144966845.795 6      1108.899 6        36.753               
E09  30275030.754 6 158434412.484 6      2831.831 6        36.020               
E24  27836609.192 6 146284342.293 6      1933.585 6        40.948               
E26  28547412.801 6 150019622.856 6     -1250.330 6        38.144               
E31  26037367.996 6 136829254.636 6      -335.224 6        40.939               
E33  27255594.319 6 143231065.426 6      1500.525 6        41.566               
> 2025 01 03 15 40 32.0000000  0  6                                             
E05  27645976.701 6 144965736.122 6      1110.733 6        36.832               
E09  30275569.148 6 158431580.032 6      2834.794 6        36.480               
E24  27836240.608 6 146282409.717 6      1931.814 6        40.970               
E26  28547651.085 6 150020872.865 6     -1250.486 6        38.022               
E31  26037433.307 6 136829591.932 6      -340.033 6        40.969               
E33  27255304.412 6 143229566.218 6      1497.336 6        41.887               
> 2025 01 03 15 40 33.0000000  0  6                                             
E05  27646185.554 6 144964625.677 6      1108.959 6        37.049               
E09  30276103.039 6 158428747.193 6      2833.923 6        36.477               
E24  27835872.988 6 146280477.591 6      1931.398 6        41.121               
E26  28547881.917 6 150022123.664 6     -1252.869 6        38.197               
E31  26037490.041 6 136829929.755 6      -338.484 6        41.272               
E33  27255018.847 6 143228067.748 6      1498.288 6        41.685               
> 2025 01 03 15 40 34.0000000  0  6                                             
E05  27646393.782 6 144963514.616 6      1110.040 6        36.943               
E09  30276642.969 6 158425914.059 6      2834.190 6        36.602               
E24  27835499.490 6 146278545.807 6      1931.966 6        41.197               
E26  28548122.398 6 150023375.086 6     -1251.163 6        37.746               
E31  26037552.618 6 136830268.032 6      -338.356 6        41.001               
E33  27254729.440 6 143226569.965 6      1496.549 6        41.807               
> 2025 01 03 15 40 35.0000000  0  6                                             
E05  27646605.709 6 144962402.340 6      1111.451 6        36.663               
E09  30277180.791 6 158423080.045 6      2832.295 6        36.429               
E24  27835129.977 6 146276614.933 6      1929.852 6        41.057               
E26  28548357.072 6 150024627.746 6     -1253.252 6        37.847               
E31  26037616.804 6 136830607.335 6      -339.832 6        40.925               
E33  27254443.518 6 143225073.417 6      1495.755 6        41.699               
> 2025 01 03 15 40 36.0000000  0  6                                             
E05  27646815.956 6 144961288.714 6      1113.705 6        36.598               
E09  30277711.644 6 158420245.098 6      2834.991 6        36.654               
E24  27834759.766 6 146274685.088 6      1930.710 6        41.165               
E26  28548595.462 6 150025881.737 6     -1254.762 6        37.952               
E31  26037677.648 6 136830947.744 6      -338.486 6        41.185               
E33  27254152.342 6 143223578.186 6      1496.437 6        41.763               
> 2025 01 03 15 40 37.0000000  0  6                                             
E05  27647020.127 6 144960174.476 6      1113.369 6        36.962               
E09  30278253.915 6 158417409.832 6      2834.860 6        36.860               
E24  27834389.806 6 146272755.556 6      1931.521 6        40.956               
E26  28548833.853 6 150027136.350 6     -1252.665 6        38.079               
E31  26037739.243 6 136831288.598 6      -339.197 6        40.991               
E33  27253865.652 6 143222083.636 6      1495.454 6        41.442               
> 2025 01 03 15 40 38.0000000  0  6                                             
E05  27647231.607 6 144959060.172 6      1112.499 6        36.747               
E09  30278783.517 6 158414574.852 6      2836.167 6        36.603               
E24  27834026.261 6 146270825.845 6      1928.783 6        41.067               
E26  28549067.884 6 150028391.097 6     -1253.473 6        38.250               
E31  26037802.642 6 136831629.350 6      -341.164 6        41.483               
E33  27253583.017 6 143220589.216 6      1494.202 6        41.073               
> 2025 01 03 15 40 39.0000000  0  6                                             
E05  27647443.462 6 144957945.659 6      1114.754 6        36.649               
E09  30279327.951 6 158411740.013 6      2835.309 6        36.163               
E24  27833652.369 6 146268895.978 6      1930.586 6        41.497               
E26  28549306.846 6 150029646.003 6     -1252.898 6        38.125               
E31  26037865.487 6 136831970.079 6      -339.621 6        41.272               
E33  27253293.932 6 143219094.962 6      1493.941 6        40.975               
> 2025 01 03 15 40 40.0000000  0  6                                             
E05  27647649.975 6 144956831.234 6      1114.143 6        36.523               
E09  30279864.772 6 158408905.648 6      2834.477 6        36.420               
E24  27833280.425 6 146266965.772 6      1931.355 6        41.323               
E26  28549541.234 6 150030900.870 6     -1254.241 6        38.580               
E31  26037926.188 6 136832310.543 6      -340.721 6        41.154               
E33  27253008.153 6 143217600.670 6      1493.518 6        40.796               
> 2025 01 03 15 40 41.0000000  0  6                                             
E05  27647858.810 6 144955718.593 6      1111.106 6        36.624               
E09  30280401.807 6 158406073.377 6      2833.452 6        36.539               
E24  27832913.503 6 146265033.490 6      1931.807 6        41.036               
E26  28549778.320 6 150032153.958 6     -1252.421 6        38.442               
E31  26037989.034 6 136832649.013 6      -338.562 6        41.022               
E33  27252717.960 6 143216104.611 6      1495.732 6        40.777               
> 2025 01 03 15 40 42.0000000  0  6                                             
E05  27648073.899 6 144954604.402 6      1115.897 6        37.063               
E09  30280933.232 6 158403239.900 6      2832.782 6        36.366               
E24  27832541.416 6 146263102.450 6      1930.782 6        41.185               
E26  28550010.510 6 150033408.614 6     -1255.520 6        38.751               
E31  26038050.467 6 136832988.870 6      -339.110 6        40.832               
E33  27252431.144 6 143214610.153 6      1494.221 6        40.629               
> 2025 01 03 15 40 43.0000000  0  6                                             
E05  27648278.625 6 144953490.576 6      1109.981 6        36.601               
E09  30281475.503 6 158400407.146 6      2832.719 6        36.490               
E24  27832172.171 6 146261170.747 6      1932.659 6        41.218               
E26  28550246.399 6 150034662.918 6     -1254.486 6        38.517               
E31  26038112.241 6 136833328.160 6      -337.919 6        41.025               
E33  27252142.327 6 143213115.337 6      1496.183 6        40.776               
> 2025 01 03 15 40 44.0000000  0  6                                             
E05  27648489.086 6 144952378.757 6      1112.254 6        36.872               
E09  30282012.307 6 158397576.747 6      2830.338 6        36.432               
E24  27831801.085 6 146259236.735 6      1934.273 6        41.032               
E26  28550485.308 6 150035915.239 6     -1252.597 6        38.373               
E31  26038174.335 6 136833665.237 6      -336.809 6        40.966               
E33  27251855.387 6 143211618.561 6      1497.464 6        40.982               
> 2025 01 03 15 40 45.0000000  0  6                                             
E05  27648703.085 6 144951266.307 6      1114.956 6        36.742               
E09  30282548.181 6 158394746.092 6      2834.767 6        36.493               
E24  27831431.893 6 146257303.048 6      1932.194 6        40.989               
E26  28550717.016 6 150037168.155 6     -1252.481 6        38.231               
E31  26038237.574 6 136834002.754 6      -338.692 6        40.836               
E33  27251567.928 6 143210122.425 6      1494.508 6        40.859               
> 2025 01 03 15 40 46.0000000  0  6                                             
E05  27648908.132 6 144950154.017 6      1107.568 6        36.768               
E09  30283080.302 6 158391915.896 6      2829.511 6        36.428               
E24  27831059.145 6 146255368.942 6      1933.502 6        40.968               
E26  28550955.371 6 150038421.008 6     -1251.140 6        38.264               
E31  26038297.096 6 136834339.945 6      -335.924 6        40.861               
E33  27251280.058 6 143208626.194 6      1495.563 6        41.323               
> 2025 01 03 15 40 47.0000000  0  6                                             
E05  27649116.825 6 144949041.073 6      1113.589 6        36.968               
E09  30283617.642 6 158389085.421 6      2829.978 6        36.763               
E24  27830690.186 6 146253435.149 6      1933.700 6        41.425               
E26  28551190.295 6 150039674.471 6     -1252.016 6        38.137               
E31  26038359.923 6 136834677.552 6      -337.390 6        40.872               
E33  27250997.530 6 143207130.583 6      1496.206 6        41.188               
> 2025 01 03 15 40 48.0000000  0  6                                             
E05  27649323.051 6 144947929.557 6      1113.520 6        37.008               
E09  30284153.605 6 158386256.764 6      2827.456 6        36.768               
E24  27830319.832 6 146251499.640 6      1935.860 6        41.293               
E26  28551425.201 6 150040926.509 6     -1252.283 6        38.355               
E31  26038419.445 6 136835013.541 6      -335.225 6        40.835               
E33  27250707.623 6 143205633.583 6      1496.571 6        40.884               
> 2025 01 03 15 40 49.0000000  0  6                                             
E05  27649535.121 6 144946815.398 6      1111.392 6        37.170               
E09  30284691.445 6 158383425.752 6      2829.342 6        36.758               
E24  27829945.440 6 146249566.492 6      1935.561 6        41.427               
E26  28551660.858 6 150042181.245 6     -1255.320 6        37.963               
E31  26038482.719 6 136835351.998 6      -336.222 6        40.933               
E33  27250419.968 6 143204139.261 6      1496.104 6        40.749               
> 2025 01 03 15 40 50.0000000  0  6                                             
E05  27649741.186 6 144945701.850 6      1110.500 6        36.999               
E09  30285226.998 6 158380595.758 6      2829.988 6        36.742               
E24  27829576.195 6 146247632.422 6      1933.833 6        41.274               
E26  28551896.961 6 150043435.344 6     -1252.135 6        38.207               
E31  26038545.118 6 136835689.641 6      -336.191 6        40.859               
E33  27250134.028 6 143202644.345 6      1495.940 6        41.039               
> 2025 01 03 15 40 51.0000000  0  6                                             
E05  27649948.949 6 144944587.600 6      1112.630 6        37.112               
E09  30285762.818 6 158377765.351 6      2827.899 6        36.628               
E24  27829206.056 6 146245698.775 6      1933.131 6        41.191               
E26  28552132.689 6 150044690.191 6     -1256.633 6        38.278               
E31  26038607.784 6 136836027.803 6      -339.058 6        40.892               
E33  27249848.570 6 143201150.186 6      1492.797 6        41.140               
> 2025 01 03 15 40 52.0000000  0  6                                             
E05  27650163.824 6 144943473.374 6      1114.609 6        37.326               
E09  30286294.100 6 158374935.357 6      2828.122 6        36.523               
E24  27828836.721 6 146243764.796 6      1934.580 6        41.065               
E26  28552369.543 6 150045945.036 6     -1256.341 6        38.305               
E31  26038667.306 6 136836365.743 6      -338.736 6        41.060               
E33  27249563.166 6 143199656.022 6      1493.976 6        40.871               
     3.02           OBSERVATION DATA    E                   RINEX VERSION / TYPE
G = GPS  R = GLONASS  E = GALILEO  S = GEO  M = MIXED       COMMENT             
GNSS-SDR            jmfriedt            20250104 075646 UTC PGM / RUN BY / DATE 
GALILEO OBSERVATION DATA FILE GENERATED BY GNSS-SDR         COMMENT             
GNSS-SDR VERSION 0.0.19                                     COMMENT             
See https://gnss-sdr.org                                    COMMENT             
DEFAULT MARKER NAME                                         MARKER NAME         
jmfriedt            CTTC                                    OBSERVER / AGENCY   
GNSS-SDR            Software Receiver   0.0.19              REC # / TYPE / VERS 
Antenna number      Antenna type                            ANT # / TYPE        
        0.0000        0.0000        0.0000                  APPROX POSITION XYZ 
        0.0000        0.0000        0.0000                  ANTENNA: DELTA H/E/N
E    4 C1B L1B D1B S1B                                      SYS / # / OBS TYPES 
DBHZ                                                        SIGNAL STRENGTH UNIT
  2025    01    03    15    38   28.1600000     GAL         TIME OF FIRST OBS   
                                                            END OF HEADER       
> 2025 01 03 15 38 29.0000000  0  4                                             
E24  27881848.198 6 146520127.259 6      1933.663 6        40.614               
E26  28519217.770 6 149869506.131 6     -1210.532 6        38.168               
E31  26030060.906 6 136788896.065 6      -323.251 6        40.150               
E33  27291231.816 6 143416387.285 6      1540.911 6        40.584               
> 2025 01 03 15 38 30.0000000  0  4                                             
E24  27881478.898 6 146518193.479 6      1932.163 6        40.852               
E26  28519442.795 6 149870716.497 6     -1210.038 6        37.927               
E31  26030119.516 6 136789219.488 6      -325.058 6        40.212               
E33  27290934.707 6 143414847.643 6      1537.964 6        40.576               
> 2025 01 03 15 38 31.0000000  0  4                                             
E24  27881108.241 6 146516261.051 6      1937.762 6        40.908               
E26  28519671.375 6 149871928.558 6     -1207.232 6        37.960               
E31  26030177.483 6 136789544.364 6      -321.060 6        40.179               
E33  27290639.458 6 143413309.688 6      1541.749 6        40.539               
> 2025 01 03 15 38 32.0000000  0  4                                             
E24  27880736.280 6 146514325.991 6      1935.964 6        40.789               
E26  28519899.241 6 149873138.288 6     -1207.455 6        38.150               
E31  26030238.541 6 136789866.711 6      -321.835 6        40.138               
E33  27290345.280 6 143411769.418 6      1539.032 6        40.681               
> 2025 01 03 15 38 33.0000000  0  4                                             
E24  27880367.892 6 146512390.851 6      1932.214 6        40.511               
E26  28520129.198 6 149874348.286 6     -1213.108 6        37.585               
E31  26030295.669 6 136790189.107 6      -327.132 6        40.240               
E33  27290047.778 6 143410229.410 6      1536.167 6        40.806               
> 2025 01 03 15 38 34.0000000  0  4                                             
E24  27879996.466 6 146510455.615 6      1934.207 6        40.585               
E26  28520355.241 6 149875558.485 6     -1211.279 6        37.759               
E31  26030353.600 6 136790511.488 6      -322.135 6        40.369               
E33  27289754.173 6 143408689.581 6      1540.205 6        40.986               
> 2025 01 03 15 38 35.0000000  0  4                                             
E24  27879625.434 6 146508520.158 6      1933.330 6        40.700               
E26  28520581.909 6 149876768.785 6     -1210.572 6        37.828               
E31  26030416.249 6 136790833.757 6      -321.737 6        40.193               
E33  27289459.119 6 143407149.879 6      1539.375 6        41.005               
> 2025 01 03 15 38 36.0000000  0  4                                             
E24  27879254.866 6 146506585.548 6      1932.386 6        40.384               
E26  28520812.402 6 149877980.269 6     -1214.074 6        37.778               
E31  26030474.538 6 136791156.998 6      -324.602 6        40.300               
E33  27289161.832 6 143405611.371 6      1536.293 6        41.150               
> 2025 01 03 15 38 37.0000000  0  4                                             
E24  27878885.621 6 146504649.348 6      1935.353 6        40.690               
E26  28521041.286 6 149879190.470 6     -1213.007 6        37.872               
E31  26030531.343 6 136791478.731 6      -324.150 6        40.266               
E33  27288867.315 6 143404071.543 6      1537.414 6        40.996               
> 2025 01 03 15 38 38.0000000  0  4                                             
E24  27878513.034 6 146502712.896 6      1934.865 6        40.577               
E26  28521268.401 6 149880400.745 6     -1208.779 6        38.055               
E31  26030591.115 6 136791800.328 6      -322.252 6        39.975               
E33  27288570.725 6 143402531.820 6      1539.127 6        40.988               
> 2025 01 03 15 38 39.0000000  0  4                                             
E24  27878142.948 6 146500777.058 6      1934.146 6        40.730               
E26  28521495.963 6 149881611.927 6     -1214.017 6        37.964               
E31  26030649.279 6 136792122.620 6      -321.299 6        39.746               
E33  27288274.296 6 143400992.997 6      1537.840 6        41.166               
> 2025 01 03 15 38 40.0000000  0  4                                             
E24  27877773.399 6 146498839.113 6      1937.571 6        40.896               
E26  28521725.134 6 149882821.333 6     -1209.916 6        37.847               
E31  26030708.729 6 136792442.928 6      -321.450 6        39.819               
E33  27287979.278 6 143399452.409 6      1539.888 6        41.076               
> 2025 01 03 15 38 41.0000000  0  4                                             
E24  27877400.151 6 146496901.943 6      1936.413 6        41.075               
E26  28521949.211 6 149884031.826 6     -1213.821 6        38.116               
E31  26030769.502 6 136792764.115 6      -321.262 6        39.651               
E33  27287685.547 6 143397912.926 6      1538.626 6        41.039               
> 2025 01 03 15 38 42.0000000  0  4                                             
E24  27877029.387 6 146494964.784 6      1935.482 6        40.907               
E26  28522176.023 6 149885242.639 6     -1209.927 6        38.116               
E31  26030825.056 6 136793085.392 6      -321.616 6        39.726               
E33  27287388.368 6 143396373.752 6      1538.860 6        41.258               
> 2025 01 03 15 38 43.0000000  0  4                                             
E24  27876659.409 6 146493027.677 6      1937.415 6        40.771               
E26  28522406.515 6 149886453.857 6     -1210.609 6        38.218               
E31  26030883.274 6 136793406.867 6      -320.952 6        39.576               
E33  27287094.440 6 143394834.976 6      1537.812 6        40.980               
> 2025 01 03 15 38 44.0000000  0  4                                             
E24  27876287.751 6 146491090.241 6      1941.804 6        41.253               
E26  28522633.756 6 149887665.055 6     -1210.270 6        38.183               
E31  26030939.400 6 136793728.101 6      -317.905 6        39.565               
E33  27286801.442 6 143393296.181 6      1540.942 6        40.769               
> 2025 01 03 15 38 45.0000000  0  4                                             
E24  27875913.877 6 146489151.361 6      1941.524 6        41.159               
E26  28522860.960 6 149888875.114 6     -1208.593 6        38.086               
E31  26030999.798 6 136794047.988 6      -319.505 6        39.718               
E33  27286503.351 6 143391756.249 6      1540.828 6        41.098               
> 2025 01 03 15 38 46.0000000  0  4                                             
E24  27875544.096 6 146487213.029 6      1934.454 6        41.224               
E26  28523085.449 6 149890086.022 6     -1210.857 6        38.205               
E31  26031055.549 6 136794368.527 6      -322.290 6        39.772               
E33  27286208.333 6 143390217.186 6      1539.172 6        41.381               
> 2025 01 03 15 38 47.0000000  0  4                                             
E24  27875173.206 6 146485275.696 6      1937.622 6        41.213               
E26  28523314.869 6 149891298.292 6     -1212.845 6        37.716               
E31  26031115.392 6 136794690.167 6      -320.662 6        39.830               
E33  27285911.529 6 143388679.465 6      1537.371 6        41.146               
> 2025 01 03 15 38 48.0000000  0  4                                             
E24  27874798.940 6 146483336.056 6      1939.435 6        40.987               
E26  28523547.220 6 149892508.567 6     -1211.808 6        37.957               
E31  26031174.860 6 136795009.662 6      -321.391 6        39.886               
E33  27285616.207 6 143387139.761 6      1537.568 6        40.804               
> 2025 01 03 15 38 49.0000000  0  4                                             
E24  27874430.873 6 146481398.501 6      1938.888 6        40.966               
E26  28523772.745 6 149893721.244 6     -1212.526 6        37.674               
E31  26031232.935 6 136795331.298 6      -322.730 6        39.928               
E33  27285323.048 6 143385602.454 6      1536.910 6        40.882               
> 2025 01 03 15 38 50.0000000  0  4                                             
E24  27874058.554 6 146479462.836 6      1938.640 6        40.838               
E26  28524003.023 6 149894936.087 6     -1212.717 6        37.712               
E31  26031293.207 6 136795654.892 6      -322.208 6        40.003               
E33  27285026.422 6 143384067.311 6      1535.882 6        41.024               
> 2025 01 03 15 38 51.0000000  0  4                                             
E24  27873686.396 6 146477525.231 6      1935.726 6        41.212               
E26  28524230.103 6 149896149.319 6     -1216.420 6        37.700               
E31  26031349.745 6 136795976.671 6      -324.479 6        39.697               
E33  27284731.869 6 143382530.585 6      1533.939 6        41.164               
> 2025 01 03 15 38 52.0000000  0  4                                             
E24  27873315.239 6 146475589.276 6      1937.210 6        41.320               
E26  28524459.344 6 149897364.529 6     -1212.011 6        37.660               
E31  26031410.160 6 136796300.236 6      -321.937 6        40.033               
E33  27284438.496 6 143380995.823 6      1535.520 6        40.818               
> 2025 01 03 15 38 53.0000000  0  4                                             
E24  27872947.244 6 146473652.420 6      1935.823 6        41.376               
E26  28524688.800 6 149898579.163 6     -1216.455 6        37.797               
E31  26031467.680 6 136796622.990 6      -324.110 6        40.108               
E33  27284143.067 6 143379460.500 6      1535.251 6        40.604               
> 2025 01 03 15 38 54.0000000  0  4                                             
E24  27872576.265 6 146471715.370 6      1938.774 6        41.325               
E26  28524917.256 6 149899793.904 6     -1212.420 6        37.901               
E31  26031527.595 6 136796945.644 6      -320.798 6        40.002               
E33  27283845.923 6 143377925.275 6      1536.454 6        40.747               
> 2025 01 03 15 38 55.0000000  0  4                                             
E24  27872203.464 6 146469777.445 6      1936.662 6        41.630               
E26  28525145.372 6 149901008.102 6     -1215.387 6        37.759               
E31  26031586.009 6 136797267.528 6      -324.058 6        40.056               
E33  27283552.299 6 143376389.513 6      1533.635 6        41.019               
> 2025 01 03 15 38 56.0000000  0  4                                             
E24  27871833.825 6 146467839.375 6      1937.193 6        41.188               
E26  28525375.561 6 149902222.458 6     -1212.426 6        38.025               
E31  26031644.172 6 136797589.371 6      -320.340 6        39.892               
E33  27283259.194 6 143374853.909 6      1536.127 6        41.095               
> 2025 01 03 15 38 57.0000000  0  4                                             
E24  27871458.826 6 146465901.673 6      1936.932 6        41.074               
E26  28525596.618 6 149903437.485 6     -1216.293 6        37.866               
E31  26031704.570 6 136797911.683 6      -321.622 6        39.855               
E33  27282967.303 6 143373319.016 6      1534.507 6        41.092               
> 2025 01 03 15 38 58.0000000  0  5                                             
E09  30225132.097 6 158834142.840 6     -2832.732 6        36.467               
E24  27871091.707 6 146463965.177 6      1936.698 6        41.204               
E26  28525828.719 6 149904654.114 6     -1216.746 6        37.829               
E31  26031762.305 6 136798235.357 6      -324.741 6        40.184               
E33  27282670.928 6 143371785.676 6      1533.890 6        41.068               
> 2025 01 03 15 38 59.0000000  0  5                                             
E09  30225672.850 6 158836974.533 6     -2832.082 6        36.492               
E24  27870719.031 6 146462027.328 6      1937.323 6        40.758               
E26  28526058.497 6 149905869.635 6     -1217.646 6        37.908               
E31  26031821.183 6 136798557.716 6      -322.421 6        40.245               
E33  27282373.766 6 143370251.253 6      1535.798 6        41.091               
> 2025 01 03 15 39 00.0000000  0  5                                             
E09  30226202.291 6 158839807.608 6     -2832.571 6        36.176               
E24  27870347.677 6 146460090.906 6      1936.976 6        41.245               
E26  28526283.593 6 149907086.906 6     -1216.945 6        37.937               
E31  26031879.811 6 136798881.614 6      -324.644 6        40.099               
E33  27282079.141 6 143368718.583 6      1531.958 6        40.976               
> 2025 01 03 15 39 01.0000000  0  5                                             
E09  30226746.992 6 158842640.296 6     -2831.967 6        36.474               
E24  27869976.001 6 146458154.093 6      1935.502 6        41.103               
E26  28526516.998 6 149908304.108 6     -1218.678 6        37.782               
E31  26031939.530 6 136799205.243 6      -324.682 6        40.304               
E33  27281785.911 6 143367185.858 6      1531.318 6        41.304               
> 2025 01 03 15 39 02.0000000  0  5                                             
E09  30227281.330 6 158845473.806 6     -2833.102 6        36.602               
E24  27869604.075 6 146456218.155 6      1938.859 6        41.082               
E26  28526746.347 6 149909522.494 6     -1217.090 6        37.743               
E31  26031998.908 6 136799529.848 6      -324.011 6        40.092               
E33  27281492.394 6 143365654.316 6      1534.056 6        41.259               
> 2025 01 03 15 39 03.0000000  0  5                                             
E09  30227819.598 6 158848306.202 6     -2833.632 6        36.753               
E24  27869232.203 6 146454281.135 6      1934.542 6        41.224               
E26  28526977.787 6 149910740.134 6     -1221.542 6        37.636               
E31  26032058.662 6 136799853.479 6      -325.761 6        40.206               
E33  27281195.697 6 143364122.029 6      1529.904 6        41.083               
> 2025 01 03 15 39 04.0000000  0  5                                             
E09  30228354.740 6 158851140.725 6     -2835.546 6        36.505               
E24  27868865.924 6 146452346.299 6      1934.906 6        40.848               
E26  28527205.581 6 149911960.285 6     -1221.226 6        37.640               
E31  26032119.220 6 136800179.413 6      -325.062 6        40.233               
E33  27280900.769 6 143362592.247 6      1529.991 6        41.151               
> 2025 01 03 15 39 05.0000000  0  5                                             
E09  30228892.580 6 158853974.195 6     -2835.441 6        36.485               
E24  27868492.407 6 146450410.455 6      1936.058 6        40.812               
E26  28527435.716 6 149913179.732 6     -1219.714 6        37.715               
E31  26032180.386 6 136800504.412 6      -324.694 6        40.254               
E33  27280608.521 6 143361061.775 6      1530.529 6        40.857               
> 2025 01 03 15 39 06.0000000  0  6                                             
E05  27628269.357 6 145187569.809 6     -1083.516 6        36.258               
E09  30229427.614 6 158856809.078 6     -2835.412 6        36.531               
E24  27868118.963 6 146448476.094 6      1932.314 6        40.783               
E26  28527665.172 6 149914400.959 6     -1224.273 6        38.027               
E31  26032236.745 6 136800831.011 6      -328.502 6        40.428               
E33  27280318.649 6 143359533.103 6      1527.031 6        40.929               
> 2025 01 03 15 39 07.0000000  0  6                                             
E05  27628477.514 6 145188653.109 6     -1083.593 6        36.520               
E09  30229966.847 6 158859644.687 6     -2834.353 6        36.646               
E24  27867749.020 6 146446542.447 6      1934.653 6        40.615               
E26  28527895.289 6 149915623.247 6     -1219.822 6        37.525               
E31  26032297.553 6 136801158.434 6      -326.714 6        40.652               
E33  27280023.471 6 143358005.474 6      1529.157 6        40.872               
> 2025 01 03 15 39 08.0000000  0  6                                             
E05  27628678.165 6 145189735.691 6     -1084.362 6        36.534               
E09  30230503.901 6 158862479.188 6     -2835.439 6        36.594               
E24  27867375.468 6 146444607.761 6      1932.582 6        40.717               
E26  28528120.761 6 149916844.796 6     -1225.023 6        37.347               
E31  26032356.557 6 136801484.921 6      -326.585 6        40.644               
E33  27279727.471 6 143356477.101 6      1526.233 6        41.168               
> 2025 01 03 15 39 09.0000000  0  6                                             
E05  27628881.282 6 145190819.978 6     -1084.167 6        36.423               
E09  30231045.189 6 158865315.059 6     -2837.189 6        36.833               
E24  27867008.314 6 146442674.494 6      1932.551 6        40.699               
E26  28528356.953 6 149918068.065 6     -1223.977 6        37.318               
E31  26032417.937 6 136801812.930 6      -328.692 6        40.397               
E33  27279435.884 6 143354950.480 6      1526.741 6        40.845               
> 2025 01 03 15 39 10.0000000  0  6                                             
E05  27629087.580 6 145191906.219 6     -1086.037 6        36.181               
E09  30231580.867 6 158868152.513 6     -2835.269 6        36.609               
E24  27866637.692 6 146440742.856 6      1932.469 6        40.495               
E26  28528586.964 6 149919293.296 6     -1223.953 6        37.763               
E31  26032476.619 6 136802142.657 6      -327.904 6        40.472               
E33  27279143.940 6 143353425.818 6      1524.572 6        40.955               
> 2025 01 03 15 39 11.0000000  0  6                                             
E05  27629295.075 6 145192989.815 6     -1085.152 6        36.579               
E09  30232114.883 6 158870986.984 6     -2833.769 6        36.507               
E24  27866265.230 6 146438808.263 6      1934.560 6        40.442               
E26  28528812.203 6 149920515.898 6     -1223.065 6        37.872               
E31  26032535.265 6 136802469.551 6      -326.890 6        40.481               
E33  27278847.850 6 143351898.525 6      1527.684 6        40.605               
> 2025 01 03 15 39 12.0000000  0  6                                             
E05  27629494.940 6 145194075.141 6     -1087.270 6        36.758               
E09  30232648.487 6 158873822.863 6     -2836.930 6        36.570               
E24  27865893.823 6 146436875.125 6      1930.616 6        40.420               
E26  28529045.268 6 149921740.250 6     -1226.785 6        37.981               
E31  26032594.876 6 136802797.992 6      -331.155 6        40.108               
E33  27278557.353 6 143350373.022 6      1523.069 6        40.585               
> 2025 01 03 15 39 13.0000000  0  6                                             
E05  27629704.955 6 145195163.238 6     -1091.872 6        36.703               
E09  30233189.240 6 158876661.152 6     -2839.577 6        36.270               
E24  27865527.490 6 146434944.428 6      1929.621 6        40.577               
E26  28529277.262 6 149922967.404 6     -1231.155 6        37.948               
E31  26032655.952 6 136803129.002 6      -333.736 6        40.351               
E33  27278264.212 6 143348850.257 6      1521.525 6        40.416               
> 2025 01 03 15 39 14.0000000  0  6                                             
E05  27629909.823 6 145196251.017 6     -1086.294 6        36.776               
E09  30233730.957 6 158879498.785 6     -2835.974 6        36.482               
E24  27865156.600 6 146433013.140 6      1931.535 6        40.808               
E26  28529506.575 6 149924194.221 6     -1223.521 6        37.476               
E31  26032714.170 6 136803459.496 6      -327.577 6        40.447               
E33  27277970.660 6 143347327.228 6      1524.476 6        40.523               
     3.02           OBSERVATION DATA    E                   RINEX VERSION / TYPE
G = GPS  R = GLONASS  E = GALILEO  S = GEO  M = MIXED       COMMENT             
GNSS-SDR            jmfriedt            20250104 081157 UTC PGM / RUN BY / DATE 
GALILEO OBSERVATION DATA FILE GENERATED BY GNSS-SDR         COMMENT             
GNSS-SDR VERSION 0.0.19                                     COMMENT             
See https://gnss-sdr.org                                    COMMENT             
DEFAULT MARKER NAME                                         MARKER NAME         
jmfriedt            CTTC                                    OBSERVER / AGENCY   
GNSS-SDR            Software Receiver   0.0.19              REC # / TYPE / VERS 
Antenna number      Antenna type                            ANT # / TYPE        
        0.0000        0.0000        0.0000                  APPROX POSITION XYZ 
        0.0000        0.0000        0.0000                  ANTENNA: DELTA H/E/N
E    4 C1B L1B D1B S1B                                      SYS / # / OBS TYPES 
DBHZ                                                        SIGNAL STRENGTH UNIT
  2025    01    03    15    38    6.1600000     GAL         TIME OF FIRST OBS   
                                                            END OF HEADER       
> 2025 01 03 15 38 07.0000000  0  5                                             
E05  27616365.836 6 145123214.501 6      1071.312 6        37.071               
E09  30197736.419 6 158690177.963 6     -2842.604 6        36.418               
E24  27889989.592 6 146562881.895 6      1928.639 6        41.092               
E26  28514203.615 6 149841116.919 6      1208.054 6        37.469               
E33  27297731.762 6 143450559.453 6      1541.935 6        40.919               
> 2025 01 03 15 38 08.0000000  0  5                                             
E05  27616571.920 6 145122142.957 6      1076.249 6        37.039               
E09  30198271.775 6 158693022.345 6     -2851.054 6        36.003               
E24  27889616.648 6 146560954.671 6      1922.902 6        41.123               
E26  28514435.609 6 149839907.197 6      1214.082 6        37.530               
E33  27297434.565 6 143449019.340 6      1536.307 6        40.581               
> 2025 01 03 15 38 09.0000000  0  5                                             
E05  27616770.516 6 145121071.070 6      1073.214 6        37.155               
E09  30198811.402 6 158695866.726 6     -2843.621 6        36.055               
E24  27889249.815 6 146559027.514 6      1928.701 6        41.172               
E26  28514657.953 6 149838697.141 6      1207.240 6        37.564               
E33  27297141.048 6 143447479.624 6      1542.758 6        40.738               
> 2025 01 03 15 38 10.0000000  0  5                                             
E05  27616971.292 6 145120000.527 6      1073.119 6        37.351               
E09  30199350.403 6 158698709.403 6     -2839.704 6        36.214               
E24  27888877.299 6 146557098.678 6      1930.867 6        40.778               
E26  28514885.569 6 149837488.423 6      1206.161 6        37.608               
E33  27296844.297 6 143445938.555 6      1540.779 6        40.643               
> 2025 01 03 15 38 11.0000000  0  5                                             
E05  27617175.392 6 145118928.647 6      1069.693 6        37.233               
E09  30199884.240 6 158701553.076 6     -2837.155 6        36.409               
E24  27888510.234 6 146555170.873 6      1930.837 6        40.629               
E26  28515111.898 6 149836278.335 6      1207.515 6        37.282               
E33  27296546.814 6 143444398.834 6      1540.453 6        40.752               
> 2025 01 03 15 38 12.0000000  0  5                                             
E05  27617376.419 6 145117857.248 6      1070.831 6        37.635               
E09  30200427.512 6 158704395.952 6     -2846.285 6        36.347               
E24  27888142.811 6 146553242.310 6      1927.745 6        40.446               
E26  28515342.051 6 149835068.695 6      1211.718 6        37.125               
E33  27296251.385 6 143442858.658 6      1540.642 6        40.575               
> 2025 01 03 15 38 13.0000000  0  5                                             
E05  27617577.838 6 145116783.686 6      1073.433 6        37.261               
E09  30200964.315 6 158707240.594 6     -2845.547 6        36.272               
E24  27887768.169 6 146551315.522 6      1927.149 6        40.631               
E26  28515569.648 6 149833856.958 6      1211.385 6        37.630               
E33  27295959.084 6 143441320.619 6      1538.940 6        40.650               
> 2025 01 03 15 38 14.0000000  0  5                                             
E05  27617778.490 6 145115712.206 6      1074.510 6        37.266               
E09  30201505.032 6 158710082.858 6     -2843.796 6        36.341               
E24  27887401.175 6 146549386.443 6      1929.768 6        40.704               
E26  28515798.997 6 149832647.201 6      1210.732 6        37.645               
E33  27295661.100 6 143439780.543 6      1541.640 6        40.404               
> 2025 01 03 15 38 15.0000000  0  5                                             
E05  27617977.193 6 145114639.538 6      1075.526 6        36.757               
E09  30202046.374 6 158712925.932 6     -2845.433 6        36.448               
E24  27887029.339 6 146547458.179 6      1926.862 6        40.621               
E26  28516028.811 6 149831436.307 6      1211.787 6        37.924               
E33  27295366.958 6 143438241.657 6      1538.240 6        40.428               
> 2025 01 03 15 38 16.0000000  0  5                                             
E05  27618181.490 6 145113567.610 6      1073.067 6        36.872               
E09  30202580.676 6 158715767.933 6     -2841.944 6        36.521               
E24  27886658.110 6 146545528.906 6      1929.083 6        40.672               
E26  28516259.178 6 149830226.114 6      1209.666 6        37.767               
E33  27295071.351 6 143436702.052 6      1538.762 6        40.386               
> 2025 01 03 15 38 17.0000000  0  5                                             
E05  27618382.463 6 145112494.580 6      1074.852 6        36.968               
E09  30203117.586 6 158718610.713 6     -2839.664 6        36.484               
E24  27886290.008 6 146543600.431 6      1929.881 6        40.935               
E26  28516483.810 6 149829014.798 6      1210.974 6        37.657               
E33  27294775.582 6 143435163.551 6      1540.196 6        40.436               
> 2025 01 03 15 38 18.0000000  0  5                                             
E05  27618585.097 6 145111421.268 6      1075.361 6        37.011               
E09  30203661.233 6 158721453.392 6     -2841.681 6        36.713               
E24  27885923.729 6 146541671.930 6      1927.834 6        40.783               
E26  28516710.764 6 149827803.195 6      1212.653 6        37.620               
E33  27294477.759 6 143433625.365 6      1537.115 6        40.780               
> 2025 01 03 15 38 19.0000000  0  5                                             
E05  27618786.714 6 145110348.195 6      1069.034 6        37.143               
E09  30204194.784 6 158724295.531 6     -2838.065 6        36.333               
E24  27885548.283 6 146539742.877 6      1932.616 6        40.715               
E26  28516934.842 6 149826591.809 6      1209.152 6        37.774               
E33  27294185.404 6 143432086.966 6      1540.729 6        40.970               
> 2025 01 03 15 38 20.0000000  0  5                                             
E05  27618984.005 6 145109274.805 6      1067.537 6        37.363               
E09  30204735.984 6 158727137.638 6     -2838.511 6        36.344               
E24  27885180.109 6 146537813.849 6      1931.071 6        40.947               
E26  28517170.391 6 149825380.079 6      1209.425 6        38.042               
E33  27293888.010 6 143430548.879 6      1539.967 6        40.795               
> 2025 01 03 15 38 21.0000000  0  5                                             
E05  27619189.660 6 145108203.754 6      1070.472 6        37.237               
E09  30205273.698 6 158729977.029 6     -2839.692 6        36.560               
E24  27884814.652 6 146535882.148 6      1929.010 6        40.490               
E26  28517394.576 6 149824170.716 6      1211.776 6        38.147               
E33  27293593.797 6 143429008.443 6      1540.507 6        40.917               
> 2025 01 03 15 38 22.0000000  0  5                                             
E05  27619387.667 6 145107131.622 6      1074.704 6        37.270               
E09  30205810.913 6 158732817.155 6     -2842.265 6        36.384               
E24  27884441.046 6 146533951.204 6      1929.852 6        40.511               
E26  28517623.049 6 149822960.256 6      1212.854 6        38.055               
E33  27293298.136 6 143427469.106 6      1537.848 6        40.812               
> 2025 01 03 15 38 23.0000000  0  5                                             
E05  27619591.159 6 145106059.403 6      1073.255 6        37.058               
E09  30206351.361 6 158735657.082 6     -2841.229 6        36.268               
E24  27884072.534 6 146532020.080 6      1930.066 6        40.489               
E26  28517850.343 6 149821749.682 6      1211.718 6        37.939               
E33  27293002.225 6 143425929.909 6      1536.341 6        41.150               
> 2025 01 03 15 38 24.0000000  0  5                                             
E05  27619791.042 6 145104986.711 6      1071.267 6        36.954               
E09  30206889.040 6 158738497.084 6     -2838.701 6        36.185               
E24  27883701.591 6 146530089.134 6      1932.390 6        40.821               
E26  28518079.174 6 149820538.589 6      1209.468 6        38.021               
E33  27292708.244 6 143424391.183 6      1538.652 6        41.132               
> 2025 01 03 15 38 25.0000000  0  5                                             
E05  27619996.679 6 145103913.886 6      1076.245 6        36.781               
E09  30207422.359 6 158741336.878 6     -2844.665 6        36.132               
E24  27883330.612 6 146528157.995 6      1927.556 6        40.633               
E26  28518306.379 6 149819327.396 6      1214.268 6        38.468               
E33  27292410.814 6 143422852.603 6      1535.171 6        41.029               
> 2025 01 03 15 38 26.0000000  0  5                                             
E05  27620196.508 6 145102841.533 6      1074.460 6        36.407               
E09  30207961.592 6 158744175.875 6     -2842.421 6        36.347               
E24  27882958.936 6 146526226.069 6      1931.018 6        40.829               
E26  28518531.403 6 149818116.623 6      1212.259 6        38.688               
E33  27292117.708 6 143421313.560 6      1536.037 6        40.802               
> 2025 01 03 15 38 27.0000000  0  5                                             
E05  27620402.359 6 145101768.447 6      1070.063 6        36.620               
E09  30208498.217 6 158747015.239 6     -2835.984 6        36.089               
E24  27882588.565 6 146524294.602 6      1932.018 6        40.789               
E26  28518767.006 6 149816905.091 6      1210.359 6        38.495               
E33  27291824.084 6 143419775.261 6      1540.908 6        40.450               
> 2025 01 03 15 38 28.0000000  0  6                                             
E05  27620599.079 6 145100696.675 6      1067.259 6        36.473               
E09  30209037.111 5 158749852.970 5     -2837.120 5        35.577               
E24  27882219.784 6 146522361.500 6      1936.543 6        40.586               
E26  28518989.636 6 149815694.903 6      1208.174 6        38.394               
E31  26029998.989 6 136788590.181 6      -322.499 6        40.312               
E33  27291525.368 6 143418235.671 6      1542.067 6        40.670               
> 2025 01 03 15 38 29.0000000  0  6                                             
E05  27620799.587 6 145099624.714 6      1070.618 6        36.587               
E09  30209571.770 5 158752690.507 5     -2837.899 5        35.890               
E24  27881848.215 6 146520428.258 6      1933.694 6        40.616               
E26  28519217.752 6 149814484.498 6      1210.242 6        38.149               
E31  26030060.906 6 136788914.065 6      -323.250 6        40.152               
E33  27291231.816 6 143416696.285 6      1540.911 6        40.584               
> 2025 01 03 15 38 30.0000000  0  6                                             
E05  27621003.687 6 145098552.999 6      1075.229 6        36.653               
E09  30210110.271 6 158755527.506 6     -2835.568 6        36.338               
E24  27881478.952 6 146518494.478 6      1932.176 6        40.859               
E26  28519442.777 6 149813274.355 6      1209.833 6        37.914               
E31  26030119.516 6 136789237.488 6      -325.060 6        40.215               
E33  27290934.707 6 143415156.643 6      1537.965 6        40.573               
> 2025 01 03 15 38 31.0000000  0  6                                             
E05  27621206.286 6 145097479.624 6      1070.493 6        36.342               
E09  30210646.949 6 158758365.782 6     -2837.740 6        36.374               
E24  27881108.241 6 146516562.051 6      1937.764 6        40.910               
E26  28519671.393 6 149812062.516 6      1207.027 6        37.953               
E31  26030177.465 6 136789562.364 6      -321.058 6        40.181               
E33  27290639.458 6 143413618.688 6      1541.749 6        40.538               
> 2025 01 03 15 38 32.0000000  0  6                                             
E05  27621406.884 6 145096408.602 6      1070.033 6        36.590               
E09  30211184.181 6 158761201.365 6     -2835.229 6        36.363               
E24  27880736.280 6 146514626.990 6      1935.964 6        40.790               
E26  28519899.295 6 149810853.009 6      1207.226 6        38.150               
E31  26030238.541 6 136789884.711 6      -321.834 6        40.140               
E33  27290345.280 6 143412078.418 6      1539.032 6        40.680               
> 2025 01 03 15 38 33.0000000  0  6                                             
E05  27621606.892 6 145095337.341 6      1074.806 6        36.236               
E09  30211719.269 6 158764036.860 6     -2837.507 6        36.036               
E24  27880367.892 6 146512691.850 6      1932.217 6        40.512               
E26  28520129.162 6 149809643.233 6      1212.917 6        37.586               
E31  26030295.669 6 136790207.107 6      -327.125 6        40.240               
E33  27290047.778 6 143410538.411 6      1536.167 6        40.807               
> 2025 01 03 15 38 34.0000000  0  6                                             
E05  27621811.600 5 145094265.867 5      1070.907 5        35.993               
E09  30212260.754 6 158766872.230 6     -2836.357 6        36.249               
E24  27879996.466 6 146510756.615 6      1934.208 6        40.585               
E26  28520355.259 6 149808433.258 6      1211.062 6        37.764               
E31  26030353.600 6 136790529.488 6      -322.135 6        40.369               
E33  27289754.208 6 143408998.581 6      1540.206 6        40.992               
> 2025 01 03 15 38 35.0000000  0  6                                             
E05  27622015.128 6 145093194.300 6      1071.935 6        36.014               
E09  30212791.750 6 158769707.309 6     -2834.705 6        36.429               
E24  27879625.398 6 146508821.157 6      1933.337 6        40.696               
E26  28520581.927 6 149807223.180 6      1210.341 6        37.820               
E31  26030416.249 6 136790851.757 6      -321.737 6        40.195               
E33  27289459.173 6 143407458.879 6      1539.393 6        41.012               
> 2025 01 03 15 38 36.0000000  0  6                                             
E05  27622207.774 6 145092121.579 6      1077.896 6        36.426               
E09  30213334.254 6 158772543.220 6     -2837.553 6        36.157               
E24  27879254.866 6 146506886.547 6      1932.386 6        40.384               
E26  28520812.312 6 149806011.918 6      1213.842 6        37.776               
E31  26030474.538 6 136791174.998 6      -324.588 6        40.301               
E33  27289161.779 6 143405920.372 6      1536.291 6        41.153               
> 2025 01 03 15 38 37.0000000  0  6                                             
E05  27622413.929 6 145091050.193 6      1072.383 6        36.387               
E09  30213868.055 6 158775377.495 6     -2833.637 6        36.171               
E24  27878885.621 6 146504950.347 6      1935.355 6        40.691               
E26  28521041.286 6 149804801.941 6      1212.751 6        37.869               
E31  26030531.343 6 136791496.731 6      -324.150 6        40.266               
E33  27288867.315 6 143404380.544 6      1537.410 6        40.997               
> 2025 01 03 15 38 38.0000000  0  6                                             
E05  27622616.528 6 145089978.692 6      1073.230 6        36.967               
E09  30214404.412 6 158778211.484 6     -2833.795 6        36.384               
E24  27878513.016 6 146503013.896 6      1934.863 6        40.579               
E26  28521268.419 6 149803591.887 6      1208.580 6        38.055               
E31  26030591.115 6 136791818.328 6      -322.252 6        39.975               
E33  27288570.725 6 143402840.820 6      1539.127 6        40.993               
> 2025 01 03 15 38 39.0000000  0  6                                             
E05  27622815.678 6 145088906.328 6      1073.165 6        36.913               
E09  30214939.571 6 158781046.018 6     -2837.271 6        36.301               
E24  27878142.931 6 146501078.057 6      1934.162 6        40.733               
E26  28521495.946 6 149802380.928 6      1213.772 6        37.973               
E31  26030649.261 6 136792140.620 6      -321.299 6        39.747               
E33  27288274.296 6 143401301.997 6      1537.847 6        41.169               
> 2025 01 03 15 38 40.0000000  0  6                                             
E05  27623026.086 6 145087835.696 6      1071.971 6        37.133               
E09  30215479.894 6 158783878.426 6     -2832.470 6        36.202               
E24  27877773.381 6 146499140.112 6      1937.572 6        40.897               
E26  28521725.152 6 149801171.745 6      1209.662 6        37.852               
E31  26030708.729 6 136792460.928 6      -321.453 6        39.822               
E33  27287979.260 6 143399761.409 6      1539.892 6        41.081               
> 2025 01 03 15 38 41.0000000  0  6                                             
E05  27623220.125 6 145086764.061 6      1069.760 6        37.190               
E09  30216015.786 6 158786711.557 6     -2833.828 6        36.115               
E24  27877400.151 6 146497202.942 6      1936.413 6        41.075               
E26  28521949.211 6 149799961.475 6      1213.584 6        38.123               
E31  26030769.502 6 136792782.115 6      -321.262 6        39.652               
E33  27287685.547 6 143398221.926 6      1538.626 6        41.038               
> 2025 01 03 15 38 42.0000000  0  6                                             
E05  27623420.223 6 145085692.054 6      1075.255 6        37.055               
E09  30216551.375 6 158789544.657 6     -2832.196 6        36.310               
E24  27877029.387 6 146495265.784 6      1935.486 6        40.909               
E26  28522176.130 6 149798750.885 6      1209.735 6        38.110               
E31  26030825.056 6 136793103.392 6      -321.617 6        39.725               
E33  27287388.368 6 143396682.752 6      1538.861 6        41.259               
> 2025 01 03 15 38 43.0000000  0  6                                             
E05  27623627.932 6 145084619.729 6      1068.794 6        37.273               
E09  30217088.321 6 158792377.800 6     -2835.555 6        36.116               
E24  27876659.409 6 146493328.676 6      1937.415 6        40.773               
E26  28522406.569 6 149797539.890 6      1210.400 6        38.206               
E31  26030883.274 6 136793424.867 6      -320.951 6        39.575               
E33  27287094.476 6 143395143.977 6      1537.803 6        40.979               
> 2025 01 03 15 38 44.0000000  0  6                                             
E05  27623822.544 6 145083547.404 6      1069.875 6        37.468               
E09  30217629.181 5 158795210.568 5     -2832.112 5        35.985               
E24  27876287.751 6 146491391.241 6      1941.790 6        41.252               
E26  28522633.756 6 149796328.914 6      1210.033 6        38.168               
E31  26030939.436 6 136793746.101 6      -317.906 6        39.564               
E33  27286801.442 6 143393605.181 6      1540.942 6        40.769               
> 2025 01 03 15 38 45.0000000  0  6                                             
E05  27624029.217 6 145082476.216 6      1071.823 6        37.352               
E09  30218162.660 6 158798041.820 6     -2829.300 6        36.182               
E24  27875913.877 6 146489452.360 6      1941.523 6        41.156               
E26  28522860.942 6 149795119.078 6      1208.369 6        38.077               
E31  26030999.798 6 136794065.989 6      -319.505 6        39.720               
E33  27286503.351 6 143392065.249 6      1540.825 6        41.095               
> 2025 01 03 15 38 46.0000000  0  6                                             
E05  27624226.830 6 145081404.195 6      1072.161 6        36.879               
E09  30218700.822 6 158800873.592 6     -2834.291 6        36.078               
E24  27875544.096 6 146487514.028 6      1934.453 6        41.223               
E26  28523085.413 6 149793908.393 6      1210.617 6        38.202               
E31  26031055.549 6 136794386.527 6      -322.278 6        39.773               
E33  27286208.333 6 143390526.186 6      1539.174 6        41.383               
> 2025 01 03 15 38 47.0000000  0  6                                             
E05  27624428.589 6 145080330.883 6      1070.384 6        36.924               
E09  30219230.870 5 158803706.303 5     -2830.560 5        35.942               
E24  27875173.224 6 146485576.695 6      1937.622 6        41.215               
E26  28523314.851 6 149792696.345 6      1212.657 6        37.711               
E31  26031115.392 6 136794708.167 6      -320.661 6        39.833               
E33  27285911.546 6 143388988.466 6      1537.337 6        41.147               
> 2025 01 03 15 38 48.0000000  0  6                                             
E05  27624629.598 6 145079259.490 6      1069.676 6        37.073               
E09  30219770.926 6 158806536.727 6     -2828.754 6        36.225               
E24  27874798.940 6 146483637.055 6      1939.435 6        40.986               
E26  28523547.184 6 149791486.294 6      1211.597 6        37.956               
E31  26031174.860 6 136795027.662 6      -321.391 6        39.888               
E33  27285616.207 6 143387448.762 6      1537.570 6        40.806               
> 2025 01 03 15 38 49.0000000  0  6                                             
E05  27624833.269 6 145078185.775 6      1074.464 6        37.109               
E09  30220305.960 6 158809369.165 6     -2832.085 6        36.381               
E24  27874430.873 6 146481699.500 6      1938.890 6        40.962               
E26  28523772.781 6 149790273.838 6      1212.358 6        37.671               
E31  26031232.935 6 136795349.298 6      -322.725 6        39.930               
E33  27285323.048 6 143385911.454 6      1536.910 6        40.888               
> 2025 01 03 15 38 50.0000000  0  6                                             
E05  27625034.260 6 145077109.893 6      1075.836 6        36.963               
E09  30220843.961 6 158812203.406 6     -2830.543 6        36.188               
E24  27874058.554 6 146479763.836 6      1938.641 6        40.831               
E26  28524003.112 6 149789059.219 6      1212.485 6        37.707               
E31  26031293.207 6 136795672.892 6      -322.210 6        40.002               
E33  27285026.386 6 143384376.311 6      1535.890 6        41.023               
> 2025 01 03 15 38 51.0000000  0  6                                             
E05  27625237.824 6 145076035.599 6      1078.761 6        36.806               
E09  30221383.194 6 158815035.718 6     -2835.660 6        36.156               
E24  27873686.396 6 146477826.231 6      1935.726 6        41.209               
E26  28524230.067 6 149787846.209 6      1216.147 6        37.707               
E31  26031349.762 6 136795994.671 6      -324.470 6        39.696               
E33  27284731.887 6 143382839.585 6      1533.954 6        41.164               
> 2025 01 03 15 38 52.0000000  0  6                                             
E05  27625437.707 6 145074959.400 6      1073.283 6        36.334               
E09  30221918.514 6 158817869.634 6     -2832.451 6        36.069               
E24  27873315.239 6 146475890.275 6      1937.211 6        41.319               
E26  28524459.344 6 149786631.222 6      1211.811 6        37.662               
E31  26031410.160 6 136796318.236 6      -321.936 6        40.031               
E33  27284438.496 6 143381304.823 6      1535.520 6        40.818               
> 2025 01 03 15 38 53.0000000  0  6                                             
E05  27625642.897 6 145073883.739 6      1073.965 6        36.466               
E09  30222450.207 6 158820702.587 6     -2832.601 6        36.093               
E24  27872947.244 6 146473953.420 6      1935.821 6        41.376               
E26  28524688.765 6 149785416.810 6      1216.244 6        37.802               
E31  26031467.680 6 136796640.990 6      -324.110 6        40.106               
E33  27284143.067 6 143379769.500 6      1535.252 6        40.605               
> 2025 01 03 15 38 54.0000000  0  6                                             
E05  27625836.954 6 145072808.007 6      1074.559 6        36.454               
E09  30222988.261 6 158823535.310 6     -2830.495 6        36.135               
E24  27872576.283 6 146472016.370 6      1938.774 6        41.328               
E26  28524917.184 6 149784202.291 6      1212.168 6        37.907               
E31  26031527.577 6 136796963.644 6      -320.812 6        40.000               
E33  27283845.923 6 143378234.275 6      1536.452 6        40.750               
> 2025 01 03 15 38 55.0000000  0  6                                             
E05  27626040.286 6 145071732.832 6      1078.013 6        36.374               
E09  30223526.458 6 158826367.105 6     -2830.525 6        36.423               
E24  27872203.464 6 146470078.445 6      1936.664 6        41.632               
E26  28525145.265 6 149782988.316 6      1215.291 6        37.749               
E31  26031586.009 6 136797285.528 6      -324.060 6        40.054               
E33  27283552.317 6 143376698.513 6      1533.637 6        41.019               
> 2025 01 03 15 38 56.0000000  0  6                                             
E05  27626243.993 6 145070657.509 6      1075.279 6        36.354               
E09  30224062.708 6 158829198.727 6     -2833.327 6        36.550               
E24  27871833.825 6 146468140.375 6      1937.193 6        41.190               
E26  28525375.561 6 149781774.183 6      1212.192 6        38.021               
E31  26031644.172 6 136797607.371 6      -320.340 6        39.892               
E33  27283259.194 6 143375162.910 6      1536.129 6        41.094               
> 2025 01 03 15 38 57.0000000  0  6                                             
E05  27626446.002 6 145069581.532 6      1074.238 6        36.603               
E09  30224601.173 6 158832030.670 6     -2832.379 6        36.355               
E24  27871458.826 6 146466202.673 6      1936.932 6        41.077               
E26  28525596.600 6 149780559.379 6      1216.063 6        37.868               
E31  26031704.552 6 136797929.683 6      -321.627 6        39.854               
E33  27282967.303 6 143373628.016 6      1534.505 6        41.091               
> 2025 01 03 15 38 58.0000000  0  6                                             
E05  27626649.977 6 145068503.952 6      1076.110 6        36.623               
E09  30225132.097 6 158834863.838 6     -2832.731 6        36.464               
E24  27871091.707 6 146464266.177 6      1936.698 6        41.210               
E26  28525828.737 6 149779342.973 6      1216.527 6        37.827               
E31  26031762.305 6 136798253.357 6      -324.740 6        40.184               
E33  27282670.928 6 143372094.676 6      1533.889 6        41.068               
> 2025 01 03 15 38 59.0000000  0  6                                             
E05  27626853.577 6 145067427.507 6      1075.496 6        36.735               
E09  30225672.832 6 158837695.530 6     -2832.077 6        36.500               
E24  27870719.013 6 146462328.328 6      1937.325 6        40.764               
E26  28526058.497 6 149778127.675 6      1217.419 6        37.902               
E31  26031821.183 6 136798575.716 6      -322.421 6        40.245               
E33  27282373.766 6 143370560.253 6      1535.799 6        41.092               
> 2025 01 03 15 39 00.0000000  0  6                                             
E05  27627057.748 6 145066349.344 6      1078.835 6        36.909               
E09  30226202.291 6 158840528.605 6     -2832.571 6        36.175               
E24  27870347.677 6 146460391.906 6      1936.976 6        41.250               
E26  28526283.593 6 149776910.626 6      1216.718 6        37.928               
E31  26031879.847 6 136798899.614 6      -324.641 6        40.096               
E33  27282079.141 6 143369027.583 6      1531.958 6        40.978               
> 2025 01 03 15 39 01.0000000  0  6                                             
E05  27627258.382 6 145065271.226 6      1079.874 6        36.706               
E09  30226746.992 6 158843361.293 6     -2831.968 6        36.473               
E24  27869975.983 6 146458455.092 6      1935.505 6        41.107               
E26  28526516.980 6 149775693.647 6      1218.495 6        37.782               
E31  26031939.530 6 136799223.243 6      -324.682 6        40.303               
E33  27281785.911 6 143367494.858 6      1531.318 6        41.305               
> 2025 01 03 15 39 02.0000000  0  6                                             
E05  27627464.876 6 145064191.940 6      1077.078 6        36.974               
E09  30227281.330 6 158846194.803 6     -2833.116 6        36.605               
E24  27869604.075 6 146456519.155 6      1938.859 6        41.084               
E26  28526746.365 6 149774475.483 6      1216.852 6        37.744               
E31  26031998.890 6 136799547.848 6      -324.014 6        40.090               
E33  27281492.394 6 143365963.316 6      1534.056 6        41.260               
> 2025 01 03 15 39 03.0000000  0  6                                             
E05  27627666.296 6 145063113.433 6      1081.934 6        36.478               
E09  30227819.598 6 158849027.199 6     -2833.634 6        36.757               
E24  27869232.203 6 146454582.135 6      1934.538 6        41.229               
E26  28526977.787 6 149773258.066 6      1221.337 6        37.642               
E31  26032058.662 6 136799871.479 6      -325.761 6        40.206               
E33  27281195.715 6 143364431.029 6      1529.904 6        41.083               
> 2025 01 03 15 39 04.0000000  0  6                                             
E05  27627863.998 6 145062032.420 6      1082.402 6        36.624               
E09  30228354.740 6 158851861.723 6     -2835.543 6        36.516               
E24  27868865.924 6 146452647.299 6      1934.910 6        40.850               
E26  28527205.563 6 149772038.138 6      1221.017 6        37.641               
E31  26032119.220 6 136800197.413 6      -325.070 6        40.234               
E33  27280900.769 6 143362901.247 6      1529.990 6        41.150               
> 2025 01 03 15 39 05.0000000  0  6                                             
E05  27628067.562 6 145060952.153 6      1082.224 6        36.452               
E09  30228892.598 6 158854695.192 6     -2835.459 6        36.490               
E24  27868492.407 6 146450711.454 6      1936.061 6        40.813               
E26  28527435.734 6 149770818.914 6      1219.464 6        37.725               
E31  26032180.386 6 136800522.412 6      -324.695 6        40.254               
E33  27280608.521 6 143361370.776 6      1530.529 6        40.854               
> 2025 01 03 15 39 06.0000000  0  6                                             
E05  27628269.572 6 145059870.058 6      1083.311 6        36.265               
E09  30229427.650 6 158857530.076 6     -2835.469 6        36.532               
E24  27868118.963 6 146448777.093 6      1932.312 6        40.786               
E26  28527665.190 6 149769597.910 6      1224.030 6        38.036               
E31  26032236.745 6 136800849.011 6      -328.502 6        40.427               
E33  27280318.685 6 143359842.103 6      1527.032 6        40.933               
> 2025 01 03 15 39 07.0000000  0  6                                             
E05  27628477.514 6 145058786.980 6      1083.377 6        36.524               
E09  30229966.794 6 158860365.684 6     -2834.328 6        36.647               
E24  27867748.949 6 146446843.447 6      1934.656 6        40.619               
E26  28527895.272 6 149768375.843 6      1219.603 6        37.533               
E31  26032297.553 6 136801176.434 6      -326.714 6        40.651               
E33  27280023.471 6 143358314.474 6      1529.157 6        40.873               
> 2025 01 03 15 39 08.0000000  0  6                                             
E05  27628678.165 6 145057704.622 6      1084.133 6        36.531               
E09  30230503.901 6 158863200.185 6     -2835.439 6        36.599               
E24  27867375.450 6 146444908.760 6      1932.583 6        40.720               
E26  28528120.743 6 149767154.518 6      1224.782 6        37.353               
E31  26032356.557 6 136801502.921 6      -326.585 6        40.644               
E33  27279727.471 6 143356786.101 6      1526.235 6        41.170               
> 2025 01 03 15 39 09.0000000  0  6                                             
E05  27628881.282 6 145056620.558 6      1083.948 6        36.423               
E09  30231045.136 6 158866036.057 6     -2837.235 6        36.837               
E24  27867008.314 6 146442975.494 6      1932.551 6        40.704               
E26  28528356.918 6 149765931.471 6      1223.752 6        37.327               
E31  26032417.937 6 136801830.930 6      -328.692 6        40.397               
E33  27279435.884 6 143355259.481 6      1526.741 6        40.848               
> 2025 01 03 15 39 10.0000000  0  6                                             
E05  27629087.562 6 145055534.538 6      1085.823 6        36.187               
E09  30231580.867 6 158868873.511 6     -2835.269 6        36.619               
E24  27866637.835 6 146441043.856 6      1932.429 6        40.501               
E26  28528586.964 6 149764706.463 6      1223.736 6        37.760               
E31  26032476.637 6 136802160.657 6      -327.903 6        40.472               
E33  27279143.940 6 143353734.818 6      1524.572 6        40.954               
> 2025 01 03 15 39 11.0000000  0  6                                             
E05  27629294.843 6 145054451.167 6      1084.833 6        36.584               
E09  30232114.883 6 158871707.982 6     -2833.772 6        36.514               
E24  27866265.248 6 146439109.263 6      1934.566 6        40.446               
E26  28528812.220 6 149763484.083 6      1222.831 6        37.872               
E31  26032535.265 6 136802487.551 6      -326.890 6        40.481               
E33  27278847.832 6 143352207.525 6      1527.684 6        40.608               
> 2025 01 03 15 39 12.0000000  0  6                                             
E05  27629494.922 6 145053366.062 6      1087.031 6        36.772               
E09  30232648.470 6 158874543.860 6     -2836.919 6        36.579               
E24  27865893.823 6 146437176.125 6      1930.623 6        40.418               
E26  28529045.250 6 149762259.953 6      1226.550 6        37.970               
E31  26032594.876 6 136802815.992 6      -331.156 6        40.107               
E33  27278557.336 6 143350682.022 6      1523.030 6        40.591               
> 2025 01 03 15 39 13.0000000  0  6                                             
E05  27629704.955 6 145052278.188 6      1091.649 6        36.712               
E09  30233189.240 6 158877382.149 6     -2839.586 6        36.271               
E24  27865527.472 6 146435245.427 6      1929.623 6        40.575               
E26  28529277.262 6 149761033.023 6      1230.939 6        37.940               
E31  26032655.934 6 136803147.002 6      -333.735 6        40.350               
E33  27278264.212 6 143349159.257 6      1521.509 6        40.419               
> 2025 01 03 15 39 14.0000000  0  6                                             
E05  27629909.787 6 145051190.632 6      1085.996 6        36.786               
E09  30233730.957 6 158880219.783 6     -2835.971 6        36.480               
E24  27865156.582 6 146433314.139 6      1931.545 6        40.812               
E26  28529506.593 6 149759806.429 6      1223.314 6        37.462               
E31  26032714.170 6 136803477.496 6      -327.577 6        40.446               
E33  27277970.660 6 143347636.228 6      1524.476 6        40.526               
> 2025 01 03 15 39 15.0000000  0  6                                             
E05  27630110.242 6 145050103.659 6      1085.978 6        36.645               
E09  30234265.044 6 158883056.474 6     -2840.025 6        36.316               
E24  27864788.248 6 146431381.951 6      1932.947 6        40.901               
E26  28529739.587 6 149758580.361 6      1227.362 6        37.763               
E31  26032773.298 6 136803807.187 6      -329.744 6        40.280               
E33  27277681.485 6 143346112.604 6      1522.586 6        40.496               
> 2025 01 03 15 39 16.0000000  0  6                                             
E05  27630313.681 6 145049018.470 6      1085.706 6        36.471               
E09  30234803.510 6 158885891.025 6     -2835.245 6        36.473               
E24  27864417.019 6 146429447.687 6      1933.558 6        40.824               
E26  28529971.884 6 149757356.117 6      1222.618 6        38.043               
E31  26032835.786 6 136804134.938 6      -328.816 6        40.375               
E33  27277386.754 6 143344587.244 6      1523.630 6        40.505               
> 2025 01 03 15 39 17.0000000  0  6                                             
E05  27630517.959 6 145047934.013 6      1085.499 6        36.757               
E09  30235337.972 6 158888724.510 6     -2836.627 6        36.535               
E24  27864046.737 6 146427512.370 6      1933.127 6        40.469               
E26  28530201.876 6 149756132.559 6      1223.088 6        38.319               
E31  26032893.271 6 136804461.723 6      -327.242 6        40.293               
E33  27277093.380 6 143343061.138 6      1526.147 6        40.592               
> 2025 01 03 15 39 18.0000000  0  6                                             
E05  27630726.562 6 145046849.086 6      1086.301 6        36.748               
E09  30235872.077 6 158891558.115 6     -2832.087 6        36.192               
E24  27863674.847 6 146425577.229 6      1934.433 6        40.646               
E26  28530431.243 6 149754908.531 6      1223.243 6        38.056               
E31  26032953.257 6 136804788.793 6      -327.372 6        39.955               
E33  27276800.132 6 143341535.545 6      1524.543 6        40.693               
> 2025 01 03 15 39 19.0000000  0  6                                             
E05  27630926.231 6 145045763.877 6      1086.558 6        36.921               
E09  30236413.669 6 158894391.688 6     -2832.124 6        36.678               
E24  27863301.849 6 146423642.074 6      1934.772 6        40.863               
E26  28530662.433 6 149753684.185 6      1226.842 6        38.192               
E31  26033012.171 6 136805115.950 6      -327.971 6        40.023               
E33  27276510.743 6 143340010.257 6      1524.011 6        40.849               
> 2025 01 03 15 39 20.0000000  0  6                                             
E05  27631130.420 6 145044677.941 6      1085.748 6        36.900               
E09  30236947.417 6 158897225.606 6     -2834.603 6        36.484               
E24  27862932.532 6 146421707.323 6      1936.578 6        41.162               
E26  28530887.672 6 149752459.131 6      1226.708 6        38.096               
E31  26033074.338 6 136805443.617 6      -327.300 6        39.930               
E33  27276216.190 6 143338485.686 6      1523.566 6        40.921               
> 2025 01 03 15 39 21.0000000  0  6                                             
E05  27631333.519 6 145043593.447 6      1085.334 6        37.136               
E09  30237482.040 6 158900057.752 6     -2833.903 6        36.305               
E24  27862563.323 6 146419770.860 6      1936.944 6        40.940               
E26  28531124.240 6 149751235.464 6      1224.136 6        37.688               
E31  26033132.430 6 136805769.659 6      -327.161 6        39.942               
E33  27275921.744 6 143336959.735 6      1523.920 6        40.928               
> 2025 01 03 15 39 22.0000000  0  6                                             
E05  27631535.314 6 145042510.714 6      1084.197 6        37.319               
E09  30238017.914 6 158902887.803 6     -2833.265 6        36.230               
E24  27862194.863 6 146417832.328 6      1936.453 6        41.300               
E26  28531352.141 6 149750013.585 6      1221.361 6        37.569               
E31  26033192.863 6 136806093.741 6      -327.106 6        40.084               
E33  27275632.373 6 143335432.004 6      1524.597 6        41.047               
> 2025 01 03 15 39 23.0000000  0  6                                             
E05  27631739.933 6 145041426.462 6      1086.996 6        37.185               
E09  30238557.166 6 158905718.959 6     -2832.469 6        36.570               
E24  27861820.722 6 146415894.968 6      1937.001 6        41.159               
E26  28531581.079 6 149748790.158 6      1225.127 6        37.957               
E31  26033253.635 6 136806419.119 6      -325.843 6        40.330               
E33  27275337.999 6 143333905.792 6      1525.990 6        40.873               
> 2025 01 03 15 39 24.0000000  0  6                                             
E05  27631948.053 6 145040339.712 6      1086.229 6        36.930               
E09  30239094.416 6 158908552.358 6     -2834.088 6        36.544               
E24  27861448.099 6 146413959.871 6      1936.059 6        41.495               
E26  28531814.270 6 149747564.172 6      1225.903 6        37.886               
E31  26033313.443 6 136806746.848 6      -327.933 6        40.187               
E33  27275045.000 6 143332382.169 6      1523.029 6        41.143               
> 2025 01 03 15 39 25.0000000  0  6                                             
E05  27632149.008 6 145039252.319 6      1086.035 6        37.255               
E09  30239628.825 6 158911386.002 6     -2833.853 6        36.193               
E24  27861076.888 6 146412025.058 6      1936.295 6        41.379               
E26  28532048.461 6 149746337.630 6      1224.556 6        37.443               
E31  26033372.500 6 136807074.966 6      -327.515 6        40.234               
E33  27274755.397 6 143330859.148 6      1524.325 6        41.114               
> 2025 01 03 15 39 26.0000000  0  6                                             
E05  27632352.911 6 145038166.064 6      1086.497 6        37.112               
E09  30240167.022 5 158914218.176 5     -2833.003 5        35.985               
E24  27860707.374 6 146410088.833 6      1938.141 6        41.107               
E26  28532271.056 6 149745112.153 6      1225.634 6        37.829               
E31  26033433.433 6 136807401.788 6      -326.962 6        40.475               
E33  27274458.503 6 143329335.034 6      1522.093 6        41.046               
> 2025 01 03 15 39 27.0000000  0  6                                             
E05  27632559.638 6 145037080.048 6      1089.064 6        37.368               
E09  30240699.054 6 158917049.762 6     -2831.627 6        36.104               
E24  27860336.985 6 146408152.051 6      1935.017 6        40.975               
E26  28532502.156 6 149743886.930 6      1226.529 6        37.836               
E31  26033491.544 6 136807728.151 6      -328.241 6        40.449               
E33  27274167.882 6 143327810.684 6      1524.343 6        41.292               
> 2025 01 03 15 39 28.0000000  0  6                                             
E05  27632761.362 6 145035992.829 6      1088.922 6        37.295               
E09  30241241.039 6 158919882.222 6     -2834.900 6        36.089               
E24  27859962.915 6 146406216.202 6      1937.351 6        40.847               
E26  28532734.114 6 149742660.417 6      1229.684 6        37.890               
E31  26033551.387 6 136808055.548 6      -326.631 6        40.308               
E33  27273876.116 6 143326287.604 6      1522.829 6        41.283               
> 2025 01 03 15 39 29.0000000  0  6                                             
E05  27632965.158 6 145034906.220 6      1087.369 6        37.042               
E09  30241780.255 6 158922713.682 6     -2834.040 6        36.223               
E24  27859592.258 6 146404279.413 6      1937.001 6        40.752               
E26  28532964.427 6 149741434.563 6      1226.550 6        38.119               
E31  26033611.337 6 136808382.099 6      -326.332 6        40.353               
E33  27273582.457 6 143324763.885 6      1522.290 6        41.179               
> 2025 01 03 15 39 30.0000000  0  6                                             
E05  27633166.131 6 145033817.641 6      1088.825 6        36.673               
E09  30242312.180 6 158925546.755 6     -2831.810 6        36.513               
E24  27859221.744 6 146402344.292 6      1937.422 6        40.783               
E26  28533198.261 6 149740206.731 6      1225.400 6        37.893               
E31  26033670.841 6 136808710.441 6      -327.827 6        40.353               
E33  27273293.711 6 143323242.145 6      1523.710 6        41.101               
> 2025 01 03 15 39 31.0000000  0  6                                             
E05  27633369.623 6 145032730.009 6      1083.312 6        36.815               
E09  30242846.017 6 158928378.605 6     -2833.449 6        36.287               
E24  27858850.497 6 146400407.964 6      1935.457 6        40.732               
E26  28533428.575 6 149738979.798 6      1231.402 6        37.558               
E31  26033730.863 6 136809037.657 6      -329.846 6        40.293               
E33  27273000.445 6 143321719.518 6      1520.566 6        41.055               
> 2025 01 03 15 39 32.0000000  0  6                                             
E05  27633580.960 6 145031640.650 6      1091.025 6        36.679               
E09  30243383.142 6 158931211.824 6     -2834.651 6        36.295               
E24  27858479.536 6 146398473.030 6      1935.148 6        40.939               
E26  28533659.926 6 149737751.127 6      1230.641 6        37.602               
E31  26033789.920 6 136809366.377 6      -330.273 6        40.235               
E33  27272704.516 6 143320198.634 6      1520.236 6        41.254               
> 2025 01 03 15 39 33.0000000  0  6                                             
E05  27633780.307 6 145030549.586 6      1091.518 6        36.843               
E09  30243921.161 6 158934046.354 6     -2834.332 6        36.216               
E24  27858111.041 6 146396539.506 6      1933.111 6        41.012               
E26  28533889.507 6 149736520.766 6      1228.960 6        37.347               
E31  26033850.872 6 136809696.617 6      -329.655 6        40.285               
E33  27272411.196 6 143318679.465 6      1518.294 6        41.212               
> 2025 01 03 15 39 34.0000000  0  6                                             
E05  27633991.965 6 145029458.116 6      1091.147 6        36.648               
E09  30244457.982 6 158936880.970 6     -2833.691 6        36.062               
E24  27857739.312 6 146394606.082 6      1930.731 6        40.731               
E26  28534121.822 6 149735289.957 6      1231.691 6        37.499               
E31  26033910.518 6 136810027.064 6      -331.996 6        40.603               
E33  27272123.701 6 143317160.723 6      1518.095 6        41.273               
> 2025 01 03 15 39 35.0000000  0  6                                             
E05  27634192.170 6 145028366.268 6      1094.042 6        36.902               
E09  30244991.050 5 158939715.621 5     -2833.407 5        35.960               
E24  27857368.923 6 146392672.717 6      1933.719 6        40.973               
E26  28534352.815 6 149734058.800 6      1232.206 6        37.646               
E31  26033969.540 6 136810357.668 6      -330.739 6        40.527               
E33  27271831.024 6 143315642.365 6      1517.934 6        41.001               
> 2025 01 03 15 39 36.0000000  0  6                                             
E05  27634400.684 6 145027273.593 6      1090.165 6        36.960               
E09  30245524.762 6 158942550.769 6     -2835.822 6        36.175               
E24  27856996.228 6 146390739.939 6      1932.204 6        40.810               
E26  28534582.968 6 149732826.740 6      1232.011 6        37.574               
E31  26034030.741 6 136810688.957 6      -330.399 6        40.439               
E33  27271540.420 6 143314124.896 6      1517.354 6        41.034               
> 2025 01 03 15 39 37.0000000  0  6                                             
E05  27634605.016 6 145026180.301 6      1092.936 6        36.949               
E09  30246061.405 6 158945386.129 6     -2835.674 6        36.182               
E24  27856632.451 6 146388807.399 6      1930.195 6        41.251               
E26  28534814.961 6 149731594.110 6      1233.075 6        37.273               
E31  26034092.461 6 136811020.608 6      -331.814 6        40.688               
E33  27271251.478 6 143312607.996 6      1516.417 6        40.935               
> 2025 01 03 15 39 38.0000000  0  6                                             
E05  27634810.117 6 145025086.239 6      1091.748 6        36.830               
E09  30246602.104 5 158948221.990 5     -2836.560 5        35.862               
E24  27856260.043 6 146386875.374 6      1930.122 6        41.212               
E26  28535042.059 6 149730360.664 6      1232.317 6        37.435               
E31  26034152.483 6 136811352.864 6      -331.964 6        40.603               
E33  27270955.710 6 143311091.943 6      1515.509 6        40.900               
> 2025 01 03 15 39 39.0000000  0  6                                             
E05  27635016.397 6 145023991.660 6      1095.254 6        36.850               
E09  30247139.908 6 158951057.934 6     -2835.561 6        36.182               
E24  27855886.777 6 146384943.532 6      1932.307 6        41.121               
E26  28535276.643 6 149729126.705 6      1232.943 6        37.476               
E31  26034212.344 6 136811685.387 6      -330.702 6        40.639               
E33  27270665.625 6 143309576.384 6      1516.068 6        40.899               
> 2025 01 03 15 39 40.0000000  0  6                                             
E05  27635217.888 6 145022897.723 6      1090.425 6        36.816               
E09  30247672.512 6 158953892.965 6     -2834.353 6        36.290               
E24  27855518.067 6 146383010.807 6      1931.462 6        41.307               
E26  28535515.659 6 149727893.314 6      1231.675 6        37.498               
E31  26034273.331 6 136812017.172 6      -332.825 6        40.616               
E33  27270374.753 6 143308060.264 6      1517.128 6        40.656               
> 2025 01 03 15 39 41.0000000  0  6                                             
E05  27635426.866 6 145021802.549 6      1091.669 6        36.829               
E09  30248216.820 6 158956728.818 6     -2836.114 6        36.239               
E24  27855147.446 6 146381078.916 6      1932.178 6        41.543               
E26  28535743.650 6 149726658.779 6      1233.604 6        37.342               
E31  26034330.208 6 136812349.889 6      -331.915 6        40.649               
E33  27270081.343 6 143306545.317 6      1515.756 6        40.800               
> 2025 01 03 15 39 42.0000000  0  6                                             
E05  27635630.072 6 145020706.849 6      1095.281 6        36.857               
E09  30248753.105 6 158959564.892 6     -2835.350 6        36.298               
E24  27854779.594 6 146379147.331 6      1931.124 6        41.465               
E26  28535977.055 6 149725423.623 6      1235.978 6        37.227               
E31  26034394.537 6 136812682.986 6      -333.524 6        40.638               
E33  27269790.900 6 143305030.966 6      1512.132 6        40.715               
> 2025 01 03 15 39 43.0000000  0  6                                             
E05  27635841.910 6 145019609.670 6      1097.288 6        36.458               
E09  30249284.870 6 158962402.090 6     -2837.179 6        36.635               
E24  27854409.616 6 146377216.909 6      1931.061 6        41.253               
E26  28536212.194 6 149724187.015 6      1237.622 6        37.203               
E31  26034455.131 6 136813017.357 6      -334.541 6        40.602               
E33  27269501.547 6 143303518.102 6      1512.843 6        40.645               
> 2025 01 03 15 39 44.0000000  0  6                                             
E05  27636041.114 6 145018513.669 6      1097.533 6        36.349               
E09  30249827.909 6 158965237.759 6     -2834.373 6        36.657               
E24  27854037.905 6 146375285.005 6      1931.670 6        41.176               
E26  28536444.009 6 149722951.554 6      1236.462 6        36.762               
E31  26034517.333 6 136813350.364 6      -333.218 6        40.729               
E33  27269207.208 6 143302004.091 6      1511.696 6        40.849               
> 2025 01 03 15 39 45.0000000  0  6                                             
E05  27636250.539 6 145017415.589 6      1093.906 6        36.222               
E09  30250361.746 6 158968075.184 6     -2831.912 6        36.647               
E24  27853668.141 6 146373354.886 6      1933.212 6        40.823               
E26  28536677.271 6 149721713.996 6      1232.854 6        37.158               
E31  26034579.320 6 136813685.243 6      -332.235 6        40.730               
E33  27268919.714 6 143300492.194 6      1515.146 6        41.082               
> 2025 01 03 15 39 46.0000000  0  6                                             
E05  27636455.925 6 145016319.556 6      1094.957 6        36.486               
E09  30250903.553 6 158970910.191 6     -2836.046 6        36.153               
E24  27853295.858 6 146371422.397 6      1932.196 6        40.573               
E26  28536907.871 6 149720478.484 6      1237.930 6        37.155               
E31  26034639.378 6 136814017.870 6      -334.891 6        40.380               
E33  27268631.862 6 143298978.257 6      1511.673 6        40.700               
> 2025 01 03 15 39 47.0000000  0  6                                             
E05  27636667.298 6 145015223.229 6      1098.649 6        36.457               
E09  30251436.496 6 158973745.144 6     -2830.864 6        36.330               
E24  27852925.790 6 146369489.923 6      1931.382 6        40.287               
E26  28537139.489 6 149719242.660 6      1236.555 6        36.885               
E31  26034698.346 6 136814350.602 6      -333.396 6        40.980               
E33  27268338.095 6 143297464.627 6      1512.832 6        40.935               
> 2025 01 03 15 39 48.0000000  0  6                                             
E05  27636870.486 6 145014125.400 6      1098.187 6        36.687               
E09  30251973.693 6 158976581.250 6     -2832.676 6        36.331               
E24  27852557.224 6 146367558.634 6      1933.014 6        40.330               
E26  28537375.807 6 149718005.326 6      1237.096 6        37.416               
E31  26034761.013 6 136814684.648 6      -332.923 6        41.096               
E33  27268048.456 6 143295952.522 6      1513.418 6        40.697               
> 2025 01 03 15 39 49.0000000  0  6                                             
E05  27637078.357 6 145013028.000 6      1096.649 6        37.021               
E09  30252508.959 6 158979416.593 6     -2834.290 6        36.473               
E24  27852186.209 6 146365626.644 6      1932.003 6        40.589               
E26  28537611.446 6 149716768.366 6      1236.495 6        37.347               
E31  26034822.589 6 136815018.071 6      -333.838 6        41.017               
E33  27267761.122 6 143294440.030 6      1512.862 6        40.572               
> 2025 01 03 15 39 50.0000000  0  6                                             
E05  27637286.084 6 145011931.029 6      1096.378 6        36.918               
E09  30253050.069 6 158982251.169 6     -2831.292 6        36.324               
E24  27851814.551 6 146363693.909 6      1934.105 6        40.704               
E26  28537840.223 6 149715531.887 6      1235.631 6        37.385               
E31  26034884.559 6 136815350.853 6      -333.470 6        40.594               
E33  27267470.339 6 143292927.120 6      1514.203 6        40.443               
> 2025 01 03 15 39 51.0000000  0  6                                             
E05  27637490.256 6 145010833.777 6      1101.349 6        36.522               
E09  30253581.244 6 158985085.663 6     -2833.930 6        36.406               
E24  27851446.503 6 146361761.135 6      1931.723 6        40.867               
E26  28538077.059 6 149714295.084 6      1239.195 6        37.444               
E31  26034942.937 6 136815683.706 6      -332.971 6        40.796               
E33  27267180.772 6 143291414.494 6      1513.079 6        40.553               
> 2025 01 03 15 39 52.0000000  0  6                                             
E05  27637694.052 6 145009735.543 6      1099.654 6        37.076               
E09  30254122.907 6 158987920.792 6     -2832.894 6        36.415               
E24  27851076.311 6 146359829.039 6      1933.693 6        40.779               
E26  28538310.857 6 149713057.276 6      1236.881 6        37.321               
E31  26035004.853 6 136816017.368 6      -331.556 6        40.544               
E33  27266891.901 6 143289902.888 6      1511.887 6        40.895               
> 2025 01 03 15 39 53.0000000  0  6                                             
E05  27637900.904 6 145008638.315 6      1092.811 6        36.951               
E09  30254656.762 6 158990754.596 6     -2832.894 6        36.042               
E24  27850704.081 6 146357895.709 6      1934.912 6        40.882               
E26  28538541.099 6 149711820.468 6      1236.505 6        37.392               
E31  26035065.000 6 136816349.828 6      -331.145 6        40.729               
E33  27266601.780 6 143288390.308 6      1513.746 6        40.770               
> 2025 01 03 15 39 54.0000000  0  6                                             
E05  27638112.777 6 145007541.247 6      1101.347 6        36.883               
E09  30255196.050 6 158993587.870 6     -2836.799 6        36.302               
E24  27850335.157 6 146355961.856 6      1930.771 6        40.933               
E26  28538777.060 6 149710583.770 6      1239.250 6        37.414               
E31  26035123.271 6 136816681.934 6      -334.530 6        40.632               
E33  27266308.085 6 143286877.582 6      1510.064 6        40.891               
> 2025 01 03 15 39 55.0000000  0  6                                             
E05  27638314.732 6 145006443.134 6      1097.827 6        36.899               
E09  30255728.564 6 158996421.838 6     -2834.461 6        36.471               
E24  27849961.534 6 146354028.765 6      1932.573 6        41.032               
E26  28539006.659 6 149709346.060 6      1238.787 6        37.378               
E31  26035184.240 6 136817014.885 6      -335.439 6        40.673               
E33  27266020.411 6 143285365.916 6      1510.460 6        40.979               
> 2025 01 03 15 39 56.0000000  0  6                                             
E05  27638519.029 6 145005345.113 6      1096.626 6        36.431               
E09  30256268.548 6 158999255.348 6     -2830.857 6        36.437               
E24  27849593.718 6 146352095.291 6      1936.198 6        41.142               
E26  28539239.939 6 149708108.440 6      1234.993 6        37.509               
E31  26035246.335 6 136817347.534 6      -330.232 6        40.810               
E33  27265729.432 6 143283854.186 6      1513.183 6        41.173               
> 2025 01 03 15 39 57.0000000  0  6                                             
E05  27638728.615 6 145004246.759 6      1095.913 6        36.479               
E09  30256808.675 6 159002088.870 6     -2834.909 6        36.647               
E24  27849221.059 6 146350161.819 6      1933.417 6        41.068               
E26  28539469.109 6 149706870.445 6      1238.124 6        37.629               
E31  26035306.875 6 136817680.331 6      -332.008 6        40.912               
E33  27265441.544 6 143282342.802 6      1510.705 6        41.057               
> 2025 01 03 15 39 58.0000000  0  6                                             
E05  27638933.805 6 145003148.920 6      1098.863 6        36.801               
E09  30257338.938 6 159004921.519 6     -2833.044 6        36.468               
E24  27848850.045 6 146348227.553 6      1936.397 6        41.233               
E26  28539709.197 6 149705632.972 6      1235.811 6        37.265               
E31  26035368.559 6 136818012.416 6      -330.166 6        40.366               
E33  27265146.312 6 143280830.930 6      1513.161 6        41.028               
> 2025 01 03 15 39 59.0000000  0  6                                             
E05  27639139.942 6 145002051.999 6      1099.377 6        36.504               
E09  30257877.296 6 159007752.887 6     -2828.262 6        36.661               
E24  27848480.281 6 146346292.054 6      1937.197 6        41.554               
E26  28539939.279 6 149704396.414 6      1234.113 6        37.463               
E31  26035428.045 6 136818343.352 6      -328.851 6        40.641               
E33  27264855.333 6 143279318.137 6      1515.149 6        40.971               
> 2025 01 03 15 40 00.0000000  0  6                                             
E05  27639348.366 6 145000955.021 6      1096.752 6        36.078               
E09  30258412.634 6 159010584.009 6     -2826.586 6        36.719               
E24  27848109.088 6 146344356.344 6      1936.253 6        41.699               
E26  28540174.703 6 149703159.723 6      1237.216 6        37.527               
E31  26035486.459 6 136818674.216 6      -329.378 6        40.762               
E33  27264565.676 6 143277805.476 6      1513.894 6        40.854               
> 2025 01 03 15 40 01.0000000  0  6                                             
E05  27639553.127 6 144999857.441 6      1095.454 6        36.231               
E09  30258950.153 6 159013415.343 6     -2831.117 6        36.705               
E24  27847739.449 6 146342420.909 6      1935.872 6        41.354               
E26  28540403.999 6 149701922.454 6      1237.403 6        37.783               
E31  26035548.357 6 136819005.427 6      -330.524 6        40.638               
E33  27264277.985 6 143276293.413 6      1513.430 6        40.783               
> 2025 01 03 15 40 02.0000000  0  6                                             
E05  27639762.624 6 144998759.490 6      1102.784 6        36.316               
E09  30259485.419 6 159016246.741 6     -2832.799 6        36.508               
E24  27847369.614 6 146340485.560 6      1933.694 6        41.075               
E26  28540633.955 6 149700684.817 6      1238.919 6        37.389               
E31  26035609.773 6 136819336.845 6      -332.875 6        40.446               
E33  27263985.701 6 143274781.735 6      1508.443 6        40.818               
> 2025 01 03 15 40 03.0000000  0  6                                             
E05  27639971.763 6 144997662.137 6      1098.859 6        36.565               
E09  30260023.027 6 159019077.158 6     -2831.311 6        36.548               
E24  27846999.600 6 146338549.306 6      1934.245 6        41.005               
E26  28540867.199 6 149699447.742 6      1238.711 6        37.778               
E31  26035668.616 6 136819667.446 6      -331.985 6        40.406               
E33  27263694.204 6 143273269.481 6      1511.078 6        40.814               
> 2025 01 03 15 40 04.0000000  0  6                                             
E05  27640173.057 6 144996564.419 6      1096.611 6        36.844               
E09  30260559.347 6 159021907.580 6     -2826.527 6        36.564               
E24  27846625.459 6 146336613.107 6      1936.780 6        41.033               
E26  28541100.926 6 149698210.304 6      1237.781 6        38.283               
E31  26035729.603 6 136819998.244 6      -329.486 6        40.377               
E33  27263405.494 6 143271757.614 6      1512.399 6        41.086               
> 2025 01 03 15 40 05.0000000  0  6                                             
E05  27640380.463 6 144995466.500 6      1097.962 6        36.781               
E09  30261092.523 6 159024737.864 6     -2826.075 6        36.648               
E24  27846253.568 6 146334676.811 6      1937.265 6        40.991               
E26  28541334.814 6 149696972.645 6      1237.902 6        38.498               
E31  26035790.876 6 136820329.020 6      -330.719 6        40.304               
E33  27263110.673 6 143270245.976 6      1511.005 6        41.402               
> 2025 01 03 15 40 06.0000000  0  6                                             
E05  27640585.456 6 144994368.525 6      1095.722 6        37.036               
E09  30261633.812 6 159027567.900 6     -2826.759 6        36.432               
E24  27845885.377 6 146332740.288 6      1938.061 6        41.094               
E26  28541565.253 6 149695734.931 6      1236.767 6        38.354               
E31  26035852.041 6 136820659.689 6      -328.792 6        40.074               
E33  27262825.037 6 143268734.435 6      1513.280 6        41.086               
> 2025 01 03 15 40 07.0000000  0  6                                             
E05  27640793.416 6 144993270.708 6      1098.100 6        36.909               
E09  30262167.559 6 159030397.399 6     -2827.388 6        36.366               
E24  27845515.310 6 146330803.324 6      1938.190 6        41.037               
E26  28541801.553 6 149694497.326 6      1237.696 6        38.449               
E31  26035912.635 6 136820989.993 6      -328.972 6        40.218               
E33  27262535.183 6 143267222.744 6      1512.431 6        41.009               
> 2025 01 03 15 40 08.0000000  0  6                                             
E05  27641002.644 6 144992173.337 6      1098.994 6        37.185               
E09  30262705.381 6 159033226.128 6     -2829.685 6        36.062               
E24  27845141.043 6 146328865.582 6      1937.373 6        41.054               
E26  28542031.009 6 149693260.151 6      1239.169 6        38.189               
E31  26035971.246 6 136821319.633 6      -329.169 6        40.430               
E33  27262244.669 6 143265710.627 6      1510.961 6        41.080               
> 2025 01 03 15 40 09.0000000  0  6                                             
E05  27641203.474 6 144991074.028 6      1101.207 6        36.769               
E09  30263238.879 6 159036056.431 6     -2830.696 6        36.275               
E24  27844775.675 6 146326929.487 6      1935.314 6        40.977               
E26  28542267.756 6 149692021.081 6      1238.627 6        38.161               
E31  26036032.090 6 136821651.034 6      -331.812 6        40.232               
E33  27261954.887 6 143264200.472 6      1511.277 6        40.986               
> 2025 01 03 15 40 10.0000000  0  6                                             
E05  27641417.849 6 144989976.602 6      1096.304 6        37.045               
E09  30263773.931 6 159038884.487 6     -2826.537 6        36.239               
E24  27844397.102 6 146324991.205 6      1938.100 6        41.194               
E26  28542499.999 6 149690783.814 6      1236.794 6        38.696               
E31  26036092.219 6 136821980.335 6      -330.119 6        40.299               
E33  27261662.299 6 143262688.464 6      1511.558 6        41.225               
> 2025 01 03 15 40 11.0000000  0  6                                             
E05  27641620.752 6 144988878.273 6      1098.520 6        37.128               
E09  30264311.110 6 159041713.102 6     -2829.676 6        36.116               
E24  27844031.645 6 146323053.532 6      1937.703 6        41.480               
E26  28542730.653 6 149689545.654 6      1240.038 6        38.267               
E31  26036153.563 6 136822310.360 6      -329.048 6        40.747               
E33  27261377.539 6 143261177.380 6      1511.885 6        41.240               
> 2025 01 03 15 40 12.0000000  0  6                                             
E05  27641823.261 6 144987778.549 6      1098.056 6        37.015               
E09  30264845.965 6 159044542.775 6     -2825.408 6        36.174               
E24  27843657.217 6 146321116.971 6      1937.913 6        41.195               
E26  28542966.309 6 149688306.103 6      1241.573 6        38.060               
E31  26036214.372 6 136822641.599 6      -331.106 6        40.659               
E33  27261082.164 6 143259667.708 6      1510.425 6        41.266               
> 2025 01 03 15 40 13.0000000  0  6                                             
E05  27642032.257 6 144986678.761 6      1101.156 6        37.246               
E09  30265386.003 6 159047372.153 6     -2829.486 6        36.152               
E24  27843287.150 6 146319180.152 6      1936.094 6        41.008               
E26  28543198.267 6 149687066.488 6      1238.393 6        37.797               
E31  26036273.500 6 136822972.675 6      -330.357 6        40.501               
E33  27260795.491 6 143258158.126 6      1507.808 6        41.054               
> 2025 01 03 15 40 14.0000000  0  6                                             
E05  27642241.611 6 144985578.559 6      1100.881 6        37.115               
E09  30265915.516 6 159050201.617 6     -2829.163 6        36.219               
E24  27842915.617 6 146317243.466 6      1934.548 6        40.949               
E26  28543433.012 6 149685826.401 6      1240.766 6        37.780               
E31  26036333.522 6 136823303.992 6      -332.936 6        40.500               
E33  27260506.317 6 143256648.983 6      1509.713 6        40.894               
> 2025 01 03 15 40 15.0000000  0  6                                             
E05  27642444.549 6 144984478.273 6      1098.831 6        37.126               
E09  30266451.211 6 159053030.795 6     -2826.388 6        36.365               
E24  27842547.194 6 146315306.540 6      1937.913 6        40.956               
E26  28543668.669 6 149684586.236 6      1240.932 6        37.741               
E31  26036393.759 6 136823635.178 6      -329.480 6        40.358               
E33  27260216.410 6 143255139.927 6      1510.487 6        41.016               
> 2025 01 03 15 40 16.0000000  0  6                                             
E05  27642653.671 6 144983377.834 6      1101.698 6        37.131               
E09  30266989.051 6 159055859.756 6     -2828.004 6        36.445               
E24  27842175.661 6 146313369.467 6      1935.371 6        40.997               
E26  28543901.931 6 149683345.944 6      1240.026 6        37.833               
E31  26036454.746 6 136823966.311 6      -332.069 6        40.341               
E33  27259925.019 6 143253631.055 6      1507.942 6        40.967               
> 2025 01 03 15 40 17.0000000  0  6                                             
E05  27642859.218 6 144982275.933 6      1101.145 6        36.736               
E09  30267526.068 6 159058689.899 6     -2829.022 6        36.559               
E24  27841801.073 6 146311433.607 6      1936.119 6        40.830               
E26  28544132.728 6 149682104.124 6      1242.110 6        37.780               
E31  26036515.250 6 136824298.762 6      -333.145 6        40.193               
E33  27259636.738 6 143252123.701 6      1506.999 6        41.009               
> 2025 01 03 15 40 18.0000000  0  6                                             
E05  27643064.926 6 144981173.777 6      1102.328 6        36.779               
E09  30268059.352 6 159061519.916 6     -2832.734 6        36.430               
E24  27841431.380 6 146309497.656 6      1935.511 6        40.964               
E26  28544365.079 6 149680862.027 6      1244.283 6        38.028               
E31  26036575.362 6 136824631.228 6      -332.140 6        40.376               
E33  27259344.902 6 143250616.585 6      1506.717 6        40.996               
> 2025 01 03 15 40 19.0000000  0  6                                             
E05  27643272.564 6 144980071.710 6      1102.957 6        36.748               
E09  30268593.046 6 159064349.465 6     -2829.561 6        36.548               
E24  27841062.975 6 146307561.343 6      1935.866 6        41.090               
E26  28544600.860 6 149679620.042 6      1241.695 6        38.128               
E31  26036635.580 6 136824963.431 6      -332.076 6        40.763               
E33  27259055.799 6 143249109.434 6      1505.880 6        41.116               
> 2025 01 03 15 40 20.0000000  0  6                                             
E05  27643481.024 6 144978969.380 6      1100.806 6        36.623               
E09  30269130.171 6 159067178.979 6     -2831.297 6        36.254               
E24  27840689.905 6 146305624.976 6      1935.996 6        40.856               
E26  28544835.338 6 149678377.773 6      1239.963 6        37.692               
E31  26036697.175 6 136825295.693 6      -333.700 6        40.779               
E33  27258767.500 6 143247602.533 6      1506.538 6        41.060               
> 2025 01 03 15 40 21.0000000  0  6                                             
E05  27643684.713 6 144977866.987 6      1102.208 6        36.560               
E09  30269667.260 6 159070008.168 6     -2830.164 6        36.337               
E24  27840318.944 6 146303688.391 6      1935.587 6        40.776               
E26  28545070.905 6 149677135.428 6      1242.290 6        37.491               
E31  26036760.199 6 136825627.829 6      -333.512 6        40.803               
E33  27258480.452 6 143246095.748 6      1506.889 6        41.004               
> 2025 01 03 15 40 22.0000000  0  6                                             
E05  27643892.744 6 144976764.456 6      1103.597 6        36.458               
E09  30270200.311 6 159072837.187 6     -2827.409 6        36.266               
E24  27839948.519 6 146301751.650 6      1935.147 6        40.940               
E26  28545305.668 6 149675892.903 6      1244.294 6        37.809               
E31  26036817.576 6 136825959.903 6      -332.616 6        40.819               
E33  27258190.170 6 143244589.154 6      1506.935 6        40.752               
> 2025 01 03 15 40 23.0000000  0  6                                             
E05  27644102.527 6 144975661.019 6      1106.501 6        36.542               
E09  30270738.990 6 159075666.734 6     -2831.783 6        36.256               
E24  27839575.611 6 146299815.479 6      1935.640 6        40.629               
E26  28545536.536 6 149674649.477 6      1243.604 6        37.983               
E31  26036880.404 6 136826292.697 6      -332.883 6        40.870               
E33  27257899.387 6 143243083.447 6      1503.842 6        40.656               
> 2025 01 03 15 40 24.0000000  0  6                                             
E05  27644312.309 6 144974556.068 6      1105.306 6        36.592               
E09  30271279.242 6 159078497.398 6     -2827.045 6        36.230               
E24  27839205.275 6 146297880.534 6      1934.240 6        40.557               
E26  28545770.888 6 149673404.566 6      1246.449 6        37.846               
E31  26036938.853 6 136826626.766 6      -334.243 6        40.893               
E33  27257612.679 6 143241579.256 6      1503.422 6        40.988               
> 2025 01 03 15 40 25.0000000  0  6                                             
E05  27644514.515 6 144973450.278 6      1107.661 6        36.761               
E09  30271815.295 6 159081328.661 6     -2830.632 6        36.182               
E24  27838833.760 6 146295946.177 6      1933.130 6        40.834               
E26  28546005.437 6 149672158.747 6      1246.179 6        38.028               
E31  26037001.413 6 136826961.536 6      -333.701 6        41.100               
E33  27257321.592 6 143240075.986 6      1503.149 6        41.038               
> 2025 01 03 15 40 26.0000000  0  6                                             
E05  27644725.959 6 144972344.509 6      1106.785 6        36.632               
E09  30272346.577 5 159084159.501 5     -2832.336 5        35.929               
E24  27838464.032 6 146294011.463 6      1933.489 6        40.594               
E26  28546242.166 6 149670912.943 6      1245.694 6        37.766               
E31  26037062.382 6 136827296.061 6      -333.073 6        40.717               
E33  27257036.528 6 143238572.687 6      1503.486 6        40.941               
> 2025 01 03 15 40 27.0000000  0  6                                             
E05  27644931.292 6 144971238.122 6      1105.953 6        36.840               
E09  30272875.768 5 159086990.591 5     -2831.335 5        35.954               
E24  27838092.428 6 146292077.080 6      1933.827 6        40.533               
E26  28546473.266 6 149669666.520 6      1245.108 6        38.016               
E31  26037123.226 6 136827631.025 6      -335.692 6        40.931               
E33  27256747.264 6 143237070.043 6      1500.960 6        40.834               
> 2025 01 03 15 40 28.0000000  0  6                                             
E05  27645141.718 6 144970131.453 6      1105.732 6        36.771               
E09  30273420.362 5 159089821.623 5     -2831.398 5        35.853               
E24  27837722.182 6 146290142.663 6      1934.103 6        40.846               
E26  28546710.013 6 149668419.808 6      1246.905 6        38.343               
E31  26037184.338 6 136827966.037 6      -334.966 6        40.738               
E33  27256458.876 6 143235567.679 6      1502.268 6        40.825               
> 2025 01 03 15 40 29.0000000  0  6                                             
E05  27645354.556 6 144969023.900 6      1108.932 6        37.065               
E09  30273956.737 6 159092653.214 6     -2831.033 6        36.036               
E24  27837351.739 6 146288208.858 6      1934.242 6        40.756               
E26  28546945.330 6 149667172.188 6      1247.276 6        38.393               
E31  26037246.647 6 136828301.801 6      -336.623 6        40.685               
E33  27256168.558 6 143234066.262 6      1499.744 6        40.919               
> 2025 01 03 15 40 30.0000000  0  6                                             
E05  27645558.995 6 144967915.837 6      1107.909 6        37.247               
E09  30274493.808 6 159095484.968 6     -2834.877 6        36.363               
E24  27836980.939 6 146286275.252 6      1933.822 6        41.036               
E26  28547178.931 6 149665924.042 6      1247.239 6        38.240               
E31  26037308.152 6 136828637.840 6      -336.671 6        40.645               
E33  27255879.258 6 143232565.367 6      1500.536 6        41.023               
> 2025 01 03 15 40 31.0000000  0  6                                             
E05  27645766.990 6 144966806.795 6      1108.919 6        36.752               
E09  30275030.719 6 159098317.310 6     -2832.118 6        36.020               
E24  27836609.174 6 146284342.293 6      1933.568 6        40.949               
E26  28547412.819 6 149664674.939 6      1250.096 6        38.148               
E31  26037367.996 6 136828974.635 6      -335.223 6        40.936               
E33  27255594.319 6 143231065.426 6      1500.525 6        41.568               
> 2025 01 03 15 40 32.0000000  0  6                                             
E05  27645976.701 6 144965697.121 6      1110.733 6        36.833               
E09  30275569.130 6 159101149.985 6     -2835.041 6        36.482               
E24  27836240.608 6 146282409.717 6      1931.808 6        40.964               
E26  28547650.924 6 149663425.153 6      1250.252 6        38.028               
E31  26037433.307 6 136829311.932 6      -340.035 6        40.966               
E33  27255304.412 6 143229566.218 6      1497.336 6        41.890               
> 2025 01 03 15 40 33.0000000  0  6                                             
E05  27646185.465 6 144964586.677 6      1108.895 6        37.056               
E09  30276103.039 6 159103983.047 6     -2834.139 6        36.486               
E24  27835872.988 6 146280477.591 6      1931.397 6        41.118               
E26  28547881.917 6 149662174.577 6      1252.648 6        38.196               
E31  26037490.059 6 136829649.754 6      -338.477 6        41.269               
E33  27255018.865 6 143228067.748 6      1498.282 6        41.689               
> 2025 01 03 15 40 34.0000000  0  6                                             
E05  27646393.782 6 144963475.616 6      1110.040 6        36.946               
E09  30276643.023 6 159106816.403 6     -2834.361 6        36.604               
E24  27835499.490 6 146278545.807 6      1931.966 6        41.194               
E26  28548122.398 6 149660923.377 6      1250.935 6        37.746               
E31  26037552.601 6 136829988.032 6      -338.356 6        40.999               
E33  27254729.422 6 143226569.965 6      1496.548 6        41.807               
> 2025 01 03 15 40 35.0000000  0  6                                             
E05  27646605.709 6 144962363.340 6      1111.451 6        36.668               
E09  30277180.791 6 159109650.640 6     -2832.515 6        36.427               
E24  27835129.869 6 146276614.933 6      1929.876 6        41.052               
E26  28548357.072 6 149659670.940 6      1253.031 6        37.845               
E31  26037616.804 6 136830327.335 6      -339.832 6        40.924               
E33  27254443.518 6 143225073.417 6      1495.755 6        41.698               
> 2025 01 03 15 40 36.0000000  0  6                                             
E05  27646815.956 6 144961249.714 6      1113.701 6        36.600               
E09  30277711.644 6 159112485.810 6     -2835.149 6        36.657               
E24  27834759.784 6 146274685.088 6      1930.710 6        41.161               
E26  28548595.373 6 149658417.172 6      1254.543 6        37.949               
E31  26037677.648 6 136830667.744 6      -338.485 6        41.183               
E33  27254152.342 6 143223578.186 6      1496.437 6        41.762               
> 2025 01 03 15 40 37.0000000  0  6                                             
E05  27647020.127 6 144960135.476 6      1113.370 6        36.964               
E09  30278253.915 6 159115321.298 6     -2835.076 6        36.857               
E24  27834389.806 6 146272755.556 6      1931.521 6        40.951               
E26  28548833.853 6 149657162.781 6      1252.445 6        38.066               
E31  26037739.243 6 136831008.598 6      -339.197 6        40.989               
E33  27253865.652 6 143222083.636 6      1495.450 6        41.441               
> 2025 01 03 15 40 38.0000000  0  6                                             
E05  27647231.625 6 144959021.172 6      1112.492 6        36.751               
E09  30278783.535 6 159118156.501 6     -2836.382 6        36.599               
E24  27834026.261 6 146270825.845 6      1928.783 6        41.063               
E26  28549067.848 6 149655908.258 6      1253.232 6        38.244               
E31  26037802.642 6 136831349.350 6      -341.166 6        41.484               
E33  27253583.017 6 143220589.216 6      1494.199 6        41.075               
> 2025 01 03 15 40 39.0000000  0  6                                             
E05  27647443.462 6 144957906.659 6      1114.801 6        36.654               
E09  30279327.879 6 159120991.562 6     -2835.563 6        36.161               
E24  27833652.369 6 146268895.978 6      1930.585 6        41.497               
E26  28549306.757 6 149654653.574 6      1252.668 6        38.123               
E31  26037865.487 6 136831690.078 6      -339.621 6        41.273               
E33  27253293.932 6 143219094.962 6      1493.941 6        40.976               
> 2025 01 03 15 40 40.0000000  0  6                                             
E05  27647649.975 6 144956792.233 6      1114.138 6        36.525               
E09  30279864.754 6 159123826.151 6     -2834.730 6        36.409               
E24  27833280.408 6 146266965.772 6      1931.362 6        41.325               
E26  28549541.234 6 149653398.930 6      1254.012 6        38.588               
E31  26037926.188 6 136832030.543 6      -340.716 6        41.154               
E33  27253008.081 6 143217600.670 6      1493.507 6        40.798               
> 2025 01 03 15 40 41.0000000  0  6                                             
E05  27647858.810 6 144955679.593 6      1111.106 6        36.625               
E09  30280401.807 6 159126658.643 6     -2833.652 6        36.529               
E24  27832913.503 6 146265033.490 6      1931.807 6        41.034               
E26  28549778.374 6 149652146.064 6      1252.203 6        38.443               
E31  26037989.034 6 136832369.013 6      -338.562 6        41.022               
E33  27252717.960 6 143216104.611 6      1495.734 6        40.776               
> 2025 01 03 15 40 42.0000000  0  6                                             
E05  27648073.828 6 144954565.402 6      1115.888 6        37.059               
E09  30280933.232 6 159129492.344 6     -2832.994 6        36.362               
E24  27832541.416 6 146263102.450 6      1930.783 6        41.184               
E26  28550010.493 6 149650891.631 6      1255.297 6        38.758               
E31  26038050.449 6 136832708.870 6      -339.114 6        40.833               
E33  27252431.144 6 143214610.153 6      1494.221 6        40.629               
> 2025 01 03 15 40 43.0000000  0  6                                             
E05  27648278.642 6 144953451.576 6      1109.979 6        36.600               
E09  30281475.503 6 159132325.320 6     -2832.950 6        36.490               
E24  27832172.171 6 146261170.747 6      1932.659 6        41.217               
E26  28550246.417 6 149649637.549 6      1254.287 6        38.523               
E31  26038112.223 6 136833048.160 6      -337.914 6        41.026               
E33  27252142.363 6 143213115.338 6      1496.199 6        40.774               
> 2025 01 03 15 40 44.0000000  0  6                                             
E05  27648489.068 6 144952339.757 6      1112.277 6        36.866               
E09  30282012.289 6 159135155.942 6     -2830.558 6        36.438               
E24  27831801.085 6 146259236.735 6      1934.264 6        41.031               
E26  28550485.308 6 149648385.451 6      1252.377 6        38.378               
E31  26038174.335 6 136833385.237 6      -336.809 6        40.966               
E33  27251855.387 6 143211618.561 6      1497.463 6        40.986               
> 2025 01 03 15 40 45.0000000  0  6                                             
E05  27648702.942 6 144951227.307 6      1114.998 6        36.739               
E09  30282548.181 6 159137986.820 6     -2834.989 6        36.486               
E24  27831431.893 6 146257303.048 6      1932.195 6        40.989               
E26  28550717.016 6 149647132.758 6      1252.265 6        38.230               
E31  26038237.574 6 136833722.754 6      -338.686 6        40.837               
E33  27251567.945 6 143210122.425 6      1494.514 6        40.860               
> 2025 01 03 15 40 46.0000000  0  6                                             
E05  27648908.132 6 144950115.016 6      1107.568 6        36.768               
E09  30283080.285 6 159140817.238 6     -2829.732 6        36.424               
E24  27831059.145 6 146255368.942 6      1933.501 6        40.969               
E26  28550955.424 6 149645880.127 6      1250.868 6        38.262               
E31  26038297.096 6 136834059.945 6      -335.927 6        40.865               
E33  27251280.058 6 143208626.194 6      1495.565 6        41.325               
> 2025 01 03 15 40 47.0000000  0  6                                             
E05  27649116.860 6 144949002.073 6      1113.584 6        36.966               
E09  30283617.624 6 159143647.936 6     -2830.223 6        36.753               
E24  27830690.186 6 146253435.149 6      1933.701 6        41.423               
E26  28551190.348 6 149644626.888 6      1251.782 6        38.134               
E31  26038359.923 6 136834397.551 6      -337.401 6        40.873               
E33  27250997.548 6 143207130.583 6      1496.197 6        41.186               
> 2025 01 03 15 40 48.0000000  0  6                                             
E05  27649323.069 6 144947890.557 6      1113.540 6        37.008               
E09  30284153.605 6 159146476.815 6     -2827.678 6        36.760               
E24  27830319.832 6 146251499.640 6      1935.859 6        41.292               
E26  28551425.237 6 149643375.072 6      1252.034 6        38.350               
E31  26038419.463 6 136834733.541 6      -335.217 6        40.837               
E33  27250707.623 6 143205633.583 6      1496.569 6        40.882               
> 2025 01 03 15 40 49.0000000  0  6                                             
E05  27649535.121 6 144946776.398 6      1111.392 6        37.170               
E09  30284691.427 6 159149308.051 6     -2829.573 6        36.749               
E24  27829945.440 6 146249566.492 6      1935.561 6        41.420               
E26  28551660.876 6 149642120.560 6      1255.101 6        37.971               
E31  26038482.755 6 136835071.998 6      -336.229 6        40.932               
E33  27250419.968 6 143204139.261 6      1496.105 6        40.749               
> 2025 01 03 15 40 50.0000000  0  6                                             
E05  27649741.276 6 144945662.849 6      1110.534 6        36.996               
E09  30285227.033 6 159152138.266 6     -2830.206 6        36.742               
E24  27829576.177 6 146247632.422 6      1933.833 6        41.266               
E26  28551896.890 6 149640866.682 6      1251.997 6        38.204               
E31  26038545.118 6 136835409.640 6      -336.193 6        40.857               
E33  27250134.028 6 143202644.345 6      1495.939 6        41.037               
> 2025 01 03 15 40 51.0000000  0  6                                             
E05  27649948.949 6 144944548.600 6      1112.634 6        37.100               
E09  30285762.818 6 159154968.897 6     -2828.126 6        36.627               
E24  27829206.056 6 146245698.774 6      1933.131 6        41.185               
E26  28552132.671 6 149639612.058 6      1256.419 6        38.274               
E31  26038607.784 6 136835747.803 6      -339.058 6        40.891               
E33  27249848.570 6 143201150.186 6      1492.790 6        41.140               
> 2025 01 03 15 40 52.0000000  0  6                                             
E05  27650163.824 6 144943434.374 6      1114.591 6        37.323               
E09  30286294.100 6 159157799.113 6     -2828.343 6        36.526               
E24  27828836.721 6 146243764.796 6      1934.580 6        41.062               
E26  28552369.543 6 149638357.435 6      1256.122 6        38.295               
E31  26038667.306 6 136836085.743 6      -338.736 6        41.059               
E33  27249563.166 6 143199656.022 6      1493.976 6        40.872               
> 2025 01 03 15 40 53.0000000  0  6                                             
E05  27650371.945 6 144942320.005 6      1113.381 6        37.318               
E09  30286835.120 6 159160629.159 6     -2830.911 6        36.730               
E24  27828464.527 6 146241830.677 6      1933.129 6        40.970               
E26  28552603.931 6 149637102.687 6      1257.819 6        38.073               
E31  26038728.847 6 136836423.629 6      -338.318 6        41.245               
E33  27249274.063 6 143198162.022 6      1492.852 6        40.752               
> 2025 01 03 15 40 54.0000000  0  6                                             
E05  27650580.137 6 144941203.956 6      1114.367 6        36.882               
E09  30287369.958 6 159163460.506 6     -2831.007 6        36.741               
E24  27828094.174 6 146239897.913 6      1933.186 6        40.835               
E26  28552841.643 6 149635846.248 6      1255.959 6        37.715               
E31  26038792.193 6 136836762.991 6      -339.290 6        41.181               
E33  27248988.016 6 143196669.690 6      1492.945 6        40.836               
> 2025 01 03 15 40 55.0000000  0  6                                             
E05  27650792.278 6 144940087.712 6      1114.796 6        36.980               
E09  30287899.578 6 159166291.643 6     -2830.418 6        36.673               
E24  27827723.034 6 146237965.045 6      1932.024 6        40.834               
E26  28553083.035 6 149634589.614 6      1255.933 6        37.932               
E31  26038853.537 6 136837102.337 6      -338.674 6        41.387               
E33  27248701.164 6 143195177.606 6      1492.129 6        40.949               
> 2025 01 03 15 40 56.0000000  0  6                                             
E05  27651003.079 6 144938970.271 6      1118.688 6        36.819               
E09  30288440.706 6 159169123.741 6     -2836.599 6        36.670               
E24  27827354.736 6 146236033.113 6      1928.621 6        40.996               
E26  28553317.227 6 149633331.739 6      1259.801 6        37.775               
E31  26038916.347 6 136837442.719 6      -343.214 6        41.369               
E33  27248411.633 6 143193686.756 6      1488.281 6        41.077               
> 2025 01 03 15 40 57.0000000  0  6                                             
E05  27651211.414 6 144937851.295 6      1116.829 6        36.704               
E09  30288978.224 6 159171956.985 6     -2839.739 6        36.532               
E24  27826985.276 6 146234102.399 6      1929.501 6        41.093               
E26  28553552.508 6 149632072.322 6      1259.897 6        37.922               
E31  26038980.604 6 136837784.451 6      -342.281 6        41.373               
E33  27248130.106 6 143192197.466 6      1488.137 6        41.346               
> 2025 01 03 15 40 58.0000000  0  6                                             
E05  27651424.806 6 144936731.551 6      1121.201 6        36.681               
E09  30289512.972 6 159174790.619 6     -2834.122 6        36.464               
E24  27826611.992 6 146232172.166 6      1929.950 6        41.187               
E26  28553789.469 6 149630812.125 6      1260.624 6        37.869               
E31  26039041.269 6 136838126.748 6      -342.334 6        41.754               
E33  27247843.058 6 143190708.958 6      1487.611 6        41.031               
> 2025 01 03 15 40 59.0000000  0  6                                             
E05  27651632.336 6 144935610.546 6      1123.167 6        37.199               
E09  30290050.061 6 159177625.212 6     -2836.982 6        36.576               
E24  27826243.533 6 146230242.892 6      1928.751 6        41.054               
E26  28554026.466 6 149629550.628 6      1261.621 6        37.896               
E31  26039104.722 6 136838470.106 6      -344.104 6        41.858               
E33  27247553.330 6 143189221.759 6      1487.157 6        40.737               
> 2025 01 03 15 41 00.0000000  0  6                                             
E05  27651844.906 6 144934487.580 6      1124.180 6        37.351               
E09  30290588.455 6 159180461.365 6     -2833.108 6        36.407               
E24  27825872.947 6 146228315.302 6      1928.416 6        41.181               
E26  28554265.554 6 149628287.192 6      1265.206 6        37.924               
E31  26039167.406 6 136838815.231 6      -345.706 6        41.733               
E33  27247271.375 6 143187736.540 6      1484.973 6        40.997               
> 2025 01 03 15 41 01.0000000  0  6                                             
E05  27652056.833 6 144933363.824 6      1122.940 6        37.048               
E09  30291119.898 6 159183297.983 6     -2833.724 6        36.253               
E24  27825505.542 6 146226388.198 6      1927.805 6        41.380               
E26  28554505.624 6 149627022.914 6      1264.407 6        38.112               
E31  26039230.716 6 136839160.959 6      -346.031 6        41.843               
E33  27246986.221 6 143186252.138 6      1482.792 6        40.859               
> 2025 01 03 15 41 02.0000000  0  6                                             
E05  27652269.206 6 144932239.732 6      1125.794 6        37.215               
E09  30291664.170 6 159186134.575 6     -2836.690 6        36.283               
E24  27825133.223 6 146224461.103 6      1925.317 6        41.343               
E26  28554742.782 6 149625758.348 6      1264.789 6        38.195               
E31  26039293.169 6 136839506.814 6      -347.377 6        41.642               
E33  27246700.227 6 143184768.094 6      1481.937 6        40.804               
> 2025 01 03 15 41 03.0000000  0  6                                             
E05  27652476.219 6 144931113.714 6      1124.918 6        37.030               
E09  30292199.758 6 159188972.732 6     -2837.965 6        36.340               
E24  27824767.266 6 146222535.684 6      1925.211 6        41.477               
E26  28554986.336 6 149624491.793 6      1264.870 6        38.304               
E31  26039356.568 6 136839854.438 6      -347.602 6        41.694               
E33  27246416.699 6 143183286.015 6      1482.946 6        41.068               
> 2025 01 03 15 41 04.0000000  0  6                                             
E05  27652688.735 6 144929987.404 6      1127.412 6        37.196               
E09  30292734.346 6 159191810.881 6     -2835.349 6        36.387               
E24  27824397.234 6 146220610.236 6      1926.364 6        41.077               
E26  28555224.316 6 149623224.951 6      1267.965 6        38.237               
E31  26039420.378 6 136840202.134 6      -348.354 6        41.771               
E33  27246132.510 6 143181804.261 6      1481.899 6        41.125               
> 2025 01 03 15 41 05.0000000  0  6                                             
E05  27652906.165 6 144928860.306 6      1127.572 6        37.144               
E09  30293271.793 6 159194649.452 6     -2842.875 6        36.671               
E24  27824030.150 6 146218685.279 6      1923.599 6        40.987               
E26  28555457.257 6 149621957.295 6      1267.937 6        38.485               
E31  26039483.706 6 136840550.420 6      -347.761 6        41.965               
E33  27245846.517 6 143180323.291 6      1480.925 6        41.166               
> 2025 01 03 15 41 06.0000000  0  6                                             
E05  27653115.483 6 144927731.746 6      1132.079 6        36.979               
E09  30293809.972 6 159197489.062 6     -2838.581 6        36.326               
E24  27823659.601 6 146216761.449 6      1923.838 6        41.091               
E26  28555700.526 6 149620688.221 6      1268.523 6        38.575               
E31  26039548.213 6 136840899.949 6      -351.158 6        41.861               
E33  27245562.363 6 143178843.781 6      1479.527 6        41.245               
> 2025 01 03 15 41 07.0000000  0  6                                             
E05  27653327.910 6 144926603.405 6      1125.456 6        36.555               
E09  30294348.044 6 159200328.199 6     -2841.224 6        36.261               
E24  27823289.712 6 146214837.156 6      1924.720 6        41.067               
E26  28555937.254 6 149619419.264 6      1268.264 6        38.647               
E31  26039613.542 7 136841249.125 7      -347.240 7        42.184               
E33  27245277.156 6 143177364.164 6      1479.586 6        41.450               
> 2025 01 03 15 41 08.0000000  0  6                                             
E05  27653537.692 6 144925474.842 6      1125.894 6        37.038               
E09  30294885.401 6 159203167.184 6     -2836.933 6        36.131               
E24  27822920.431 6 146212912.798 6      1923.429 6        41.759               
E26  28556175.734 6 149618150.085 6      1267.766 6        38.409               
E31  26039676.173 7 136841598.316 7      -348.042 7        42.231               
E33  27244995.075 6 143175884.762 6      1478.895 6        41.458               
> 2025 01 03 15 41 09.0000000  0  6                                             
E05  27653749.262 6 144924344.191 6      1126.716 6        36.904               
E09  30295418.523 6 159206007.887 6     -2839.801 6        36.037               
E24  27822553.615 6 146210990.217 6      1925.246 6        41.560               
E26  28556414.590 6 149616878.872 6      1271.245 6        38.454               
E31  26039738.750 6 136841949.376 6      -349.586 6        41.879               
E33  27244711.834 6 143174407.454 6      1479.299 6        40.991               
> 2025 01 03 15 41 10.0000000  0  6                                             
E05  27653963.636 6 144923214.854 6      1131.687 6        37.016               
E09  30295959.008 6 159208846.920 6     -2840.198 6        36.072               
E24  27822185.013 6 146209066.031 6      1923.162 6        41.262               
E26  28556653.338 6 149615608.907 6      1270.832 6        38.775               
E31  26039805.724 7 136842298.942 7      -351.195 7        42.033               
E33  27244428.681 6 143172928.886 6      1478.433 6        41.265               
> 2025 01 03 15 41 11.0000000  0  6                                             
E05  27654179.852 6 144922083.636 6      1131.933 6        37.002               
E09  30296500.957 6 159211687.520 6     -2840.001 6        36.161               
E24  27821818.573 6 146207143.425 6      1923.627 6        41.096               
E26  28556892.389 6 149614337.078 6      1272.747 6        38.333               
E31  26039865.764 7 136842650.197 7      -351.410 7        42.392               
E33  27244144.564 6 143171452.222 6      1476.032 6        41.086               
> 2025 01 03 15 41 12.0000000  0  6                                             
E05  27654393.851 6 144920952.759 6      1129.257 6        36.786               
E09  30297044.122 6 159214527.390 6     -2839.857 6        36.241               
E24  27821446.790 6 146205220.154 6      1922.011 6        41.194               
E26  28557131.209 6 149613065.558 6      1270.147 6        38.269               
E31  26039933.844 7 136843000.915 7      -351.717 7        42.518               
E33  27243861.215 6 143169975.217 6      1476.081 6        40.931               
> 2025 01 03 15 41 13.0000000  0  6                                             
E05  27654600.113 6 144919820.490 6      1136.919 6        36.601               
E09  30297573.438 6 159217368.305 6     -2841.315 6        36.347               
E24  27821080.404 6 146203297.994 6      1922.531 6        41.390               
E26  28557373.263 6 149611792.655 6      1272.228 6        38.395               
E31  26039996.315 7 136843352.834 7      -351.950 7        42.564               
E33  27243577.651 6 143168499.661 6      1474.663 6        40.942               
> 2025 01 03 15 41 14.0000000  0  6                                             
E05  27654817.508 6 144918689.274 6      1133.224 6        36.328               
E09  30298117.282 6 159220207.849 6     -2838.069 6        36.399               
E24  27820711.248 6 146201374.537 6      1923.519 6        41.572               
E26  28557613.261 6 149610520.750 6      1270.689 6        38.393               
E31  26040062.216 7 136843703.529 7      -350.354 7        42.577               
E33  27243294.802 6 143167023.079 6      1475.195 6        40.981               
> 2025 01 03 15 41 15.0000000  0  6                                             
E05  27655030.078 6 144917556.572 6      1133.617 6        36.347               
E09  30298647.974 6 159223048.493 6     -2844.250 6        36.230               
E24  27820340.680 6 146199452.235 6      1920.825 6        41.405               
E26  28557848.954 6 149609247.363 6      1274.957 6        38.047               
E31  26040123.077 7 136844055.481 7      -354.244 7        42.713               
E33  27243012.490 6 143165548.011 6      1473.025 6        40.754               
> 2025 01 03 15 41 16.0000000  0  6                                             
E05  27655242.683 6 144916423.435 6      1135.042 6        36.109               
E09  30299185.742 6 159225889.260 6     -2840.352 6        36.210               
E24  27819975.937 6 146197530.091 6      1922.334 6        41.623               
E26  28558093.706 6 149607973.530 6      1273.007 6        38.020               
E31  26040188.282 7 136844407.705 7      -351.936 7        42.489               
E33  27242732.089 6 143164073.428 6      1474.754 6        40.647               
> 2025 01 03 15 41 17.0000000  0  6                                             
E05  27655456.075 6 144915290.001 6      1132.750 6        36.013               
E09  30299723.868 6 159228729.973 6     -2841.329 6        36.335               
E24  27819605.209 6 146195607.935 6      1922.357 6        41.442               
E26  28558326.325 6 149606699.364 6      1274.178 6        37.753               
E31  26040253.807 7 136844760.048 7      -352.629 7        42.631               
E33  27242445.452 6 143162599.158 6      1474.696 6        40.596               
> 2025 01 03 15 41 18.0000000  0  6                                             
E05  27655662.623 6 144914155.446 6      1135.310 6        36.292               
E09  30300266.121 5 159231571.433 5     -2840.171 5        35.984               
E24  27819238.947 6 146193686.586 6      1919.793 6        41.585               
E26  28558571.845 6 149605424.085 6      1277.434 6        37.766               
E31  26040319.905 7 136845113.263 7      -353.968 7        42.441               
E33  27242164.426 6 143161126.002 6      1471.320 6        40.475               
> 2025 01 03 15 41 19.0000000  0  6                                             
E05  27655879.410 6 144913019.987 6      1134.442 6        36.272               
E09  30300803.050 6 159234413.423 6     -2843.680 6        36.298               
E24  27818871.399 6 146191765.836 6      1919.468 6        41.686               
E26  28558808.020 6 149604147.937 6      1275.167 6        37.794               
E31  26040384.340 7 136845467.196 7      -354.576 7        42.378               
E33  27241880.612 6 143159653.780 6      1472.178 6        40.542               
> 2025 01 03 15 41 20.0000000  0  6                                             
E05  27656092.266 6 144911883.931 6      1139.010 6        36.202               
E09  30301341.354 6 159237255.734 6     -2844.956 6        36.329               
E24  27818503.816 6 146189845.463 6      1920.428 6        41.405               
E26  28559052.683 6 149602871.102 6      1276.706 6        37.780               
E31  26040447.865 7 136845821.596 7      -353.438 7        42.475               
E33  27241598.925 6 143158182.250 6      1470.931 6        40.255               
> 2025 01 03 15 41 21.0000000  0  6                                             
E05  27656307.498 6 144910747.150 6      1134.463 6        36.214               
E09  30301875.316 6 159240098.357 6     -2844.554 6        36.165               
E24  27818137.769 6 146187925.467 6      1918.714 6        41.229               
E26  28559294.754 6 149601593.539 6      1278.443 6        38.054               
E31  26040513.998 7 136846176.491 7      -356.584 7        42.575               
E33  27241313.592 6 143156711.422 6      1470.222 6        40.430               
> 2025 01 03 15 41 22.0000000  0  6                                             
E05  27656525.286 6 144909609.211 6      1140.834 6        36.296               
E09  30302418.284 5 159242941.812 5     -2841.476 5        35.946               
E24  27817767.969 6 146186006.300 6      1917.472 6        41.126               
E26  28559535.825 6 149600314.852 6      1280.035 6        37.927               
E31  26040577.147 7 136846532.316 7      -355.020 7        42.646               
E33  27241033.567 6 143155241.767 6      1470.002 6        40.639               
> 2025 01 03 15 41 23.0000000  0  6                                             
E05  27656731.191 6 144908471.340 6      1138.617 6        36.457               
E09  30302958.036 5 159245784.834 5     -2845.039 5        35.784               
E24  27817398.599 6 146184086.818 6      1919.710 6        41.175               
E26  28559773.751 6 149599036.177 6      1279.619 6        37.799               
E31  26040643.977 7 136846887.919 7      -355.489 7        42.803               
E33  27240749.092 6 143153772.102 6      1468.346 6        40.980               
> 2025 01 03 15 41 24.0000000  0  6                                             
E05  27656944.243 6 144907333.309 6      1137.946 6        36.559               
E09  30303493.195 5 159248627.690 5     -2842.279 5        35.783               
E24  27817033.999 6 146182167.203 6      1918.126 6        40.986               
E26  28560016.431 6 149597757.346 6      1280.832 6        37.796               
E31  26040709.074 7 136847243.484 7      -356.151 7        42.913               
E33  27240467.833 6 143152302.617 6      1469.106 6        41.105               
> 2025 01 03 15 41 25.0000000  0  6                                             
E05  27657163.049 6 144906193.472 6      1140.670 6        36.710               
E09  30304034.055 5 159251471.991 5     -2843.091 5        35.831               
E24  27816663.092 6 146180249.097 6      1918.069 6        40.960               
E26  28560258.538 6 149596476.689 6      1281.486 6        37.544               
E31  26040775.350 7 136847600.677 7      -357.138 7        42.834               
E33  27240185.074 6 143150834.973 6      1466.385 6        41.212               
> 2025 01 03 15 41 26.0000000  0  6                                             
E05  27657377.549 6 144905053.252 6      1138.733 6        36.700               
E09  30304567.713 5 159254316.323 5     -2844.058 5        35.889               
E24  27816294.793 6 146178331.080 6      1917.844 6        40.907               
E26  28560499.127 6 149595195.627 6      1284.526 6        38.027               
E31  26040839.607 7 136847958.045 7      -357.706 7        43.057               
E33  27239904.584 6 143149367.745 6      1466.818 6        41.220               
> 2025 01 03 15 41 27.0000000  0  6                                             
E05  27657595.051 6 144903911.962 6      1140.401 6        36.543               
E09  30305106.893 6 159257161.337 6     -2844.169 6        36.004               
E24  27815926.709 6 146176413.796 6      1918.603 6        41.038               
E26  28560737.589 6 149593913.518 6      1282.257 6        38.015               
E31  26040904.168 7 136848316.274 7      -357.526 7        43.180               
E33  27239622.271 6 143147901.583 6      1466.353 6        41.221               
> 2025 01 03 15 41 28.0000000  0  6                                             
E05  27657806.423 6 144902770.768 6      1139.120 6        36.333               
E09  30305652.935 5 159260006.012 5     -2847.277 5        35.931               
E24  27815560.466 6 146174496.193 6      1917.915 6        40.750               
E26  28560983.145 6 149592631.431 6      1280.200 6        37.655               
E31  26040970.891 7 136848674.274 7      -358.191 7        43.167               
E33  27239340.924 6 143146435.411 6      1465.930 6        41.187               
> 2025 01 03 15 41 29.0000000  0  6                                             
E05  27658027.553 6 144901629.749 6      1140.908 6        36.320               
E09  30306186.432 5 159262850.081 5     -2845.536 5        35.846               
E24  27815190.148 6 146172578.096 6      1915.858 6        40.865               
E26  28561223.912 6 149591349.550 6      1284.287 6        37.557               
E31  26041037.114 7 136849031.867 7      -358.995 7        42.971               
E33  27239058.396 6 143144969.048 6      1465.621 6        40.902               
> 2025 01 03 15 41 30.0000000  0  6                                             
E05  27658240.426 6 144900487.835 6      1141.325 6        36.607               
E09  30306724.361 6 159265694.676 6     -2841.441 6        36.072               
E24  27814825.084 6 146170660.563 6      1920.316 6        40.384               
E26  28561457.603 6 149590066.766 6      1281.964 6        37.782               
E31  26041101.585 7 136849390.146 7      -356.754 7        43.167               
E33  27238775.494 6 143143503.630 6      1467.566 6        41.040               
> 2025 01 03 15 41 31.0000000  0  6                                             
E05  27658454.729 6 144899346.593 6      1138.778 6        37.016               
E09  30307267.472 6 159268538.293 6     -2843.604 6        36.087               
E24  27814458.430 6 146168742.093 6      1919.097 6        40.483               
E26  28561705.965 6 149588784.623 6      1282.247 6        37.355               
E31  26041167.933 7 136849747.589 7      -357.953 7        43.251               
E33  27238496.934 6 143142037.560 6      1464.433 6        40.961               
> 2025 01 03 15 41 32.0000000  0  6                                             
E05  27658667.639 6 144898206.225 6      1138.729 6        37.121               
E09  30307808.314 5 159271380.665 5     -2841.658 5        35.866               
E24  27814092.204 6 146166822.473 6      1918.017 6        40.571               
E26  28561944.159 6 149587503.342 6      1282.077 6        37.425               
E31  26041232.226 7 136850103.968 7      -356.616 7        42.967               
E33  27238213.710 6 143140570.658 6      1467.000 6        41.092               
> 2025 01 03 15 41 33.0000000  0  6                                             
E05  27658881.978 6 144897064.989 6      1141.716 6        37.232               
E09  30308339.632 5 159274223.531 5     -2842.375 5        35.812               
E24  27813722.369 6 146164903.391 6      1920.427 6        40.560               
E26  28562189.143 6 149586221.183 6      1281.028 6        37.678               
E31  26041297.447 7 136850460.990 7      -357.403 7        43.051               
E33  27237931.058 6 143139104.624 6      1465.177 6        40.824               
> 2025 01 03 15 41 34.0000000  0  6                                             
E05  27659094.047 6 144895920.396 6      1141.237 6        37.039               
E09  30308886.245 5 159277069.459 5     -2842.010 5        35.580               
E24  27813355.250 6 146162987.399 6      1919.346 6        40.463               
E26  28562427.516 6 149584935.662 6      1282.200 6        37.731               
E31  26041362.777 7 136850821.206 7      -356.400 7        43.167               
E33  27237654.374 6 143137642.020 6      1464.808 6        40.825               
> 2025 01 03 15 41 35.0000000  0  6                                             
E05  27659311.781 6 144894777.265 6      1140.826 6        37.091               
E09  30309423.584 5 159279913.528 5     -2837.430 5        35.346               
E24  27812988.899 6 146161069.623 6      1920.976 6        40.661               
E26  28562671.285 6 149583651.576 6      1282.499 6        37.954               
E31  26041429.768 7 136851179.756 7      -355.423 7        42.674               
E33  27237370.488 6 143136177.952 6      1468.067 6        40.808               
> 2025 01 03 15 41 36.0000000  0  6                                             
E05  27659529.355 6 144893635.903 6      1146.062 6        36.991               
E09  30309960.352 5 159282755.486 5     -2845.705 5        35.696               
E24  27812618.349 6 146159149.781 6      1916.549 6        40.652               
E26  28562913.392 6 149582369.271 6      1283.762 6        38.129               
E31  26041496.258 7 136851536.349 7      -358.317 7        42.649               
E33  27237090.785 6 143134712.127 6      1463.125 6        40.785               
> 2025 01 03 15 41 37.0000000  0  6                                             
E05  27659739.476 6 144892493.251 6      1146.376 6        36.991               
E09  30310498.496 5 159285598.379 5     -2838.029 5        35.915               
E24  27812254.000 6 146157230.976 6      1919.892 6        41.095               
E26  28563155.410 6 149581085.643 6      1280.692 6        38.460               
E31  26041558.085 7 136851894.038 7      -357.920 7        42.610               
E33  27236809.348 6 143133247.669 6      1464.460 6        40.521               
> 2025 01 03 15 41 38.0000000  0  6                                             
E05  27659958.211 6 144891350.320 6      1142.937 6        36.770               
E09  30311039.230 5 159288441.242 5     -2842.025 5        35.955               
E24  27811884.200 6 146155312.146 6      1920.811 6        41.038               
E26  28563398.751 6 149579801.703 6      1282.937 6        37.768               
E31  26041624.165 7 136852251.833 7      -357.413 7        42.862               
E33  27236526.159 6 143131783.515 6      1465.433 6        40.370               
> 2025 01 03 15 41 39.0000000  0  6                                             
E05  27660171.192 6 144890207.837 6      1141.414 6        36.960               
E09  30311575.051 6 159291283.287 6     -2842.100 6        36.118               
E24  27811514.776 6 146153392.579 6      1918.112 6        41.065               
E26  28563638.339 6 149578518.209 6      1285.356 6        37.974               
E31  26041690.477 7 136852608.997 7      -357.939 7        42.914               
E33  27236246.438 6 143130318.938 6      1463.907 6        40.421               
> 2025 01 03 15 41 40.0000000  0  6                                             
E05  27660383.941 6 144889065.782 6      1138.575 6        37.061               
E09  30312115.785 6 159294124.549 6     -2838.859 6        36.165               
E24  27811146.031 6 146151472.277 6      1923.178 6        40.949               
E26  28563879.678 6 149577235.128 6      1281.114 6        37.515               
E31  26041756.306 7 136852965.515 7      -353.646 7        42.553               
E33  27235963.249 6 143128853.947 6      1467.234 6        40.333               
> 2025 01 03 15 41 41.0000000  0  6                                             
E05  27660605.106 6 144887923.934 6      1142.534 6        37.388               
E09  30312649.158 6 159296965.209 6     -2841.415 6        36.178               
E24  27810782.486 6 146149551.446 6      1920.005 6        41.031               
E26  28564124.680 6 149575952.291 6      1284.298 6        37.648               
E31  26041818.526 7 136853321.603 7      -357.191 7        42.595               
E33  27235682.706 6 143127388.751 6      1463.150 6        40.559               
> 2025 01 03 15 41 42.0000000  0  6                                             
E05  27660811.868 6 144886783.051 6      1139.690 6        37.146               
E09  30313189.946 5 159299804.623 5     -2839.087 5        35.917               
E24  27810414.080 6 146147629.412 6      1921.662 6        41.285               
E26  28564362.928 6 149574670.337 6      1282.179 6        37.666               
E31  26041887.232 7 136853676.602 7      -353.246 7        42.750               
E33  27235398.535 6 143125922.692 6      1466.806 6        40.737               
> 2025 01 03 15 41 43.0000000  0  6                                             
E05  27661033.158 6 144885642.208 6      1143.902 6        37.065               
E09  30313728.732 5 159302643.576 5     -2838.237 5        35.985               
E24  27810044.799 6 146145706.975 6      1921.398 6        41.454               
E26  28564599.764 6 149573388.482 6      1282.695 6        37.997               
E31  26041951.775 7 136854031.300 7      -355.368 7        42.492               
E33  27235118.849 6 143124456.536 6      1465.491 6        40.763               
> 2025 01 03 15 41 44.0000000  0  6                                             
E05  27661243.512 6 144884500.775 6      1142.588 6        36.985               
E09  30314264.374 6 159305482.810 6     -2838.057 6        36.152               
E24  27809675.804 6 146143784.893 6      1922.339 6        41.561               
E26  28564844.480 6 149572105.971 6      1280.711 6        37.935               
E31  26042018.874 7 136854386.444 7      -354.569 7        42.626               
E33  27234833.820 6 143122991.063 6      1465.428 6        40.361               
> 2025 01 03 15 41 45.0000000  0  6                                             
E05  27661459.245 6 144883358.795 6      1140.151 6        37.069               
E09  30314805.002 5 159308322.261 5     -2838.846 5        35.922               
E24  27809309.506 6 146141863.058 6      1922.013 6        41.344               
E26  28565084.371 6 149570822.919 6      1282.122 6        37.775               
E31  26042081.594 7 136854741.939 7      -355.599 7        42.593               
E33  27234554.045 6 143121526.172 6      1463.117 6        40.247               
> 2025 01 03 15 41 46.0000000  0  6                                             
E05  27661674.084 6 144882216.588 6      1143.233 6        37.117               
E09  30315339.142 6 159311161.520 6     -2837.658 6        36.009               
E24  27808938.796 6 146139941.107 6      1923.929 6        41.497               
E26  28565326.908 6 149569539.614 6      1281.037 6        37.570               
E31  26042146.923 7 136855097.447 7      -353.905 7        42.474               
E33  27234274.001 6 143120061.506 6      1465.526 6        40.215               
> 2025 01 03 15 41 47.0000000  0  6                                             
E05  27661891.407 6 144881075.343 6      1142.686 6        37.257               
E09  30315878.001 6 159313999.549 6     -2837.311 6        36.069               
E24  27808571.337 6 146138017.974 6      1922.632 6        41.436               
E26  28565569.390 6 149568257.219 6      1282.060 6        37.400               
E31  26042210.858 7 136855451.855 7      -353.938 7        42.421               
E33  27233991.045 6 143118595.936 6      1465.245 6        40.218               
> 2025 01 03 15 41 48.0000000  0  6                                             
E05  27662105.889 6 144879934.166 6      1140.886 6        37.256               
E09  30316415.823 6 159316837.111 6     -2834.703 6        36.454               
E24  27808203.003 6 146136094.456 6      1924.333 6        41.768               
E26  28565818.145 6 149566974.941 6      1282.726 6        37.361               
E31  26042276.920 7 136855805.956 7      -353.778 7        42.651               
E33  27233712.360 6 143117130.314 6      1467.191 6        40.342               
> 2025 01 03 15 41 49.0000000  0  6                                             
E05  27662321.693 6 144878792.396 6      1141.821 6        36.818               
E09  30316957.039 6 159319674.930 6     -2841.781 6        36.009               
E24  27807832.596 6 146134171.253 6      1922.610 6        41.517               
E26  28566056.160 6 149565692.016 6      1282.118 6        37.446               
E31  26042341.874 7 136856160.504 7      -355.132 7        42.952               
E33  27233430.816 6 143115665.337 6      1463.873 6        40.275               
> 2025 01 03 15 41 50.0000000  0  6                                             
E05  27662526.097 6 144877651.324 6      1140.355 6        36.903               
E09  30317484.747 6 159322511.700 6     -2836.923 6        36.029               
E24  27807462.654 7 146132247.046 7      1923.773 7        42.038               
E26  28566296.820 6 149564409.777 6      1281.239 6        38.148               
E31  26042404.165 7 136856514.140 7      -353.194 7        42.680               
E33  27233150.897 6 143114199.680 6      1464.044 6        40.074               
> 2025 01 03 15 41 51.0000000  0  6                                             
E05  27662746.690 6 144876508.664 6      1142.415 6        36.985               
E09  30318019.675 5 159325349.719 5     -2841.346 5        35.920               
E24  27807097.446 6 146130324.117 6      1920.806 6        41.816               
E26  28566534.461 6 149563125.974 6      1286.392 6        38.191               
E31  26042469.423 7 136856869.155 7      -356.043 7        42.843               
E33  27232867.370 6 143112735.630 6      1462.648 6        40.540               
> 2025 01 03 15 41 52.0000000  0  6                                             
E05  27662960.600 6 144875366.539 6      1144.491 6        36.789               
E09  30318563.768 5 159328186.824 5     -2837.693 5        35.793               
E24  27806727.897 6 146128400.354 6      1924.798 6        41.564               
E26  28566775.264 6 149561842.657 6      1283.431 6        38.068               
E31  26042537.147 7 136857223.453 7      -355.421 7        42.614               
E33  27232587.416 6 143111271.077 6      1466.307 6        40.532               
> 2025 01 03 15 41 53.0000000  0  6                                             
E05  27663177.709 6 144874225.702 6      1144.192 6        36.843               
E09  30319099.643 5 159331022.286 5     -2836.257 5        35.888               
E24  27806356.114 6 146126475.035 6      1925.154 6        41.728               
E26  28567017.925 6 149560560.631 6      1283.721 6        38.114               
E31  26042601.904 7 136857576.282 7      -352.355 7        42.716               
E33  27232302.780 6 143109805.275 6      1464.986 6        40.960               
> 2025 01 03 15 41 54.0000000  0  6                                             
E05  27663392.048 6 144873083.901 6      1141.578 6        36.706               
E09  30319638.018 6 159333858.382 6     -2836.818 6        36.088               
E24  27805990.568 6 146124550.373 6      1925.892 6        41.578               
E26  28567263.177 6 149559277.621 6      1280.981 6        38.117               
E31  26042664.356 7 136857929.868 7      -352.920 7        42.598               
E33  27232024.166 6 143108340.465 6      1463.201 6        40.841               
> 2025 01 03 15 41 55.0000000  0  6                                             
E05  27663607.834 6 144871941.646 6      1143.962 6        36.777               
E09  30320173.196 6 159336694.544 6     -2837.167 6        36.208               
E24  27805622.055 6 146122625.861 6      1925.529 6        41.505               
E26  28567503.998 6 149557994.162 6      1282.937 6        37.807               
E31  26042729.435 7 136858283.724 7      -354.330 7        42.734               
E33  27231744.838 6 143106876.145 6      1463.493 6        40.788               
> 2025 01 03 15 41 56.0000000  0  6                                             
E05  27663821.548 6 144870797.658 6      1140.468 6        36.769               
E09  30320706.943 6 159339532.126 6     -2832.692 6        36.025               
E24  27805252.041 6 146120702.815 6      1925.317 6        41.408               
E26  28567742.085 6 149556708.945 6      1284.083 6        37.818               
E31  26042792.567 7 136858639.129 7      -352.998 7        42.751               
E33  27231460.970 6 143105413.603 6      1464.718 6        41.199               
> 2025 01 03 15 41 57.0000000  0  6                                             
E05  27664037.102 6 144869655.151 6      1146.336 6        36.909               
E09  30321253.521 5 159342367.896 5     -2839.638 5        35.938               
E24  27804882.563 6 146118778.000 6      1922.484 6        41.420               
E26  28567983.692 6 149555425.185 6      1285.333 6        37.596               
E31  26042860.451 7 136858992.868 7      -356.651 7        42.577               
E33  27231180.516 6 143103949.600 6      1462.110 6        41.230               
> 2025 01 03 15 41 58.0000000  0  6                                             
E05  27664251.780 6 144868512.884 6      1139.805 6        36.781               
E09  30321782.676 6 159345203.042 6     -2832.900 6        36.168               
E24  27804515.694 6 146116852.633 6      1925.462 6        41.643               
E26  28568229.355 6 149554141.664 6      1283.055 6        37.586               
E31  26042925.155 7 136859346.154 7      -351.564 7        42.184               
E33  27230896.899 6 143102485.367 6      1466.892 6        41.093               
> 2025 01 03 15 41 59.0000000  0  6                                             
E05  27664467.477 6 144867369.649 6      1146.686 6        36.503               
E09  30322322.535 6 159348038.822 6     -2836.175 6        36.136               
E24  27804145.359 6 146114927.973 6      1923.518 6        41.428               
E26  28568469.569 6 149552857.128 6      1285.584 6        37.227               
E31  26042988.893 7 136859700.259 7      -355.160 7        42.211               
E33  27230618.625 6 143101022.180 6      1462.144 6        41.153               
> 2025 01 03 15 42 00.0000000  0  6                                             
E05  27664683.085 6 144866226.640 6      1145.175 6        36.592               
E09  30322861.947 6 159350873.981 6     -2836.209 6        36.257               
E24  27803775.363 6 146113002.723 6      1925.848 6        41.357               
E26  28568710.014 6 149551572.901 6      1282.975 6        37.138               
E31  26043053.115 7 136860053.872 7      -354.540 7        42.286               
E33  27230339.886 6 143099558.743 6      1461.750 6        41.210               
> 2025 01 03 15 42 01.0000000  0  6                                             
E05  27664898.746 6 144865082.990 6      1145.679 6        36.425               
E09  30323396.624 6 159353709.474 6     -2834.194 6        36.129               
E24  27803410.817 6 146111077.907 6      1926.182 6        41.347               
E26  28568956.374 6 149550287.899 6      1284.206 6        37.436               
E31  26043118.944 7 136860408.012 7      -354.175 7        42.412               
E33  27230055.589 6 143098096.020 6      1464.093 6        40.927               
> 2025 01 03 15 42 02.0000000  0  6                                             
E05  27665111.030 6 144863939.667 6      1141.661 6        36.260               
E09  30323936.394 6 159356544.318 6     -2835.315 6        36.201               
E24  27803039.320 6 146109152.450 6      1926.256 6        41.525               
E26  28569199.911 6 149549003.238 6      1286.074 6        37.500               
E31  26043181.736 7 136860761.611 7      -353.761 7        42.199               
E33  27229777.762 6 143096633.010 6      1463.058 6        40.872               
> 2025 01 03 15 42 03.0000000  0  6                                             
E05  27665327.048 6 144862795.411 6      1146.787 6        36.513               
E09  30324473.573 6 159359379.675 6     -2834.732 6        36.312               
E24  27802671.343 6 146107227.599 6      1925.815 6        41.595               
E26  28569436.515 6 149547717.692 6      1284.505 6        37.203               
E31  26043248.084 7 136861115.950 7      -354.365 7        42.174               
E33  27229493.233 6 143095170.931 6      1461.978 6        40.846               
> 2025 01 03 15 42 04.0000000  0  6                                             
E05  27665541.745 6 144861650.652 6      1143.279 6        36.814               
E09  30325010.447 6 159362215.193 6     -2832.032 6        36.126               
E24  27802301.990 6 146105302.986 6      1926.010 6        41.371               
E26  28569674.173 6 149546431.615 6      1284.266 6        37.332               
E31  26043313.288 7 136861470.582 7      -352.642 7        42.518               
E33  27229214.763 6 143093709.400 6      1463.743 6        40.902               
> 2025 01 03 15 42 05.0000000  0  6                                             
E05  27665759.336 6 144860506.071 6      1145.063 6        36.941               
E09  30325547.394 6 159365050.209 6     -2835.730 6        36.197               
E24  27801933.442 6 146103377.903 6      1924.578 6        41.463               
E26  28569922.677 6 149545145.640 6      1287.439 6        37.324               
E31  26043378.242 7 136861824.896 7      -356.371 7        42.718               
E33  27228933.772 6 143092247.749 6      1458.884 6        41.193               
> 2025 01 03 15 42 06.0000000  0  6                                             
E05  27665971.781 6 144859360.254 6      1148.671 6        37.062               
E09  30326087.967 6 159367886.099 6     -2836.718 6        36.073               
E24  27801566.466 6 146101453.736 6      1923.974 6        41.128               
E26  28570168.645 6 149543858.469 6      1288.237 6        37.483               
E31  26043444.268 7 136862180.207 7      -354.374 7        42.813               
E33  27228652.889 6 143090787.309 6      1460.474 6        41.143               
> 2025 01 03 15 42 07.0000000  0  6                                             
E05  27666189.515 6 144858214.332 6      1145.383 6        36.801               
E09  30326624.252 6 159370721.747 6     -2836.902 6        36.126               
E24  27801195.737 6 146099529.407 6      1925.778 6        41.296               
E26  28570407.035 6 149542571.177 6      1287.232 6        37.044               
E31  26043509.597 7 136862535.467 7      -355.861 7        42.549               
E33  27228371.506 6 143089327.066 6      1459.405 6        41.086               
> 2025 01 03 15 42 08.0000000  0  6                                             
E05  27666406.087 6 144857067.919 6      1145.740 6        37.055               
E09  30327155.892 6 159373557.541 6     -2837.049 6        36.030               
E24  27800824.705 6 146097605.301 6      1924.792 6        41.276               
E26  28570649.053 6 149541283.367 6      1289.220 6        37.362               
E31  26043573.050 7 136862891.002 7      -354.893 7        42.670               
E33  27228088.835 6 143087867.317 6      1458.240 6        41.152               
> 2025 01 03 15 42 09.0000000  0  6                                             
E05  27666621.516 6 144855920.714 6      1150.833 6        37.164               
E09  30327689.300 5 159376393.768 5     -2836.987 5        35.681               
E24  27800456.531 6 146095681.674 6      1923.374 6        41.495               
E26  28570891.590 6 149539994.731 6      1291.179 6        37.534               
E31  26043640.344 7 136863247.156 7      -357.913 7        42.732               
E33  27227809.346 6 143086408.403 6      1457.657 6        41.372               
> 2025 01 03 15 42 10.0000000  0  6                                             
E05  27666837.374 6 144854773.812 6      1145.385 6        36.895               
E09  30328236.271 5 159379229.294 5     -2835.364 5        35.839               
E24  27800089.805 6 146093757.442 6      1924.039 6        41.114               
E26  28571131.624 6 149538706.442 6      1286.977 6        37.442               
E31  26043704.262 7 136863602.803 7      -355.946 7        42.707               
E33  27227532.019 6 143084949.190 6      1459.800 6        41.451               
> 2025 01 03 15 42 11.0000000  0  6                                             
E05  27667049.533 6 144853625.498 6      1150.153 6        36.931               
E09  30328768.767 5 159382065.927 5     -2836.347 5        35.776               
E24  27799720.596 6 146091834.340 6      1921.725 6        41.118               
E26  28571373.874 6 149537416.693 6      1290.817 6        36.992               
E31  26043769.269 7 136863959.670 7      -357.989 7        42.834               
E33  27227252.887 6 143083491.447 6      1455.699 6        41.104               
> 2025 01 03 15 42 12.0000000  0  6                                             
E05  27667268.768 6 144852476.694 6      1148.030 6        37.156               
E09  30329304.356 5 159384902.689 5     -2838.485 5        35.949               
E24  27799353.441 6 146089911.407 6      1923.285 6        41.101               
E26  28571618.090 6 149536126.452 6      1290.172 6        36.944               
E31  26043833.544 7 136864316.836 7      -357.242 7        43.126               
E33  27226972.701 6 143082034.222 6      1456.472 6        41.080               
> 2025 01 03 15 42 13.0000000  0  6                                             
E05  27667486.841 6 144851328.101 6      1147.251 6        37.058               
E09  30329841.981 6 159387738.897 6     -2836.323 6        36.009               
E24  27798983.677 6 146087988.020 6      1923.441 6        40.994               
E26  28571866.917 6 149534836.366 6      1290.072 6        37.169               
E31  26043899.016 7 136864673.612 7      -356.457 7        43.174               
E33  27226695.856 6 143080576.830 6      1457.174 6        40.999               
> 2025 01 03 15 42 14.0000000  0  6                                             
E05  27667694.212 6 144850179.405 6      1150.361 6        36.846               
E09  30330384.342 6 159390574.876 6     -2832.562 6        36.119               
E24  27798614.164 6 146086064.439 6      1923.505 6        40.983               
E26  28572106.701 6 149533546.205 6      1291.266 6        37.346               
E31  26043964.238 7 136865030.328 7      -357.065 7        43.259               
E33  27226412.131 6 143079119.558 6      1458.066 6        40.803               
> 2025 01 03 15 42 15.0000000  0  6                                             
E05  27667918.343 6 144849030.260 6      1149.826 6        36.748               
E09  30330912.907 6 159393410.898 6     -2835.345 6        36.079               
E24  27798246.812 6 146084140.961 6      1923.959 6        41.217               
E26  28572350.810 6 149532255.587 6      1291.928 6        37.388               
E31  26044028.942 7 136865387.240 7      -357.004 7        42.708               
E33  27226133.821 6 143077662.750 6      1456.875 6        40.844               
> 2025 01 03 15 42 16.0000000  0  6                                             
E05  27668132.235 6 144847880.384 6      1149.518 6        36.858               
E09  30331451.301 5 159396247.343 5     -2839.694 5        35.910               
E24  27797875.083 6 146082218.001 6      1921.536 6        41.178               
E26  28572593.382 6 149530964.212 6      1293.070 6        37.132               
E31  26044094.772 7 136865744.751 7      -359.005 7        42.847               
E33  27225852.456 6 143076206.754 6      1454.510 6        40.548               
> 2025 01 03 15 42 17.0000000  0  6                                             
E05  27668348.682 6 144846729.051 6      1149.297 6        36.826               
E09  30331990.999 5 159399084.873 5     -2835.813 5        35.638               
E24  27797511.037 6 146080296.153 6      1921.341 6        41.113               
E26  28572836.776 6 149529671.373 6      1291.577 6        37.257               
E31  26044162.245 7 136866103.487 7      -357.775 7        42.603               
E33  27225574.414 6 143074752.208 6      1454.836 6        40.558               
> 2025 01 03 15 42 18.0000000  0  6                                             
E05  27668564.290 6 144845579.118 6      1151.240 6        36.778               
E09  30332527.266 5 159401920.655 5     -2837.115 5        35.727               
E24  27797139.165 6 146078372.626 6      1923.437 6        41.413               
E26  28573077.686 6 149528379.899 6      1293.133 6        37.156               
E31  26044227.395 7 136866460.661 7      -357.854 7        42.464               
E33  27225295.389 6 143073296.317 6      1455.629 6        40.519               
> 2025 01 03 15 42 19.0000000  0  6                                             
E05  27668782.042 6 144844428.240 6      1152.685 6        36.579               
E09  30333066.017 5 159404757.030 5     -2836.136 5        35.827               
E24  27796772.564 6 146076449.743 6      1922.731 6        41.263               
E26  28573323.456 6 149527087.538 6      1291.529 6        37.463               
E31  26044292.903 7 136866818.587 7      -357.266 7        42.418               
E33  27225013.112 6 143071841.401 6      1454.912 6        40.377               
> 2025 01 03 15 42 20.0000000  0  6                                             
E05  27668998.061 6 144843277.642 6      1151.569 6        36.526               
E09  30333599.068 5 159407592.770 5     -2835.224 5        35.727               
E24  27796401.407 6 146074526.317 6      1924.652 6        41.310               
E26  28573566.171 6 149525795.376 6      1291.819 6        37.226               
E31  26044356.964 7 136867176.040 7      -357.363 7        42.145               
E33  27224735.624 6 143070386.240 6      1455.367 6        40.351               
> 2025 01 03 15 42 21.0000000  0  6                                             
E05  27669220.476 6 144842126.264 6      1154.232 6        36.916               
E09  30334141.590 5 159410428.953 5     -2836.913 5        35.884               
E24  27796032.822 6 146072603.367 6      1921.848 6        41.528               
E26  28573807.314 6 149524502.421 6      1292.509 6        36.955               
E31  26044421.292 7 136867534.095 7      -359.156 7        42.350               
E33  27224450.595 6 143068931.871 6      1452.712 6        40.479               
> 2025 01 03 15 42 22.0000000  0  6                                             
E05  27669432.707 6 144840973.565 6      1154.114 6        36.858               
E09  30334675.927 5 159413266.060 5     -2838.026 5        35.874               
E24  27795664.613 6 146070681.429 6      1920.326 6        41.373               
E26  28574054.085 6 149523208.150 6      1292.027 6        36.990               
E31  26044490.642 7 136867893.255 7      -360.915 7        42.469               
E33  27224176.663 6 143067478.871 6      1452.905 6        40.375               
> 2025 01 03 15 42 23.0000000  0  6                                             
E05  27669647.278 6 144839820.808 6      1153.410 6        37.092               
E09  30335213.123 5 159416102.930 5     -2833.526 5        35.795               
E24  27795297.566 6 146068759.298 6      1924.567 6        41.529               
E26  28574298.962 6 149521913.769 6      1292.236 6        37.473               
E31  26044554.005 7 136868252.312 7      -357.945 7        42.097               
E33  27223895.941 6 143066025.983 6      1456.711 6        40.473               
> 2025 01 03 15 42 24.0000000  0  6                                             
E05  27669864.869 6 144838668.112 6      1152.068 6        36.989               
E09  30335750.123 5 159418939.391 5     -2838.019 5        35.790               
E24  27794929.607 6 146066836.811 6      1922.279 6        41.709               
E26  28574538.425 6 149520619.444 6      1295.104 6        37.818               
E31  26044619.621 7 136868611.120 7      -359.697 7        42.396               
E33  27223618.471 6 143064573.074 6      1452.492 6        40.586               
