     3.02           OBSERVATION DATA    GAL                 RINEX VERSION / TYPE
G = GPS  R = GLONASS  E = GALILEO  S = GEO  M = MIXED       COMMENT
GALILEO OBSERVATION DATA FILE GENERATED BY GNSS-SDR         COMMENT
GNSS-SDR VERSION 0.0.19.git-main-87fcfd237                  COMMENT
See https://gnss-sdr.org                                    COMMENT
GNSS-SDR            jmfriedt            20250107 145116 UTC PGM / RUN BY / DATE
jmfriedt            CTTC                                    OBSERVER /AGENCY
DEFAULT MARKER NAME                                         MARKER NAME
        0.0000        0.0000        0.0000                  APPROX POSITION XYZ
Antenna number      Antenna type                            ANT # / TYPE
        0.0000        0.0000        0.0000                  ANTENNA: DELTA H/E/N
GNSS-SDR            Software Receiver   0.0.19.gi           REC # / TYPE / VERS
    18    18   137     7                                    LEAP SECONDS
  2025    01    07    14    18   25.14000000     GAL        TIME OF FIRST OBS
E    4 C1B L1B D1B S1B                                      SYS / # / OBS TYPES
                                                            END OF HEADER
> 2025 01 07 14 18  7.0000000  0  4
E04         3.198          20.171          -1.471           0.350  
E13        -2.323          90.856          -1.657           0.446  
E21         1.108           2.161           0.452           0.789  
E27         0.187        -194.157           0.004           0.063
> 2025 01 07 14 18  8.0000000  0  4
E04         1.215          20.170          -0.937           0.303  
E13         2.108          90.849           0.601           0.512  
E21         2.743           2.149           0.266           0.128  
E27         3.583        -194.152           1.448           0.158
> 2025 01 07 14 18  9.0000000  0  4
E04         1.689          20.173          -3.031           0.053  
E13        -1.760          90.842           1.019           0.188  
E21         2.483           2.163          -1.781           0.338  
E27         4.136        -194.173          -2.329           0.288
> 2025 01 07 14 18 10.0000000  0  4
E04         2.332          20.173          -1.832           0.028  
E13         5.763          90.838          -0.948           0.180  
E21         2.930           2.151           2.565          -0.033  
E27         3.493        -194.185           2.651          -0.254
> 2025 01 07 14 18 11.0000000  0  4
E04        -1.724          20.151          -1.503           0.044  
E13         0.974          90.846          -1.449           0.208  
E21         2.404           2.154          -0.242          -0.199  
E27         1.483        -194.124          -2.192          -0.684
> 2025 01 07 14 18 12.0000000  0  4
E04        -1.143          20.145           0.421           0.033  
E13         0.778          90.846           0.802           0.247  
E21         3.654           2.154           1.006           0.211  
E27         5.075        -194.156           1.608          -0.319
> 2025 01 07 14 18 13.0000000  0  4
E04         2.422          20.150           1.127           0.120  
E13         1.823          90.859          -0.532          -0.014  
E21         1.456           2.152           0.220          -0.037  
E27         2.797        -194.139          -1.115          -0.318
> 2025 01 07 14 18 14.0000000  0  4
E04         0.295          20.150          -0.862           0.432  
E13         1.036          90.848          -0.884           0.109  
E21        -0.027           2.157          -0.824           0.062  
E27         1.153        -194.158          -2.298          -0.029
> 2025 01 07 14 18 15.0000000  0  4
E04         2.251          20.161          -0.903           0.332  
E13         1.733          90.831          -1.089           0.408  
E21         2.001           2.156           0.301          -0.134  
E27         3.565        -194.161          -0.748           0.160
> 2025 01 07 14 18 16.0000000  0  4
E04        -0.991          20.150           0.289           0.366  
E13        -1.125          90.827           0.389           0.234  
E21        -0.831           2.147          -1.032          -0.108  
E27         2.135        -194.156          -2.481           0.204
> 2025 01 07 14 18 17.0000000  0  4
E04         1.161          20.143           1.071           0.321  
E13         0.384          90.831           0.074           0.071  
E21         2.037           2.163          -1.063          -0.368  
E27         2.296        -194.152          -1.372           0.097
> 2025 01 07 14 18 18.0000000  0  4
E04         3.002          20.163          -0.821           0.319  
E13        -1.000          90.853          -0.250           0.057  
E21         2.297           2.147           1.568           0.016  
E27         1.743        -194.142          -3.072           0.147
> 2025 01 07 14 18 19.0000000  0  4
E04         2.439          20.156          -0.393           0.423  
E13         1.135          90.846          -2.101           0.503  
E21         4.235           2.157          -1.806          -0.189  
E27         1.108        -194.141           0.112           0.304
> 2025 01 07 14 18 20.0000000  0  4
E04         0.688          20.166          -0.700          -0.104  
E13        -0.527          90.846          -0.165           0.689  
E21        -0.188           2.152           0.593          -0.303  
E27         1.581        -194.133          -1.542          -0.237
> 2025 01 07 14 18 21.0000000  0  4
E04         2.743          20.157          -0.290          -0.099  
E13         1.698          90.850           2.731           0.471  
E21         0.429           2.158          -0.630           0.066  
E27        -4.941        -194.129          -1.747          -0.203
> 2025 01 07 14 18 22.0000000  0  4
E04         1.313          20.143           1.252          -0.206  
E13         2.716          90.844          -0.696           0.358  
E21         2.627           2.159           0.112           0.434  
E27        -0.456        -194.156          -2.923           0.236
> 2025 01 07 14 18 23.0000000  0  4
E04         2.519          20.166          -0.747          -0.075  
E13         1.841          90.832           0.129           0.421  
E21         1.072           2.154           0.011          -0.040  
E27         6.129        -194.175          -0.436          -0.111
> 2025 01 07 14 18 24.0000000  0  4
E04         3.136          20.167           0.801           0.100  
E13        -2.117          90.835           1.452           0.116  
E21         2.341           2.162          -0.199          -0.052  
E27        -2.296        -194.135          -2.369          -0.063
> 2025 01 07 14 18 25.0000000  0  4
E04         0.572          20.153           0.864           0.199  
E13        -1.010          90.843           1.616          -0.141  
E21         2.984           2.158          -0.851           0.043  
E27         3.136        -194.173          -2.924           0.315
> 2025 01 07 14 18 26.0000000  0  4
E04         3.404          20.170           0.408           0.620  
E13         1.099          90.839           0.600           0.162  
E21        -0.366           2.164          -0.711          -0.003  
E27        -4.878        -194.120          -1.645           0.106
> 2025 01 07 14 18 27.0000000  0  4
E04         4.503          20.168           1.575           0.581  
E13         2.663          90.833           0.391           0.326  
E21         4.870           2.169           0.586          -0.063  
E27         7.532        -194.167           1.201           0.259
> 2025 01 07 14 18 28.0000000  0  4
E04        -2.117          20.162           1.529           0.673  
E13         1.813          90.840           0.172           0.262  
E21         2.430           2.171          -0.923           0.184  
E27         0.607        -194.174           0.944           0.237
> 2025 01 07 14 18 29.0000000  0  4
E04         1.992          20.150          -1.100           0.358  
E13         1.188          90.842          -1.558           0.159  
E21         2.323           2.165          -2.027           0.186  
E27        -3.413        -194.156           1.038          -0.295
> 2025 01 07 14 18 30.0000000  0  4
E04        -0.009          20.152          -0.641           0.616  
E13         3.055          90.822           0.189          -0.373  
E21         0.822           2.166          -0.252           0.536  
E27         0.214        -194.167           0.262          -0.045
> 2025 01 07 14 18 31.0000000  0  4
E04         0.393          20.162          -1.255           0.143  
E13         2.020          90.841           0.776          -0.135  
E21         2.690           2.168          -1.918           0.229  
E27         1.572        -194.168           1.820           0.107
> 2025 01 07 14 18 32.0000000  0  4
E04         6.764          20.164          -0.717           0.036  
E13         6.013          90.825           0.435          -0.146  
E21         1.331           2.154           1.416           0.210  
E27         2.529        -194.157           1.584          -0.111
> 2025 01 07 14 18 33.0000000  0  4
E04         5.718          20.158           1.346           0.152  
E13         0.080          90.843          -0.501          -0.418  
E21         1.769           2.162           0.280           0.032  
E27         2.457        -194.146          -2.250           0.127
> 2025 01 07 14 18 34.0000000  0  4
E04         0.393          20.174           0.523           0.091  
E13         1.778          90.831          -1.128          -0.462  
E21         3.628           2.179          -0.985          -0.013  
E27         5.530        -194.179           3.758          -0.003
> 2025 01 07 14 18 35.0000000  0  4
E04         4.289          20.171          -0.140           0.071  
E13        -1.465          90.839           0.237          -0.214  
E21         1.867           2.163          -0.244           0.014  
E27         1.135        -194.171           3.715          -0.469
> 2025 01 07 14 18 36.0000000  0  4
E04         3.243          20.143          -0.061           0.494  
E13         2.278          90.840           1.471          -0.222  
E21         1.635           2.154          -0.587           0.346  
E27         5.602        -194.163          -0.849          -0.277
> 2025 01 07 14 18 37.0000000  0  4
E04         0.715          20.162           0.320           0.111  
E13         4.154          90.825           1.418           0.339  
E21         2.055           2.161          -0.049           0.216  
E27         3.368        -194.159           1.476          -0.225
> 2025 01 07 14 18 38.0000000  0  4
E04         0.303          20.142          -2.338          -0.025  
E13         5.227          90.849          -0.005           0.204  
E21        -0.804           2.151          -0.628           0.383  
E27         3.467        -194.169          -0.749          -0.244
> 2025 01 07 14 18 39.0000000  0  4
E04         5.083          20.199          -2.291          -0.272  
E13         4.994          90.831           0.884           0.210  
E21         1.850           2.152           0.164           0.086  
E27         3.868        -194.189          -0.387          -0.121
> 2025 01 07 14 18 40.0000000  0  4
E04         0.795          20.169           0.360          -0.185  
E13         0.599          90.837           0.006           0.598  
E21        -0.268           2.162          -0.081           0.206  
E27         2.770        -194.148           0.520           0.200
> 2025 01 07 14 18 41.0000000  0  4
E04         5.870          20.179          -0.969          -0.206  
E13         3.770          90.824          -0.106           0.472  
E21         3.556           2.162           0.870           0.340  
E27        -0.107        -194.166           0.353           0.174
> 2025 01 07 14 18 42.0000000  0  4
E04         2.556          20.168           0.589          -0.020  
E13         0.857          90.844           0.012           0.645  
E21         2.073           2.158          -0.184           0.177  
E27         2.002        -194.151          -2.366           0.022
> 2025 01 07 14 18 43.0000000  0  4
E04         3.395          20.165          -1.736          -0.485  
E13         3.538          90.834          -0.520           0.281  
E21         2.019           2.160           1.226          -0.105  
E27        -0.179        -194.166          -2.565           0.234
> 2025 01 07 14 18 44.0000000  0  4
E04        -2.082          20.168          -0.406          -0.504  
E13         1.929          90.827           0.892           0.062  
E21         1.626           2.168           2.326          -0.277  
E27         2.439        -194.174          -1.367           0.100
> 2025 01 07 14 18 45.0000000  0  4
E04         1.403          20.154           2.249          -0.050  
E13        -1.367          90.843           1.157           0.202  
E21         1.760           2.162          -1.029          -0.237  
E27         4.136        -194.186          -2.538          -0.098
> 2025 01 07 14 18 46.0000000  0  4
E04         0.804          20.152           1.836          -0.214  
E13         4.476          90.850          -1.003          -0.025  
E21         3.592           2.170           0.045           0.026  
E27         9.346        -194.157          -3.231          -0.398
> 2025 01 07 14 18 47.0000000  0  4
E04         4.297          20.168           0.986          -0.011  
E13         2.492          90.830           2.163          -0.394  
E21         1.465           2.164           0.476          -0.083  
E27        -0.965        -194.165          -0.685           0.165
> 2025 01 07 14 18 48.0000000  0  4
E04        -0.929          20.144           0.280           0.527  
E13         1.000          90.828          -2.098           0.132  
E21         1.492           2.163           0.773          -0.322  
E27         8.595        -194.184           1.163           0.190
> 2025 01 07 14 18 49.0000000  0  4
E04        -0.706          20.170          -0.213           0.376  
E13         3.324          90.840          -1.271           0.259  
E21         2.198           2.172           0.355          -0.149  
E27        -6.031        -194.160           5.022           0.129
> 2025 01 07 14 18 50.0000000  0  4
E04         0.233          20.153           1.593          -0.008  
E13        -1.510          90.847           0.219           0.211  
E21         4.271           2.170          -1.564           0.007  
E27        -1.966        -194.135          -0.893           0.232
> 2025 01 07 14 18 51.0000000  0  4
E04        -1.492          20.146           0.860          -0.566  
E13         6.245          90.828           0.568           0.331  
E21         2.859           2.159           0.091          -0.006  
E27        -0.616        -194.156           1.960           0.078
> 2025 01 07 14 18 52.0000000  0  4
E04         2.600          20.157           1.175          -0.474  
E13         3.207          90.835           2.296           0.358  
E21        -0.313           2.149           0.340           0.247  
E27         1.019        -194.149           0.558           0.068
> 2025 01 07 14 18 53.0000000  0  4
E04         2.046          20.183           0.767          -0.405  
E13         5.254          90.825           0.819          -0.123  
E21         0.616           2.166          -1.148          -0.010  
E27         0.509        -194.162           0.836           0.396
> 2025 01 07 14 18 54.0000000  0  4
E04        -0.617          20.177           0.041          -0.621  
E13         3.172          90.839           0.388          -0.124  
E21         0.223           2.157           1.943           0.410  
E27         1.849        -194.147          -2.474           0.036
> 2025 01 07 14 18 55.0000000  0  4
E04         3.413          20.158          -0.403          -0.597  
E13         1.724          90.848           0.789          -0.106  
E21        -0.697           2.162          -1.150           0.335  
E27         7.916        -194.179           0.688           0.242
> 2025 01 07 14 18 56.0000000  0  4
E04        -1.662          20.145           0.406          -0.278  
E13         3.190          90.852           1.098           0.094  
E21         3.350           2.180          -2.081           0.412  
E27        -1.090        -194.169          -1.227           0.353
> 2025 01 07 14 18 57.0000000  0  4
E04         3.654          20.173          -1.375          -0.180  
E13         1.081          90.838           0.331          -0.007  
E21         0.358           2.173           0.175           0.352  
E27         6.799        -194.171           0.188           0.520
> 2025 01 07 14 18 58.0000000  0  4
E04         1.278          20.153           0.158          -0.145  
E13        -1.000          90.841           0.649          -0.530  
E21         5.736           2.181          -1.677          -0.008  
E27        -2.886        -194.145          -0.269           0.234
> 2025 01 07 14 18 59.0000000  0  4
E04         3.047          20.173          -0.750          -0.245  
E13        -1.206          90.833           0.125          -0.370  
E21         0.741           2.160          -1.238          -0.049  
E27        -0.215        -194.159          -2.247           0.209
> 2025 01 07 14 19  0.0000000  0  4
E04        -4.253          20.153           1.530          -0.313  
E13         3.154          90.839          -2.222          -0.155  
E21        -1.188           2.148           1.920           0.143  
E27         2.100        -194.144          -1.894          -0.353
> 2025 01 07 14 19  1.0000000  0  4
E04         3.771          20.180          -1.187          -0.021  
E13         2.912          90.834          -0.889          -0.169  
E21         2.520           2.175          -0.512           0.153  
E27         3.476        -194.198          -1.653          -0.039
> 2025 01 07 14 19  2.0000000  0  4
E04         3.314          20.168           1.755          -0.342  
E13         3.967          90.843           0.753          -0.103  
E21         1.010           2.164          -1.476           0.329  
E27        -0.778        -194.156          -2.781          -0.273
> 2025 01 07 14 19  3.0000000  0  4
E04         3.493          20.176          -1.801          -0.335  
E13         4.789          90.839          -0.966           0.200  
E21         1.644           2.161           0.865           0.262  
E27         2.868        -194.177           1.477          -0.262
> 2025 01 07 14 19  4.0000000  0  4
E04         2.431          20.162           0.731          -0.566  
E13         0.857          90.846          -1.459          -0.141  
E21         0.545           2.158           0.789          -0.052  
E27        -0.339        -194.159           1.963          -0.212
> 2025 01 07 14 19  5.0000000  0  4
E04         4.477          20.164          -0.572          -0.390  
E13        -0.661          90.852          -0.291          -0.356  
E21         1.456           2.173          -0.014          -0.453  
E27         1.590        -194.141          -0.868          -0.047
> 2025 01 07 14 19  6.0000000  0  5
E04        -2.895          20.159          -0.432          -0.108  
E13         3.350          90.845          -1.119           0.159  
E15         2.877      115877.024       -1961.790           0.298  
E21        -0.402           2.157           1.506          -0.413  
E27         3.404        -194.171           1.323          -0.179
> 2025 01 07 14 19  7.0000000  0  5
E04         2.403          20.165           0.027          -0.388  
E13        -1.680          90.845          -1.224           0.146  
E15         3.163      117835.430       -1957.848           0.404  
E21         3.118           2.169          -0.757          -0.181  
E27         1.475        -194.183           1.457           0.167
> 2025 01 07 14 19  8.0000000  0  5
E04         1.189          20.166           0.782          -0.380  
E13         0.339          90.845          -0.115           0.289  
E15         3.073      119795.365       -1957.709           0.170  
E21        -1.965           2.162           0.407          -0.116  
E27         2.761        -194.167           1.369           0.012
> 2025 01 07 14 19  9.0000000  0  5
E04        -2.457          20.146          -0.766          -0.228  
E13         0.376          90.843           0.519           0.447  
E15         0.357      121756.501       -1957.814          -0.654  
E21         1.617           2.159          -1.016           0.443  
E27         1.036        -194.173           1.259           0.160
> 2025 01 07 14 19 10.0000000  0  5
E04         3.806          20.156           2.535          -0.141  
E13         2.475          90.836           0.599           0.137  
E15         3.761      123718.319       -1962.560          -0.730  
E21         2.922           2.164           0.554           0.406  
E27         3.958        -194.165          -0.110           0.171
> 2025 01 07 14 19 11.0000000  0  5
E04         3.761          20.160          -0.881           0.374  
E13        -0.492          90.846           0.491           0.061  
E15         2.591      125680.837       -1964.843          -0.544  
E21         3.046           2.166          -1.274           0.216  
E27        -2.046        -194.155           0.205           0.009
> 2025 01 07 14 19 12.0000000  0  5
E04        -2.394          20.156          -1.602           0.087  
E13         2.939          90.834           0.205           0.109  
E15        -1.725      127642.898       -1969.040          -0.217  
E21        -0.295           2.165           0.206           0.316  
E27         4.950        -194.183           0.067           0.253
> 2025 01 07 14 19 13.0000000  0  5
E04        -1.359          20.148           1.215          -0.073  
E13        -0.670          90.836          -0.379           0.149  
E15        -0.643      129607.764       -1964.494           0.130  
E21         0.947           2.182          -1.105           0.123  
E27         7.594        -194.180           0.395           0.190
> 2025 01 07 14 19 14.0000000  0  5
E04        -0.983          20.153           0.717          -0.216  
E13         0.160          90.850           0.483           0.380  
E15        -2.278      131571.778       -1967.963           0.332  
E21         3.520           2.170          -0.455          -0.072  
E27         4.869        -194.167           1.123           0.124
> 2025 01 07 14 19 15.0000000  0  5
E04        -0.528          20.155           1.836          -0.142  
E13         3.118          90.819           0.501           0.262  
E15         4.101      133537.714       -1967.667           0.203  
E21         4.369           2.166           0.232          -0.199  
E27        -1.492        -194.156          -0.499          -0.157
> 2025 01 07 14 19 16.0000000  0  5
E04         3.815          20.170          -1.860          -0.236  
E13         5.450          90.835          -0.834           0.275  
E15         0.500      135504.825       -1967.300          -0.024  
E21        -0.384           2.164          -0.850           0.002  
E27         0.143        -194.169          -2.922           0.037
> 2025 01 07 14 19 17.0000000  0  5
E04         2.734          20.165          -1.425          -0.144  
E13         4.110          90.841          -1.624           0.274  
E15         4.181      137472.545       -1967.539           0.197  
E21         0.518           2.164           0.131           0.011  
E27         4.039        -194.191           2.085          -0.050
> 2025 01 07 14 19 18.0000000  0  5
E04         1.296          20.164           0.950          -0.186  
E13         5.835          90.835           0.255           0.256  
E15        -1.965      139441.425       -1967.126           0.165  
E21         3.199           2.157           0.646          -0.343  
E27         0.580        -194.158           2.861          -0.336
> 2025 01 07 14 19 19.0000000  0  5
E04        -1.796          20.171          -1.550           0.041  
E13        -0.259          90.830           0.033           0.240  
E15         4.101      141412.884       -1972.361           0.098  
E21         4.298           2.166          -0.504          -0.433  
E27         2.698        -194.176          -0.509          -0.143
> 2025 01 07 14 19 20.0000000  0  5
E04        -1.251          20.157           2.193          -0.084  
E13         0.821          90.823          -0.367          -0.176  
E15         3.163      143385.511       -1972.087           0.167  
E21         1.286           2.162          -0.255          -0.516  
E27         5.137        -194.166          -1.080           0.081
> 2025 01 07 14 19 21.0000000  0  5
E04         0.705          20.155          -0.704          -0.301  
E13        -0.429          90.838          -2.099          -0.595  
E15         4.780      145358.913       -1974.404           0.354  
E21        -1.251           2.165          -1.093          -0.311  
E27         2.672        -194.162           0.915          -0.303
> 2025 01 07 14 19 22.0000000  0  5
E04         1.198          20.158           1.986          -0.511  
E13         2.555          90.821           2.076          -0.165  
E15        -0.795      147332.959       -1974.823          -0.181  
E21        -1.983           2.156           0.906           0.285  
E27         3.172        -194.150           2.351          -0.235
> 2025 01 07 14 19 23.0000000  0  5
E04        -0.107          20.160           0.834          -0.290  
E13         2.734          90.840          -1.322          -0.248  
E15         2.663      149306.467       -1972.197           0.046  
E21         2.681           2.176          -1.834           0.015  
E27        -0.108        -194.137          -0.983           0.083
> 2025 01 07 14 19 24.0000000  0  5
E04         3.448          20.163           0.512          -0.196  
E13        -0.250          90.843           0.891          -0.201  
E15         2.823      151281.767       -1979.239           0.241  
E21        -0.196           2.160          -1.065          -0.094  
E27         2.091        -194.146          -0.717           0.150
> 2025 01 07 14 19 25.0000000  0  5
E04        -0.321          20.152           1.824           0.071  
E13         4.414          90.835           0.477          -0.502  
E15         3.628      153257.203       -1976.034           0.314  
E21         4.878           2.169           0.648           0.212  
E27         1.126        -194.163          -1.466           0.507
> 2025 01 07 14 19 26.0000000  0  5
E04        -2.252          20.153          -3.074           0.034  
E13         4.074          90.841           0.324          -0.059  
E15         5.254      155235.124       -1978.599           0.249  
E21         0.572           2.151           1.305           0.066  
E27         0.446        -194.159          -0.385           0.273
> 2025 01 07 14 19 27.0000000  0  5
E04         6.370          20.187          -0.378           0.233  
E13        -0.062          90.836          -1.355           0.003  
E15         2.430      157212.025       -1976.771           0.205  
E21         1.537           2.165          -1.509           0.049  
E27         0.554        -194.162          -0.692          -0.030
> 2025 01 07 14 19 28.0000000  0  5
E04         0.911          20.162           0.886          -0.451  
E13         3.431          90.823           1.151           0.085  
E15         3.162      159190.736       -1974.776           0.059  
E21         1.340           2.161          -0.065          -0.365  
E27         1.840        -194.161           1.373           0.122
> 2025 01 07 14 19 29.0000000  0  5
E04         4.870          20.160          -0.744          -0.492  
E13         5.245          90.831          -1.175          -0.179  
E15        -1.627      161171.199       -1979.730           0.096  
E21         1.849           2.163           0.570          -0.146  
E27        -3.208        -194.146          -0.590           0.150
> 2025 01 07 14 19 30.0000000  0  5
E04        -1.894          20.140           0.980          -0.317  
E13         5.655          90.828           1.392          -0.187  
E15         5.208      163152.434       -1980.338          -0.157  
E21         1.948           2.170          -0.701           0.113  
E27         3.216        -194.163           2.083           0.239
> 2025 01 07 14 19 31.0000000  0  5
E04         2.627          20.160           0.010           0.115  
E13        -0.357          90.837          -1.221          -0.363  
E15         3.011      165136.080       -1985.069          -0.180  
E21        -1.742           2.153           0.066           0.280  
E27        -2.994        -194.143          -1.439           0.593
> 2025 01 07 14 19 32.0000000  0  5
E04         2.475          20.174          -0.812           0.015  
E13        -0.375          90.834          -0.275          -0.107  
E15        -1.358      167121.046       -1987.809          -0.604  
E21         3.449           2.166           0.280          -0.098  
E27         5.897        -194.174           1.444           0.094
> 2025 01 07 14 19 33.0000000  0  5
E04         4.163          20.160           0.276           0.380  
E13         4.173          90.836           0.691          -0.883  
E15        -3.073      169105.275       -1982.625          -0.375  
E21         4.209           2.164           1.891          -0.221  
E27         0.724        -194.171           1.172          -0.039
> 2025 01 07 14 19 34.0000000  0  5
E04         3.475          20.156           1.307           0.114  
E13         1.528          90.825           2.181          -0.497  
E15         0.777      171090.731       -1985.459           0.052  
E21         3.404           2.168           0.144           0.274  
E27         0.875        -194.155          -3.184           0.152
> 2025 01 07 14 19 35.0000000  0  5
E04         1.162          20.145           0.583           0.131  
E13         2.171          90.833           1.027          -0.521  
E15         3.582      173076.581       -1986.490           0.169  
E21         0.375           2.163           0.287           0.106  
E27        -0.313        -194.166          -3.641          -0.005
> 2025 01 07 14 19 36.0000000  0  5
E04        -1.439          20.167           0.271          -0.077  
E13         5.736          90.835           0.603          -0.412  
E15         2.940      175063.558       -1985.218           0.613  
E21         2.564           2.158           0.117           0.193  
E27         1.331        -194.161           0.084           0.446
> 2025 01 07 14 19 37.0000000  0  5
E04         4.503          20.180          -0.415           0.046  
E13         1.340          90.836          -0.303           0.040  
E15         5.012      177052.988       -1990.452           0.507  
E21         4.146           2.173           0.452           0.131  
E27         4.065        -194.158          -0.374           0.274
> 2025 01 07 14 19 38.0000000  0  5
E04         3.038          20.160          -0.193           0.085  
E13         2.475          90.852          -0.444          -0.272  
E15         1.688      179043.355       -1992.114           0.335  
E21         1.010           2.158           0.311           0.283  
E27         0.268        -194.154          -2.052           0.005
> 2025 01 07 14 19 39.0000000  0  5
E04         2.556          20.169          -1.338           0.328  
E13         0.635          90.839          -0.244          -0.246  
E15         2.930      181034.379       -1993.182           0.446  
E21         3.895           2.173           0.096           0.330  
E27         8.551        -194.180           0.183           0.000
> 2025 01 07 14 19 40.0000000  0  5
E04        -0.947          20.151           0.307           0.149  
E13         2.895          90.839          -1.535           0.021  
E15         3.395      183026.995       -1996.620           0.612  
E21         1.447           2.163           0.301           0.529  
E27         0.090        -194.158           1.465           0.091
> 2025 01 07 14 19 41.0000000  0  5
E04         4.610          20.193          -3.066          -0.127  
E13         0.411          90.833          -3.047           0.484  
E15         9.381      185021.955       -1995.292           0.325  
E21         2.922           2.161           1.842           0.229  
E27         1.510        -194.147          -2.260           0.303
> 2025 01 07 14 19 42.0000000  0  5
E04        -0.224          20.171          -0.781           0.259  
E13        -0.867          90.843          -0.451           0.372  
E15         4.467      187017.541       -1997.010           0.195  
E21         1.054           2.177           0.660          -0.348  
E27         0.482        -194.167           4.915           0.641
> 2025 01 07 14 19 43.0000000  0  5
E04        -0.357          20.155          -1.480           0.285  
E13         6.423          90.819           0.623          -0.110  
E15         3.931      189013.898       -1993.915          -0.168  
E21        -0.322           2.171          -2.388           0.044  
E27         1.197        -194.169          -0.840           0.556
> 2025 01 07 14 19 44.0000000  0  5
E04        -0.795          20.163           0.252           0.465  
E13         1.885          90.836          -0.810           0.202  
E15         7.568      191010.496       -1996.867           0.206  
E21         2.118           2.154           1.093          -0.294  
E27         2.029        -194.175           4.447           0.450
> 2025 01 07 14 19 45.0000000  0  5
E04         2.189          20.165          -1.825           0.349  
E13         0.134          90.837          -1.128           0.200  
E15         0.268      193007.530       -1997.074           0.185  
E21         1.716           2.169          -0.955           0.360  
E27        -0.590        -194.163           1.129           0.415
> 2025 01 07 14 19 46.0000000  0  5
E04        -1.072          20.161           2.443           0.063  
E13         0.643          90.836           0.385           0.356  
E15        -0.813      195004.957       -1994.224          -0.265  
E21         1.849           2.144           1.423           0.359  
E27         1.251        -194.146          -0.799           0.350
> 2025 01 07 14 19 47.0000000  0  5
E04         1.448          20.172          -3.536           0.388  
E13        -0.474          90.832           0.402           0.471  
E15        -1.591      197004.725       -2000.666          -0.181  
E21         2.931           2.153          -0.812           0.205  
E27         1.278        -194.158           1.081          -0.062
> 2025 01 07 14 19 48.0000000  0  5
E04         0.330          20.158          -0.119           0.131  
E13         3.860          90.843          -0.123           0.109  
E15         4.476      199005.227       -1999.902           0.120  
E21         3.860           2.164           0.303          -0.239  
E27         4.548        -194.154           1.217          -0.118
> 2025 01 07 14 19 49.0000000  0  5
E04         3.699          20.163          -1.762          -0.074  
E13         4.360          90.840           1.095           0.078  
E15         3.681      201006.839       -2002.539           0.045  
E21         1.760           2.157          -0.995          -0.240  
E27         3.502        -194.172          -1.479          -0.099
> 2025 01 07 14 19 50.0000000  0  5
E04         1.885          20.177          -2.330           0.121  
E13         4.110          90.833          -0.742           0.151  
E15        -1.019      203010.225       -2003.046           0.161  
E21         1.197           2.157          -0.840           0.072  
E27        -1.778        -194.151          -1.969           0.252
> 2025 01 07 14 19 51.0000000  0  5
E04         4.021          20.154          -0.085           0.100  
E13         0.590          90.839          -0.484          -0.157  
E15        -2.591      205014.520       -2001.898           0.317  
E21         4.905           2.168          -2.206          -0.077  
E27         1.484        -194.159           0.675           0.619
> 2025 01 07 14 19 52.0000000  0  5
E04         3.377          20.183           0.139           0.128  
E13         1.546          90.841          -1.075           0.024  
E15         1.197      207019.647       -2002.342           0.152  
E21        -0.286           2.160           2.921          -0.087  
E27         1.519        -194.173          -2.671           0.096
> 2025 01 07 14 19 53.0000000  0  5
E04        -0.626          20.162           0.220           0.087  
E13         1.787          90.850           1.750           0.007  
E15         0.268      209026.374       -2008.921           0.104  
E21         4.422           2.155          -1.800          -0.292  
E27         4.440        -194.148          -1.812           0.637
> 2025 01 07 14 19 54.0000000  0  5
E04        -3.779          20.168           2.006           0.183  
E13         3.815          90.832           0.710          -0.153  
E15         2.448      211033.788       -2008.898           0.014  
E21        -0.840           2.150           0.046          -0.006  
E27        -0.206        -194.148           1.371           0.510
> 2025 01 07 14 19 55.0000000  0  5
E04         1.822          20.172          -0.625           0.229  
E13         0.402          90.863          -0.409           0.322  
E15         7.380      213042.666       -2010.165          -0.138  
E21         1.447           2.157           0.173          -0.205  
E27        -1.206        -194.162           1.363           0.871
> 2025 01 07 14 19 56.0000000  0  5
E04        -1.304          20.156           0.253           0.082  
E13         0.134          90.837          -1.713           0.246  
E15        -2.010      215052.222       -2012.678           0.455  
E21         4.530           2.171           0.586           0.270  
E27         1.993        -194.176          -2.839           0.772
> 2025 01 07 14 19 57.0000000  0  5
E04         1.224          20.163          -1.579          -0.137  
E13         1.519          90.833           0.444           0.270  
E15        -0.411      217062.477       -2009.349           0.086  
E21         3.028           2.161           0.381           0.046  
E27         6.013        -194.164          -1.851           0.650
> 2025 01 07 14 19 58.0000000  0  5
E04         6.487          20.164          -2.403          -0.091  
E13        -1.993          90.840           1.136           0.297  
E15         4.610      219073.564       -2012.733          -0.207  
E21         3.092           2.162           0.205           0.019  
E27         4.646        -194.161           2.790           0.390
> 2025 01 07 14 19 59.0000000  0  5
E04         1.519          20.143           0.653          -0.126  
E13         2.020          90.835          -0.028           0.055  
E15        -2.430      221085.433       -2014.804          -0.183  
E21         1.537           2.151           0.314          -0.492  
E27        -0.357        -194.150          -3.095           0.025
> 2025 01 07 14 20  0.0000000  0  5
E04        -0.733          20.150          -1.094          -0.230  
E13         1.277          90.846          -1.431           0.240  
E15         2.940      223099.069       -2012.575          -0.302  
E21         1.858           2.172           0.380          -0.456  
E27         3.663        -194.170           3.187          -0.016
> 2025 01 07 14 20  1.0000000  0  5
E04         2.725          20.174          -1.502           0.515  
E13         0.447          90.833           0.996           0.157  
E15        -0.876      225113.824       -2016.772          -0.335  
E21         2.814           2.158          -0.393          -0.096  
E27        -1.260        -194.152          -1.914           0.298
> 2025 01 07 14 20  2.0000000  0  5
E04         2.332          20.153          -0.364           0.159  
E13         3.011          90.829          -1.674           0.101  
E15         6.620      227129.508       -2019.888           0.426  
E21         0.402           2.167          -0.272          -0.054  
E27         5.056        -194.161          -0.625           0.394
> 2025 01 07 14 20  3.0000000  0  5
E04        -1.037          20.175          -1.691          -0.019  
E13         4.226          90.835          -0.669           0.012  
E15        -0.197      229146.537       -2018.209           0.381  
E21        -0.259           2.155          -1.203          -0.076  
E27        -3.458        -194.157           0.811           0.405
> 2025 01 07 14 20  4.0000000  0  5
E04        -0.340          20.163           0.638           0.095  
E13         0.330          90.845          -0.132           0.236  
E15         3.190      231164.196       -2018.108           0.123  
E21        -0.009           2.153          -0.062           0.050  
E27         3.386        -194.161          -1.940           0.566
> 2025 01 07 14 20  5.0000000  0  5
E04        -2.073          20.173           1.413           0.171  
E13         4.789          90.833           0.221           0.274  
E15        -2.538      233182.153       -2017.941           0.188  
E21         1.769           2.178          -1.282           0.023  
E27         5.762        -194.155          -1.927           0.423
> 2025 01 07 14 20  6.0000000  0  5
E04         1.813          20.175          -1.844           0.057  
E13        -0.161          90.824           0.608          -0.060  
E15         2.555      235202.267       -2019.820           0.161  
E21         3.064           2.178          -0.669           0.069  
E27         4.664        -194.166           1.988          -0.085
> 2025 01 07 14 20  7.0000000  0  5
E04         1.519          20.175           0.327           0.003  
E13        -0.277          90.834           0.763          -0.305  
E15         2.716      237223.204       -2015.133           0.230  
E21         1.376           2.167          -2.270          -0.022  
E27         3.306        -194.161          -1.144          -0.198
> 2025 01 07 14 20  8.0000000  0  5
E04         2.037          20.165           1.641          -0.201  
E13        -2.064          90.851          -1.502          -0.149  
E15         2.457      239243.586       -2025.220           0.014  
E21        -1.179           2.158           0.704           0.417  
E27         1.447        -194.157          -1.236          -0.075
> 2025 01 07 14 20  9.0000000  0  5
E04         3.905          20.171           1.203           0.013  
E13         5.128          90.821          -2.505          -0.044  
E15         3.797      241265.166       -2024.826          -0.015  
E21         4.538           2.169           0.639           0.481  
E27         0.617        -194.177           0.036          -0.279
> 2025 01 07 14 20 10.0000000  0  5
E04         5.361          20.178           0.595           0.005  
E13         0.742          90.836          -0.547           0.057  
E15         0.590      243287.507       -2021.425           0.000  
E21         2.189           2.173          -1.242           0.443  
E27         1.411        -194.163           1.205          -0.140
> 2025 01 07 14 20 11.0000000  0  5
E04        -1.009          20.144          -0.017          -0.092  
E13         0.599          90.824           2.007           0.226  
E15         0.447      245312.068       -2026.164          -0.036  
E21        -1.689           2.163          -0.394           0.307  
E27         5.602        -194.176          -1.299           0.067
> 2025 01 07 14 20 12.0000000  0  5
E04         1.733          20.164           1.158           0.202  
E13         2.385          90.834           0.689          -0.104  
E15        -0.072      247339.951       -2027.389          -0.383  
E21        -0.054           2.155           0.267           0.155  
E27         1.867        -194.155          -1.538           0.075
> 2025 01 07 14 20 13.0000000  0  5
E04         3.074          20.165           0.214           0.444  
E13         1.492          90.830          -0.207          -0.510  
E15         3.887      249366.559       -2027.770          -0.302  
E21         1.859           2.164           1.712          -0.030  
E27        -3.573        -194.159           0.373           0.214
> 2025 01 07 14 20 14.0000000  0  5
E04         0.875          20.179          -3.068           0.117  
E13         2.011          90.844           0.105          -0.028  
E15         4.709      251394.753       -2031.077          -0.564  
E21         0.277           2.143           1.092           0.191  
E27         1.492        -194.151          -0.432           0.229
> 2025 01 07 14 20 15.0000000  0  5
E04         2.958          20.154          -0.456           0.191  
E13        -0.536          90.831           1.245          -0.086  
E15         2.949      253422.497       -2029.062          -0.622  
E21         0.134           2.166           0.613           0.018  
E27         6.406        -194.185           2.745           0.357
> 2025 01 07 14 20 16.0000000  0  5
E04         3.342          20.158           0.096           0.370  
E13         4.190          90.825          -0.430           0.111  
E15         6.683      255451.669       -2030.301          -0.591  
E21         2.163           2.152          -0.023           0.156  
E27         1.189        -194.162          -3.620          -0.156
> 2025 01 07 14 20 17.0000000  0  5
E04         3.538          20.192          -0.221          -0.084  
E13         0.867          90.824          -0.900           0.013  
E15        -3.851      257483.785       -2031.141          -0.470  
E21         3.565           2.172          -2.515          -0.101  
E27         1.805        -194.156          -0.424          -0.038
> 2025 01 07 14 20 18.0000000  0  5
E04         2.931          20.181          -0.475          -0.232  
E13         4.369          90.840          -0.064           0.153  
E15        -0.983      259517.501       -2032.905          -0.527  
E21         4.833           2.168          -1.244           0.277  
E27         2.895        -194.165          -0.366          -0.345
> 2025 01 07 14 20 19.0000000  0  5
E04         0.831          20.153          -0.951          -0.230  
E13        -4.700          90.846          -0.682          -0.147  
E15        -1.778      261550.710       -2031.735          -0.360  
E21         1.278           2.160           0.687           0.168  
E27         1.752        -194.171          -0.107          -0.148
> 2025 01 07 14 20 20.0000000  0  5
E04         2.019          20.175           0.135          -0.116  
E13         1.162          90.847          -0.229          -0.163  
E15         4.798      263584.856       -2031.464          -0.779  
E21         0.554           2.157           0.059           0.327  
E27         4.396        -194.157          -4.216          -0.425
> 2025 01 07 14 20 21.0000000  0  5
E04         6.183          20.195          -1.045           0.176  
E13         0.661          90.835           0.655          -0.074  
E15         5.173      265619.733       -2034.239          -0.417  
E21         0.187           2.171          -1.088           0.498  
E27         3.994        -194.191           3.174          -0.594
> 2025 01 07 14 20 22.0000000  0  5
E04         1.858          20.159           1.080           0.433  
E13        -3.154          90.853          -1.665          -0.147  
E15         4.261      267655.260       -2035.552          -0.345  
E21         3.716           2.167           0.478           0.535  
E27        -1.420        -194.197           1.712          -0.590
> 2025 01 07 14 20 23.0000000  0  5
E04         3.601          20.177          -0.302           0.768  
E13         5.459          90.842          -1.808          -0.081  
E15         2.502      269692.385       -2039.209          -0.152  
E21         2.912           2.166           0.607           0.235  
E27        -1.322        -194.160          -0.098          -0.336
> 2025 01 07 14 20 24.0000000  0  5
E04         0.706          20.173           1.201           1.318  
E13         1.555          90.843          -0.701          -0.191  
E15         2.608      271729.554       -2035.884          -0.372  
E21         1.725           2.173          -1.011           0.167  
E27         2.654        -194.170           0.378          -0.205
> 2025 01 07 14 20 25.0000000  0  5
E04         1.796          20.166          -1.798           0.848  
E13         0.375          90.847          -0.813           0.064  
E15        -0.671      273767.081       -2037.983          -0.275  
E21         1.152           2.160           0.857           0.118  
E27        -0.849        -194.165          -0.396          -0.094
> 2025 01 07 14 20 26.0000000  0  5
E04         0.742          20.173           0.693           0.462  
E13         2.797          90.828           1.957          -0.333  
E15         4.744      275805.924       -2042.784           0.074  
E21        -1.162           2.171          -1.870          -0.002  
E27         4.163        -194.181           0.963          -0.303
> 2025 01 07 14 20 27.0000000  0  5
E04         7.308          20.170           2.174           0.684  
E13         0.848          90.825           1.004          -0.155  
E15         6.781      277846.596       -2044.391          -0.023  
E21         2.135           2.169          -0.740           0.210  
E27         2.565        -194.172          -2.027          -0.166
> 2025 01 07 14 20 28.0000000  0  5
E04         3.860          20.174           0.034           0.657  
E13         3.225          90.837           0.533          -0.262  
E15         1.402      279887.710       -2039.537          -0.056  
E21         1.010           2.162           1.554           0.110  
E27         2.564        -194.167           0.536           0.327
> 2025 01 07 14 20 29.0000000  0  5
E04         2.502          20.164           0.590           0.355  
E13         0.473          90.842          -0.376           0.270  
E15         3.002      281929.685       -2043.941           0.102  
E21         4.003           2.164           1.105          -0.118  
E27         0.670        -194.138          -0.230           0.443
> 2025 01 07 14 20 30.0000000  0  5
E04         5.110          20.166           0.752           0.094  
E13         0.956          90.819          -0.476           0.307  
E15         0.294      283972.121       -2043.199           0.007  
E21         3.618           2.179           0.303           0.111  
E27         5.146        -194.186           1.398           0.142
> 2025 01 07 14 20 31.0000000  0  5
E04         3.217          20.169           0.636           0.048  
E13         1.850          90.832          -0.878          -0.122  
E15         3.163      286016.001       -2045.257          -0.135  
E21         3.735           2.170          -0.123          -0.117  
E27         1.975        -194.156          -2.240           0.140
> 2025 01 07 14 20 32.0000000  0  5
E04         2.707          20.146           2.143           0.111  
E13         2.877          90.840          -1.459          -0.337  
E15         1.466      288061.322       -2048.146          -0.293  
E21         1.876           2.156           0.144          -0.242  
E27         1.376        -194.165           1.958           0.291
> 2025 01 07 14 20 33.0000000  0  5
E04         1.760          20.152           1.688           0.265  
E13         1.957          90.846           0.273          -0.328  
E15         2.680      290107.984       -2047.926           0.249  
E21         2.778           2.167          -0.423           0.049  
E27         3.162        -194.177           0.484           0.261
> 2025 01 07 14 20 34.0000000  0  5
E04         3.511          20.164           0.016           0.002  
E13         4.360          90.827           0.417           0.037  
E15         0.598      292156.180       -2050.601           0.237  
E21         2.260           2.166           0.057          -0.098  
E27         0.152        -194.160          -0.385          -0.137
> 2025 01 07 14 20 35.0000000  0  5
E04         6.764          20.182           0.621          -0.285  
E13         3.262          90.806           1.906          -0.077  
E15        -1.143      294205.905       -2051.331          -0.191  
E21         5.244           2.170          -0.374          -0.373  
E27        -0.482        -194.161           0.565          -0.303
> 2025 01 07 14 20 36.0000000  0  5
E04         3.154          20.153           1.146          -0.186  
E13        -1.492          90.836          -1.245          -0.137  
E15         3.770      296256.195       -2052.984          -0.425  
E21         1.876           2.159          -1.037          -0.062  
E27         1.921        -194.173           0.289          -0.003
> 2025 01 07 14 20 37.0000000  0  5
E04        -1.277          20.162          -0.488          -0.082  
E13         5.048          90.828           1.199          -0.307  
E15        -2.091      298307.985       -2053.778          -0.297  
E21         1.081           2.156          -1.702           0.417  
E27         2.225        -194.153          -1.443           0.196
> 2025 01 07 14 20 38.0000000  0  5
E04         2.859          20.151           1.499          -0.161  
E13         3.431          90.837          -0.864          -0.091  
E15         3.234      300361.104       -2051.143          -0.032  
E21         1.680           2.164          -0.902           0.416  
E27         3.073        -194.166           1.003           0.295
> 2025 01 07 14 20 39.0000000  0  5
E04        -1.313          20.173          -2.149          -0.500  
E13         1.876          90.838           0.212           0.068  
E15         3.690      302415.016       -2054.722           0.034  
E21         1.224           2.159           0.748           0.395  
E27        -0.876        -194.171           0.513           0.359
> 2025 01 07 14 20 40.0000000  0  5
E04         1.555          20.156          -0.538          -0.189  
E13         3.055          90.827          -0.472           0.020  
E15         1.134      304471.388       -2059.564          -0.136  
E21         3.342           2.152           1.236           0.169  
E27         4.619        -194.165           1.587           0.337
> 2025 01 07 14 20 41.0000000  0  5
E04         3.940          20.163          -0.292           0.037  
E13         2.269          90.838           1.216           0.020  
E15        -0.750      306527.691       -2051.560           0.164  
E21         0.429           2.166          -2.274           0.133  
E27         1.358        -194.160           0.389          -0.035
> 2025 01 07 14 20 42.0000000  0  5
E04        -4.199          20.160          -1.211           0.261  
E13        -0.751          90.822          -0.693          -0.014  
E15         6.191      308583.129       -2053.480           0.450  
E21         4.664           2.166          -0.929           0.064  
E27         2.064        -194.171           0.589          -0.267
> 2025 01 07 14 20 43.0000000  0  5
E04         1.751          20.161           1.325           0.218  
E13         3.538          90.832           0.174          -0.100  
E15        -1.188      310639.156       -2053.696           0.063  
E21         0.652           2.171          -1.339           0.314  
E27        -0.742        -194.170           1.395          -0.184
> 2025 01 07 14 20 44.0000000  0  5
E04        -2.805          20.157           0.693           0.123  
E13         3.020          90.829           2.073           0.123  
E15        -0.616      312696.400       -2063.401           0.093  
E21         1.652           2.173          -0.239           0.129  
E27         6.951        -194.164          -2.694          -0.101
> 2025 01 07 14 20 45.0000000  0  5
E04         2.769          20.170           0.315          -0.032  
E13         0.562          90.844          -1.026           0.070  
E15         0.152      314757.315       -2064.062          -0.280  
E21        -1.483           2.157           0.131           0.841  
E27         4.109        -194.190           0.130           0.106
> 2025 01 07 14 20 46.0000000  0  5
E04         0.241          20.161           0.414           0.374  
E13         4.655          90.827           1.241           0.276  
E15         2.895      316818.220       -2063.391           0.133  
E21         1.501           2.163          -0.061           0.331  
E27        -3.565        -194.158           1.365           0.227
> 2025 01 07 14 20 47.0000000  0  5
E04         2.091          20.164          -0.035           0.232  
E13         2.224          90.839          -1.694          -0.010  
E15        -0.884      318880.690       -2061.578           0.332  
E21        -0.161           2.177          -1.302           0.279  
E27         4.056        -194.179           4.715           0.374
> 2025 01 07 14 20 48.0000000  0  5
E04        10.865          20.207          -3.075           0.162  
E13         2.582          90.833          -2.405           0.369  
E15        -1.349      320943.091       -2062.778          -0.155  
E21        -0.251           2.162          -0.712           0.217  
E27         1.885        -194.175           2.574           0.349
> 2025 01 07 14 20 49.0000000  0  5
E04         3.038          20.160          -2.788           0.562  
E13        -0.509          90.831          -0.020          -0.029  
E15         3.949      323007.865       -2067.958           0.226  
E21         2.072           2.157          -0.251          -0.023  
E27         9.167        -194.178           0.079          -0.220
> 2025 01 07 14 20 50.0000000  0  5
E04         2.261          20.186           0.605           0.114  
E13         1.537          90.832          -1.444          -0.370  
E15         3.485      325072.945       -2067.586          -0.073  
E21         3.368           2.175           0.044          -0.118  
E27         3.038        -194.188           5.719          -0.435
> 2025 01 07 14 20 51.0000000  0  5
E04         0.009          20.163           2.304           0.210  
E13         3.270          90.834          -1.005          -0.664  
E15         2.814      327139.197       -2067.636          -0.398  
E21         1.135           2.173          -0.037          -0.235  
E27        -2.591        -194.185           1.925          -0.163
> 2025 01 07 14 20 52.0000000  0  5
E04         1.331          20.154           2.181           0.312  
E13         2.948          90.836           1.132          -0.472  
E15        -0.161      329205.871       -2066.771          -0.377  
E21         2.422           2.160           0.463          -0.245  
E27         1.966        -194.173           2.870          -0.083
> 2025 01 07 14 20 53.0000000  0  5
E04         2.555          20.166           0.088           0.042  
E13         2.252          90.838           0.376          -0.322  
E15         1.715      331273.635       -2067.095          -0.495  
E21         3.297           2.171           0.048          -0.248  
E27         0.447        -194.185           1.199          -0.326
> 2025 01 07 14 20 54.0000000  0  5
E04         3.797          20.165           3.099           0.092  
E13        -0.527          90.822           0.359          -0.496  
E15         2.279      333341.638       -2064.486          -0.877  
E21        -0.554           2.160           1.824           0.372  
E27         5.789        -194.171           3.036          -0.004
> 2025 01 07 14 20 55.0000000  0  5
E04         4.950          20.182          -0.794           0.076  
E13        -1.224          90.823          -0.598          -0.565  
E15        -0.536      335411.393       -2066.829          -0.611  
E21         1.278           2.157           0.801          -0.122  
E27         6.755        -194.176           0.406          -0.135
> 2025 01 07 14 20 56.0000000  0  5
E04         4.888          20.165           0.657           0.014  
E13         0.304          90.843           0.303           0.016  
E15         5.405      337482.356       -2073.627          -0.339  
E21         1.313           2.172           0.573          -0.055  
E27         3.761        -194.165          -2.987           0.252
> 2025 01 07 14 20 57.0000000  0  5
E04         3.770          20.169           0.945           0.008  
E13         1.984          90.847          -0.866           0.278  
E15         1.697      339554.479       -2075.573          -0.046  
E21         0.732           2.171          -1.911          -0.342  
E27         3.565        -194.154          -1.815          -0.109
> 2025 01 07 14 20 58.0000000  0  5
E04        -4.155          20.169           0.279          -0.228  
E13        -1.376          90.862          -2.875           0.418  
E15         1.975      341626.873       -2074.277          -0.063  
E21        -0.304           2.166          -1.007          -0.369  
E27         1.582        -194.165           1.081          -0.202
> 2025 01 07 14 20 59.0000000  0  5
E04        -1.439          20.165           0.233          -0.100  
E13         4.333          90.831          -1.461           0.575  
E15         1.831      343700.856       -2074.569          -0.117  
E21         2.904           2.175          -0.601          -0.604  
E27         2.082        -194.175           3.300           0.200
> 2025 01 07 14 21  0.0000000  0  5
E04         2.448          20.169          -1.539           0.354  
E13         2.126          90.829           2.324           0.132  
E15         1.251      345775.590       -2078.537          -0.416  
E21         1.161           2.173          -2.107          -0.151  
E27         1.108        -194.164          -1.455           0.296
> 2025 01 07 14 21  1.0000000  0  5
E04         4.664          20.173          -0.532          -0.094  
E13         2.055          90.838          -0.925          -0.001  
E15        -1.411      347852.105       -2075.977           0.057  
E21        -0.518           2.158          -1.940          -0.237  
E27        -0.723        -194.164           2.976          -0.037
> 2025 01 07 14 21  2.0000000  0  5
E04        -2.663          20.162           2.186           0.066  
E13         2.189          90.838          -0.294           0.287  
E15        -0.760      349929.390       -2075.724           0.161  
E21         4.511           2.164          -0.093           0.026  
E27        -0.616        -194.156          -2.515           0.244
> 2025 01 07 14 21  3.0000000  0  5
E04         0.938          20.166          -0.207           0.131  
E13         1.429          90.847          -0.236           0.144  
E15        -3.600      352007.680       -2082.087           0.072  
E21         4.110           2.152           2.665          -0.083  
E27         2.716        -194.164          -0.004          -0.136
> 2025 01 07 14 21  4.0000000  0  5
E04         1.662          20.162          -2.108          -0.196  
E13         6.674          90.846          -0.915          -0.014  
E15        -4.941      354086.763       -2080.603           0.077  
E21         3.538           2.175           0.790           0.102  
E27        -3.958        -194.145          -1.228          -0.138
> 2025 01 07 14 21  5.0000000  0  5
E04        -2.081          20.157           0.280          -0.142  
E13         5.986          90.835           1.497          -0.131  
E15        -1.930      356166.793       -2080.973           0.064  
E21         2.591           2.167           1.015          -0.260  
E27         2.198        -194.169          -2.708          -0.063
> 2025 01 07 14 21  6.0000000  0  5
E04        -2.591          20.160           0.200          -0.001  
E13         1.331          90.840          -1.370          -0.103  
E15        -4.003      358247.778       -2078.597          -0.065  
E21         4.029           2.155           0.368          -0.330  
E27         1.117        -194.167          -1.006           0.076
> 2025 01 07 14 21  7.0000000  0  5
E04         0.617          20.174           0.616           0.361  
E13         2.672          90.838          -0.726          -0.602  
E15        -0.652      360329.779       -2086.603          -0.473  
E21         0.527           2.169           0.379          -0.410  
E27         2.144        -194.178          -1.777           0.222
> 2025 01 07 14 21  8.0000000  0  5
E04         5.646          20.164          -0.490          -0.275  
E13         3.467          90.829          -2.400          -0.206  
E15        -1.867      362412.815       -2082.342          -0.579  
E21         2.189           2.172           0.906          -0.221  
E27         3.859        -194.150          -2.214          -0.351
> 2025 01 07 14 21  9.0000000  0  5
E04         1.233          20.152          -1.007          -0.477  
E13         2.573          90.832           2.233           0.217  
E15         1.572      364497.967       -2084.908          -0.976  
E21         0.867           2.167           0.609          -0.314  
E27        -0.009        -194.167           4.699          -0.093
> 2025 01 07 14 21 10.0000000  0  5
E04         2.779          20.152           0.277          -0.347  
E13        -0.313          90.831          -1.139          -0.084  
E15         0.554      366583.761       -2086.259          -0.391  
E21         1.527           2.175           0.265          -0.047  
E27         3.583        -194.154          -4.337          -0.031
> 2025 01 07 14 21 11.0000000  0  5
E04        -1.144          20.175           1.149          -0.153  
E13        -0.750          90.836          -0.164           0.034  
E15        -0.090      368670.361       -2084.181          -0.125  
E21         3.413           2.155           0.400           0.206  
E27         1.716        -194.160           0.214          -0.291
> 2025 01 07 14 21 12.0000000  0  5
E04         5.084          20.165           1.456           0.045  
E13         4.440          90.823          -0.528           0.119  
E15         3.377      370757.819       -2087.894          -0.084  
E21         0.491           2.162          -1.443           0.165  
E27        -1.823        -194.171           1.870          -0.308
> 2025 01 07 14 21 13.0000000  0  5
E04         6.218          20.167          -0.671           0.117  
E13         0.376          90.819           1.207          -0.240  
E15         7.344      372846.653       -2087.314           0.110  
E21        -1.117           2.160          -0.888           0.068  
E27         5.504        -194.194           1.608          -0.069
> 2025 01 07 14 21 14.0000000  0  5
E04         2.859          20.167           0.816           0.300  
E13         1.438          90.822           2.075          -0.877  
E15         5.316      374936.348       -2084.881           0.270  
E21         3.047           2.174          -1.578           0.231  
E27         2.958        -194.174          -1.818          -0.070
> 2025 01 07 14 21 15.0000000  0  5
E04         1.313          20.164           0.029          -0.032  
E13        -1.743          90.853          -1.436          -0.438  
E15         2.940      377026.743       -2092.774           0.120  
E21        -2.126           2.149          -0.622           0.006  
E27         2.948        -194.152           0.387          -0.080
> 2025 01 07 14 21 16.0000000  0  5
E04         1.858          20.163          -3.500           0.330  
E13         0.107          90.845          -0.751          -0.903  
E15        -2.565      379117.965       -2091.978           0.046  
E21         1.170           2.156           1.528          -0.182  
E27         1.904        -194.164           1.811           0.018
> 2025 01 07 14 21 17.0000000  0  5
E04         6.370          20.162          -1.440           0.101  
E13         0.679          90.839           1.388          -0.375  
E15        -0.027      381210.366       -2093.549          -0.270  
E21         2.207           2.162           0.176          -0.331  
E27        -0.161        -194.185          -0.615           0.079
> 2025 01 07 14 21 18.0000000  0  5
E04        -3.350          20.158          -2.198          -0.267  
E13         0.840          90.835           1.756          -0.371  
E15         5.075      383303.784       -2094.039          -0.205  
E21         1.930           2.169           1.679          -0.139  
E27         2.538        -194.167           0.807           0.029
> 2025 01 07 14 21 19.0000000  0  5
E04         1.028          20.159          -2.570          -0.064  
E13         5.915          90.845           1.038           0.108  
E15         3.493      385397.731       -2089.723          -0.091  
E21         3.555           2.168           2.272           0.250  
E27         3.753        -194.178           1.542           0.185
> 2025 01 07 14 21 20.0000000  0  5
E04         1.724          20.158           1.501          -0.114  
E13         2.984          90.830           0.555          -0.053  
E15        -0.778      387493.036       -2096.058          -0.194  
E21         3.753           2.162          -0.542           0.468  
E27        -0.099        -194.150           0.862           0.312
> 2025 01 07 14 21 21.0000000  0  5
E04         6.817          20.160          -0.684           0.080  
E13         6.915          90.819          -0.157           0.089  
E15         0.143      389589.634       -2093.821          -0.232  
E21        -0.313           2.159           0.140           0.831  
E27         2.537        -194.174          -1.364           0.342
> 2025 01 07 14 21 22.0000000  0  5
E04         1.207          20.164          -1.575           0.612  
E13         4.039          90.840          -1.648           0.294  
E15         0.205      391688.029       -2097.964          -0.379  
E21         2.573           2.164          -0.742           0.670  
E27         1.474        -194.156          -2.699          -0.037
> 2025 01 07 14 21 23.0000000  0  5
E04        -1.876          20.161          -1.880           0.426  
E13         2.072          90.836           0.370           0.012  
E15         0.107      393787.040       -2097.695          -0.257  
E21         3.904           2.165          -1.243           0.520  
E27         3.368        -194.162          -2.919           0.233
> 2025 01 07 14 21 24.0000000  0  5
E04        -4.378          20.143          -0.508           0.531  
E13        -0.894          90.849           0.772          -0.301  
E15         1.403      395887.558       -2097.003          -0.647  
E21         1.536           2.163          -0.250           0.569  
E27         2.341        -194.163          -0.640           0.049
> 2025 01 07 14 21 25.0000000  0  5
E04         4.101          20.175          -0.415           0.504  
E13         3.949          90.828           1.039           0.012  
E15         1.841      397989.235       -2098.695          -0.495  
E21         2.529           2.169           0.093           0.710  
E27        -1.036        -194.152           0.915           0.206
> 2025 01 07 14 21 26.0000000  0  5
E04         2.225          20.157          -0.150           0.124  
E13         1.340          90.848          -2.067           0.364  
E15         2.019      400090.974       -2106.626          -0.260  
E21         1.260           2.164          -0.132           0.262  
E27         2.984        -194.179          -1.055           0.164
> 2025 01 07 14 21 27.0000000  0  5
E04         0.215          20.166          -0.376           0.102  
E13         2.127          90.840          -1.840           0.116  
E15        -5.057      402193.012       -2103.355          -0.140  
E21         1.179           2.162          -0.983           0.034  
E27         2.421        -194.158          -0.149           0.215
> 2025 01 07 14 21 28.0000000  0  5
E04         2.529          20.160           0.126           0.238  
E13         7.148          90.831           0.596           0.004  
E15         5.914      404296.047       -2108.623          -0.049  
E21         2.349           2.168           0.499           0.005  
E27        -0.661        -194.165           1.387           0.259
> 2025 01 07 14 21 29.0000000  0  5
E04         1.644          20.156           0.994           0.104  
E13        -0.778          90.847           1.783           0.372  
E15        -1.286      406401.907       -2108.168          -0.023  
E21         1.402           2.170          -0.270           0.092  
E27         1.055        -194.154          -0.433          -0.032
> 2025 01 07 14 21 30.0000000  0  5
E04         2.698          20.155           1.556          -0.195  
E13         4.467          90.826          -0.597           0.253  
E15        -0.545      408508.854       -2107.382           0.278  
E21        -1.474           2.145          -0.282          -0.016  
E27         2.386        -194.161           0.564          -0.419
> 2025 01 07 14 21 31.0000000  0  5
E04        -2.752          20.137          -2.206          -0.091  
E13        -2.332          90.843           1.914           0.121  
E15        -0.965      410616.077       -2107.469          -0.124  
E21         1.082           2.161          -0.791          -0.177  
E27         4.959        -194.151           0.885          -0.748
> 2025 01 07 14 21 32.0000000  0  5
E04        -0.608          20.164          -2.740          -0.227  
E13         2.207          90.839          -0.681           0.269  
E15         4.628      412722.987       -2106.870          -0.123  
E21         4.673           2.161          -1.074          -0.290  
E27        -0.304        -194.148          -1.533          -0.441
> 2025 01 07 14 21 33.0000000  0  5
E04         1.027          20.158          -0.131          -0.097  
E13         3.941          90.841          -0.092           0.179  
E15         3.503      414831.023       -2107.263          -0.240  
E21         1.849           2.156           1.120          -0.087  
E27         3.270        -194.164           0.614          -0.542
> 2025 01 07 14 21 34.0000000  0  5
E04         2.484          20.150           1.818          -0.611  
E13         1.314          90.842          -1.103          -0.035  
E15        -0.661      416940.741       -2109.343           0.096  
E21         0.429           2.162          -0.729          -0.035  
E27        -2.886        -194.146          -1.437          -0.407
> 2025 01 07 14 21 35.0000000  0  5
E04         4.494          20.146           0.285          -0.348  
E13         2.349          90.832           0.237           0.121  
E15        -1.974      419051.661       -2110.918           0.183  
E21         3.887           2.162           1.603          -0.081  
E27         2.850        -194.166          -0.863           0.084
> 2025 01 07 14 21 36.0000000  0  5
E04         1.376          20.151          -0.663          -0.083  
E13         0.500          90.843          -1.595          -0.248  
E15        -1.930      421162.669       -2113.322          -0.117  
E21         2.689           2.162          -2.068          -0.238  
E27         2.824        -194.159          -0.256          -0.406
> 2025 01 07 14 21 37.0000000  0  5
E04         2.216          20.165          -1.473           0.011  
E13         0.715          90.835          -0.543           0.440  
E15         3.628      423275.197       -2114.521          -0.015  
E21         2.278           2.157          -0.137          -0.291  
E27        -3.440        -194.149           0.796          -0.164
> 2025 01 07 14 21 38.0000000  0  5
E04         0.482          20.167           0.217           0.080  
E13         8.693          90.827          -0.478           0.254  
E15        10.480      425389.214       -2111.771           0.155  
E21        -1.313           2.156           0.385           0.204  
E27         2.573        -194.146          -3.243           0.580
> 2025 01 07 14 21 39.0000000  0  5
E04         8.265          20.178          -2.990          -0.052  
E13         2.376          90.840          -2.519           0.025  
E15         1.153      427503.815       -2114.082          -0.075  
E21         2.430           2.157           0.608          -0.110  
E27        -3.243        -194.151           0.522           0.028
> 2025 01 07 14 21 40.0000000  0  5
E04         3.842          20.173           1.500           0.014  
E13         8.890          90.825          -0.503           0.450  
E15        -0.358      429619.154       -2115.508          -0.137  
E21        -1.555           2.164           0.779          -0.215  
E27         3.931        -194.139          -1.393          -0.166
> 2025 01 07 14 21 41.0000000  0  5
E04         2.037          20.160           1.065          -0.188  
E13         1.358          90.840          -1.969           0.243  
E15         5.352      431736.360       -2117.451          -0.245  
E21         2.832           2.170          -2.405          -0.454  
E27        -2.287        -194.138          -1.328          -0.640
> 2025 01 07 14 21 42.0000000  0  5
E04        -1.402          20.165          -1.975          -0.130  
E13         4.914          90.833           0.618           0.325  
E15         4.226      433855.033       -2120.931          -0.416  
E21        -0.098           2.170          -0.428          -0.583  
E27         2.815        -194.160           1.722          -0.673
> 2025 01 07 14 21 43.0000000  0  5
E04         1.171          20.161           0.114          -0.173  
E13         1.920          90.853          -1.157           0.214  
E15         1.161      435974.051       -2122.537          -0.691  
E21         2.930           2.172          -0.498          -0.475  
E27         3.368        -194.172          -0.647          -0.505
> 2025 01 07 14 21 44.0000000  0  5
E04         4.655          20.164           1.128           0.129  
E13         5.074          90.834           0.327           0.099  
E15         1.867      438094.426       -2118.289          -0.683  
E21         1.465           2.150           0.533           0.052  
E27         4.834        -194.149           1.585          -0.206
> 2025 01 07 14 21 45.0000000  0  5
E04        -2.019          20.157          -1.900           0.247  
E13         0.867          90.848          -0.838          -0.654  
E15         0.580      440215.539       -2122.177          -0.155  
E21         1.823           2.163          -0.389           0.385  
E27         4.119        -194.161           1.466          -0.203
> 2025 01 07 14 21 46.0000000  0  5
E04         3.833          20.151          -0.383          -0.221  
E13         0.768          90.832           2.249          -0.488  
E15         6.969      442336.858       -2120.330          -0.079  
E21         0.714           2.162           0.575           0.451  
E27        -1.948        -194.140          -3.324          -0.121
> 2025 01 07 14 21 47.0000000  0  5
E04         5.092          20.155           1.514          -0.305  
E13         1.456          90.841          -1.770           0.076  
E15        -1.600      444459.481       -2117.874           0.094  
E21         2.234           2.168           0.385           0.407  
E27         6.165        -194.154           0.172          -0.040
> 2025 01 07 14 21 48.0000000  0  5
E04        -0.044          20.152           0.194          -0.120  
E13         2.627          90.851          -0.449           0.076  
E15         1.581      446583.107       -2124.237          -0.009  
E21         0.634           2.161          -0.420           0.289  
E27        -3.332        -194.167           1.535           0.082
> 2025 01 07 14 21 49.0000000  0  5
E04         2.501          20.175           0.459          -0.300  
E13        -0.312          90.824          -0.746           0.013  
E15         0.991      448707.310       -2122.827           0.311  
E21         2.957           2.161          -0.623          -0.303  
E27         6.657        -194.185           4.564           0.009
> 2025 01 07 14 21 50.0000000  0  5
E04         0.894          20.148          -1.686          -0.172  
E13         3.556          90.821           1.981           0.114  
E15        -0.277      450832.966       -2122.621           0.166  
E21         2.394           2.164          -0.876          -0.001  
E27         1.805        -194.164          -2.225           0.107
> 2025 01 07 14 21 51.0000000  0  5
E04         3.046          20.152           1.072           0.014  
E13        -1.081          90.853          -2.309           0.005  
E15         4.226      452959.871       -2127.310           0.399  
E21         2.931           2.155          -0.309           0.190  
E27         1.858        -194.181          -0.064           0.063
> 2025 01 07 14 21 52.0000000  0  5
E04         2.645          20.156           0.936           0.152  
E13         1.207          90.839           0.423           0.412  
E15        -2.163      455088.478       -2133.326          -0.050  
E21        -0.331           2.160           0.020          -0.265  
E27        -2.171        -194.155           0.564          -0.264
> 2025 01 07 14 21 53.0000000  0  5
E04         1.885          20.163          -0.548           0.262  
E13         6.343          90.819           1.339           0.413  
E15         1.304      457218.036       -2130.349          -0.144  
E21         2.189           2.154          -1.069          -0.429  
E27        -1.126        -194.144          -0.922          -0.081
> 2025 01 07 14 21 54.0000000  0  5
E04         0.000          20.176          -0.427          -0.034  
E13         0.044          90.845           1.753           0.314  
E15         1.527      459348.781       -2133.236           0.298  
E21         2.314           2.153           2.757          -0.238  
E27         2.582        -194.161           0.030          -0.133
> 2025 01 07 14 21 55.0000000  0  5
E04         5.406          20.167           1.134           0.031  
E13         4.119          90.833           2.590           0.449  
E15         5.906      461481.449       -2133.484           0.072  
E21         1.510           2.157          -1.313          -0.354  
E27        -1.045        -194.165           2.094          -0.371
> 2025 01 07 14 21 56.0000000  0  5
E04         4.744          20.168          -1.517          -0.288  
E13         1.027          90.850          -0.597           0.073  
E15         1.448      463614.321       -2131.134           0.429  
E21        -0.259           2.151           2.395          -0.496  
E27         5.861        -194.166           3.026          -0.266
> 2025 01 07 14 21 57.0000000  0  5
E04         2.135          20.152          -1.446          -0.186  
E13        -0.580          90.850           0.898           0.094  
E15         6.826      465748.309       -2134.823           0.283  
E21         1.188           2.140           0.226          -0.328  
E27         2.537        -194.166          -1.141          -0.145
> 2025 01 07 14 21 58.0000000  0  5
E04         0.331          20.166          -0.632          -0.043  
E13         0.187          90.834           0.308          -0.192  
E15         1.394      467882.824       -2133.584           0.209  
E21         0.009           2.169          -0.774          -0.091  
E27         0.169        -194.180           0.166          -0.290
> 2025 01 07 14 21 59.0000000  0  5
E04         5.227          20.181          -3.069          -0.081  
E13         3.619          90.856          -0.908          -0.559  
E15         4.878      470018.268       -2137.653           0.165  
E21         0.188           2.156          -0.683          -0.024  
E27        -2.948        -194.168          -0.978           0.201
