     3.02           OBSERVATION DATA    GAL                 RINEX VERSION / TYPE
G = GPS  R = GLONASS  E = GALILEO  S = GEO  M = MIXED       COMMENT
GALILEO OBSERVATION DATA FILE GENERATED BY GNSS-SDR         COMMENT
GNSS-SDR VERSION 0.0.19.git-main-87fcfd237                  COMMENT
See https://gnss-sdr.org                                    COMMENT
GNSS-SDR            jmfriedt            20250108 150151 UTC PGM / RUN BY / DATE
jmfriedt            CTTC                                    OBSERVER /AGENCY
DEFAULT MARKER NAME                                         MARKER NAME
        0.0000        0.0000        0.0000                  APPROX POSITION XYZ
Antenna number      Antenna type                            ANT # / TYPE
        0.0000        0.0000        0.0000                  ANTENNA: DELTA H/E/N
GNSS-SDR            Software Receiver   0.0.19.gi           REC # / TYPE / VERS
    18    18   137     7                                    LEAP SECONDS
  2025    01    08    14    20   55.16000000     GAL        TIME OF FIRST OBS
E    4 C1B L1B D1B S1B                                      SYS / # / OBS TYPES
                                                            END OF HEADER
> 2025 01 08 14 20 37.0000000  0  4
E02        -0.232         -16.355          -1.323          -0.619  
E07        -2.645       -3805.021        4521.578           0.765  
E30        -0.465          -9.362           1.067           0.095  
E34        -4.057         -10.350           0.030           0.140
> 2025 01 08 14 20 38.0000000  0  4
E02        -2.574         -16.357           1.544          -0.489  
E07        -2.197       -8327.210        4524.411           0.445  
E30         0.536          -9.356           1.149           0.414  
E34        -4.289         -10.347           1.355           0.188
> 2025 01 08 14 20 39.0000000  0  4
E02        -2.538         -16.350          -0.563          -0.353  
E07        -0.911      -12850.136        4522.406           0.621  
E30        -2.930          -9.346           1.340           0.611  
E34        -5.575         -10.336           2.197           0.097
> 2025 01 08 14 20 40.0000000  0  4
E02        -2.967         -16.374           0.165          -0.194  
E07         3.038      -17374.287        4524.768           0.576  
E30        -1.144          -9.367           0.525           0.448  
E34         2.305         -10.364          -1.016           0.583
> 2025 01 08 14 20 41.0000000  0  4
E02        -0.357         -16.358          -0.822           0.117  
E07         0.590      -21899.298        4524.550           0.927  
E30        -2.019          -9.348          -2.179           0.136  
E34        -0.089         -10.356           2.054           0.361
> 2025 01 08 14 20 42.0000000  0  4
E02        -3.627         -16.343          -0.118           0.155  
E07        -5.182      -26425.944        4529.082           0.607  
E30        -5.021          -9.350           1.738           0.237  
E34         0.393         -10.351          -0.297          -0.012
> 2025 01 08 14 20 43.0000000  0  4
E02         1.751         -16.338          -0.894           0.564  
E07        -2.109      -30953.077        4526.489           0.072  
E30        -0.626          -9.341          -0.614           0.083  
E34        -3.092         -10.343           1.718          -0.144
> 2025 01 08 14 20 44.0000000  0  4
E02        -3.342         -16.343           0.351          -0.055  
E07        -4.485      -35480.840        4527.589           0.179  
E30        -1.948          -9.342          -4.147          -0.126  
E34        -1.930         -10.343          -0.871          -0.178
> 2025 01 08 14 20 45.0000000  0  4
E02        -0.107         -16.350          -0.329           0.145  
E07         2.037      -40009.363        4528.778          -0.183  
E30         0.572          -9.352           2.615          -0.239  
E34        -2.163         -10.351           0.356          -0.177
> 2025 01 08 14 20 46.0000000  0  4
E02         0.250         -16.353          -0.596           0.195  
E07         2.788      -44538.463        4529.074          -0.367  
E30        -0.697          -9.348          -0.525          -0.287  
E34        -2.859         -10.342          -0.623           0.178
> 2025 01 08 14 20 47.0000000  0  4
E02        -0.661         -16.361           0.585           0.098  
E07        -3.234      -49068.730        4526.782          -0.637  
E30        -0.983          -9.355          -1.372          -0.221  
E34        -1.019         -10.367          -0.295          -0.032
> 2025 01 08 14 20 48.0000000  0  4
E02        -3.180         -16.354           0.012           0.331  
E07        -3.681      -53599.390        4530.998          -0.303  
E30        -2.483          -9.344          -1.325          -0.089  
E34        -3.770         -10.343           1.590          -0.285
> 2025 01 08 14 20 49.0000000  0  4
E02         2.055         -16.365          -1.476           0.070  
E07        -1.983      -58131.338        4533.953           0.089  
E30        -1.965          -9.363           2.052           0.056  
E34        -2.073         -10.363           0.367          -0.333
> 2025 01 08 14 20 50.0000000  0  4
E02        -2.341         -16.360           1.340           0.083  
E07        -1.143      -62665.375        4534.521           0.204  
E30        -6.540          -9.341           0.706           0.412  
E34         2.305         -10.357          -1.089          -0.264
> 2025 01 08 14 20 51.0000000  0  4
E02        -1.054         -16.357          -0.893           0.206  
E07        -3.234      -67199.170        4532.790           0.234  
E30        -0.072          -9.344           1.542           0.053  
E34        -3.323         -10.350           0.306          -0.251
> 2025 01 08 14 20 52.0000000  0  4
E02        -0.447         -16.354          -1.099          -0.117  
E07         0.840      -71733.475        4536.872           0.228  
E30        -1.841          -9.361           1.961          -0.193  
E34         1.769         -10.359          -0.316           0.098
> 2025 01 08 14 20 53.0000000  0  4
E02        -1.036         -16.348           0.107          -0.141  
E07        -0.125      -76269.028        4536.086           0.039  
E30        -1.698          -9.340          -0.506          -0.033  
E34        -3.110         -10.354          -0.510           0.001
> 2025 01 08 14 20 54.0000000  0  4
E02        -1.287         -16.358          -0.579          -0.306  
E07        -3.020      -80805.997        4538.217          -0.016  
E30        -1.555          -9.365           1.047           0.038  
E34        -4.825         -10.339           2.358          -0.118
> 2025 01 08 14 20 55.0000000  0  4
E02        -1.859         -16.361           0.206           0.011  
E07        -0.875      -85343.383        4538.766          -0.322  
E30         0.483          -9.367          -1.630           0.107  
E34        -3.020         -10.353          -0.200          -0.088
> 2025 01 08 14 20 56.0000000  0  4
E02        -1.769         -16.355          -0.175           0.434  
E07        -0.590      -89881.007        4538.365          -0.444  
E30        -5.825          -9.349           0.411           0.091  
E34         0.071         -10.370           1.091           0.107
> 2025 01 08 14 20 57.0000000  0  4
E02        -0.805         -16.345          -2.102           0.564  
E07        -4.682      -94419.307        4539.314          -0.102  
E30        -1.805          -9.355          -0.502           0.076  
E34        -5.146         -10.338           0.070           0.177
> 2025 01 08 14 20 58.0000000  0  4
E02         0.822         -16.367          -0.168           0.359  
E07         2.055      -98958.316        4536.390          -0.130  
E30        -4.164          -9.360           1.042          -0.221  
E34         0.500         -10.368          -2.638          -0.124
> 2025 01 08 14 20 59.0000000  0  4
E02        -2.394         -16.351          -0.204           0.453  
E07         0.518     -103497.801        4541.948           0.190  
E30        -2.215          -9.352          -0.241          -0.522  
E34         0.483         -10.348           0.581          -0.014
> 2025 01 08 14 21  0.0000000  0  4
E02        -4.181         -16.342          -1.722           0.257  
E07        -1.179     -108038.172        4540.134           0.450  
E30        -1.966          -9.345           1.019          -0.719  
E34        -4.396         -10.352          -0.610          -0.186
> 2025 01 08 14 21  1.0000000  0  4
E02        -0.018         -16.339           0.511           0.157  
E07         0.251     -112579.486        4542.241           0.335  
E30        -0.626          -9.347          -0.382          -0.410  
E34         0.590         -10.337           1.292          -0.003
> 2025 01 08 14 21  2.0000000  0  4
E02        -4.289         -16.346           0.325           0.022  
E07        -1.751     -117121.304        4540.739           0.600  
E30        -3.145          -9.337          -0.286          -0.399  
E34        -4.074         -10.341          -0.898           0.240
> 2025 01 08 14 21  3.0000000  0  4
E02        -1.072         -16.353          -0.763           0.434  
E07        -0.107     -121663.612        4542.716           0.316  
E30        -2.573          -9.346           1.903          -0.100  
E34        -3.234         -10.336          -0.358          -0.103
> 2025 01 08 14 21  4.0000000  0  4
E02         0.965         -16.375           0.362           0.493  
E07        -1.251     -126207.259        4544.115           0.059  
E30        -1.555          -9.361          -0.754           0.229  
E34         0.358         -10.374           0.947          -0.163
> 2025 01 08 14 21  5.0000000  0  4
E02         0.233         -16.345           0.470           0.367  
E07        -2.466     -130751.612        4543.382           0.548  
E30        -0.393          -9.346           2.233           0.374  
E34        -3.753         -10.337           1.175          -0.360
> 2025 01 08 14 21  6.0000000  0  4
E02        -1.805         -16.352          -1.110           0.267  
E07         0.018     -135296.481        4544.710           0.868  
E30        -1.304          -9.350           1.683           0.223  
E34        -2.824         -10.350           0.658          -0.300
> 2025 01 08 14 21  7.0000000  0  4
E02        -2.680         -16.342          -1.208           0.495  
E07         0.787     -139842.090        4547.376           0.446  
E30        -0.250          -9.344          -0.839          -0.222  
E34        -1.036         -10.338           0.001          -0.323
> 2025 01 08 14 21  8.0000000  0  4
E02        -3.753         -16.334          -1.010           0.547  
E07        -6.629     -144387.866        4547.939           0.446  
E30        -3.377          -9.353           1.899          -0.077  
E34        -4.539         -10.334          -1.139          -0.350
> 2025 01 08 14 21  9.0000000  0  4
E02         2.287         -16.356          -0.344           0.295  
E07        -3.180     -148934.385        4544.749           0.450  
E30        -0.429          -9.356           0.055          -0.276  
E34        -3.716         -10.350          -1.333          -0.258
> 2025 01 08 14 21 10.0000000  0  4
E02        -1.518         -16.362           0.314           0.254  
E07        -2.662     -153482.354        4546.185           0.320  
E30        -0.894          -9.365          -0.601           0.298  
E34         0.125         -10.359          -1.047          -0.221
> 2025 01 08 14 21 11.0000000  0  4
E02         0.286         -16.355          -0.343          -0.035  
E07        -0.786     -158031.095        4547.932           0.253  
E30        -0.339          -9.356          -0.353           0.203  
E34        -2.930         -10.340          -1.288          -0.459
> 2025 01 08 14 21 12.0000000  0  4
E02        -1.644         -16.364           0.300          -0.027  
E07        -3.485     -162580.753        4550.533           0.218  
E30        -1.698          -9.346          -1.160           0.345  
E34         0.929         -10.355           0.066           0.159
> 2025 01 08 14 21 13.0000000  0  4
E02        -1.734         -16.354          -0.688           0.031  
E07        -2.234     -167131.188        4551.274          -0.104  
E30        -3.663          -9.358           1.445           0.339  
E34        -3.931         -10.352          -0.427           0.354
> 2025 01 08 14 21 14.0000000  0  4
E02        -2.841         -16.359          -0.171          -0.040  
E07        -3.985     -171681.989        4551.000           0.322  
E30         0.500          -9.354           0.399           0.428  
E34        -0.071         -10.354           0.536           0.358
> 2025 01 08 14 21 15.0000000  0  4
E02        -3.324         -16.333          -1.037           0.029  
E07        -3.198     -176234.696        4553.893           0.220  
E30         0.072          -9.354           2.014          -0.132  
E34        -1.323         -10.358           1.993           0.776
> 2025 01 08 14 21 16.0000000  0  4
E02         2.038         -16.358          -0.450          -0.007  
E07        -0.947     -180788.635        4554.250          -0.067  
E30        -1.161          -9.348          -1.909          -0.319  
E34         1.770         -10.366          -1.154           0.140
> 2025 01 08 14 21 17.0000000  0  4
E02        -3.360         -16.329          -1.014           0.011  
E07        -2.073     -185342.335        4556.001          -0.002  
E30        -1.447          -9.342          -0.862          -0.134  
E34         0.053         -10.335           0.616           0.180
> 2025 01 08 14 21 18.0000000  0  4
E02         0.215         -16.355          -0.292          -0.021  
E07         1.930     -189896.342        4555.834           0.029  
E30        -3.591          -9.346           2.302          -0.282  
E34        -0.983         -10.345           0.473           0.341
> 2025 01 08 14 21 19.0000000  0  4
E02        -4.807         -16.344          -0.567          -0.065  
E07        -5.682     -194451.600        4552.638           0.368  
E30        -3.717          -9.341           1.671          -0.067  
E34        -1.733         -10.356           0.709           0.610
> 2025 01 08 14 21 20.0000000  0  4
E02        -2.055         -16.335          -1.077           0.169  
E07        -4.039     -199007.986        4556.110           0.397  
E30        -3.109          -9.348          -2.336          -0.137  
E34        -2.841         -10.353          -0.490           0.271
> 2025 01 08 14 21 21.0000000  0  4
E02        -0.769         -16.340           0.910          -0.497  
E07         0.590     -203564.727        4555.810           0.394  
E30        -0.947          -9.345          -1.804          -0.115  
E34        -3.110         -10.350          -1.494          -0.413
> 2025 01 08 14 21 22.0000000  0  4
E02        -2.341         -16.344          -1.532          -0.058  
E07        -1.018     -208122.560        4558.990           0.658  
E30        -0.375          -9.356           0.996          -0.047  
E34         1.305         -10.359          -0.204          -0.216
> 2025 01 08 14 21 23.0000000  0  4
E02        -0.625         -16.366           0.274          -0.279  
E07         2.412     -212681.983        4558.691          -0.229  
E30        -3.753          -9.348           0.574           0.682  
E34        -0.268         -10.362          -0.086           0.031
> 2025 01 08 14 21 24.0000000  0  4
E02        -1.751         -16.352           0.816           0.129  
E07         0.947     -217241.671        4561.359          -0.317  
E30        -1.411          -9.350          -0.271           0.365  
E34         1.465         -10.357           0.841           0.076
> 2025 01 08 14 21 25.0000000  0  4
E02        -1.073         -16.360           0.092           0.157  
E07        -5.003     -221801.798        4560.951          -0.345  
E30        -1.037          -9.356          -0.346          -1.376  
E34        -0.822         -10.350           0.174           0.007
> 2025 01 08 14 21 26.0000000  0  4
E02        -4.413         -16.332          -1.025           0.633  
E07        -2.788     -226362.821        4560.044          -0.103  
E30        -1.573          -9.348          -0.144          -0.697  
E34        -1.966         -10.353          -0.806           0.236
> 2025 01 08 14 21 27.0000000  0  4
E02         1.179         -16.357           1.042           0.672  
E07        -1.858     -230924.622        4561.872           0.225  
E30        -3.842          -9.346          -2.227          -0.411  
E34        -2.537         -10.354           0.662           0.676
> 2025 01 08 14 21 28.0000000  0  4
E02        -1.412         -16.351           1.630           0.146  
E07        -3.717     -235487.273        4561.916           0.513  
E30        -2.752          -9.349          -0.318          -0.279  
E34        -4.503         -10.349           2.236           0.557
> 2025 01 08 14 21 29.0000000  0  4
E02        -1.929         -16.353           0.603           0.275  
E07        -4.271     -240051.383        4563.939           0.496  
E30        -0.644          -9.345          -0.150           0.084  
E34        -3.610         -10.343          -0.174           0.200
> 2025 01 08 14 21 30.0000000  0  4
E02        -5.629         -16.349           1.003           0.179  
E07        -2.091     -244616.273        4564.127           0.138  
E30        -2.859          -9.346          -2.016           0.201  
E34        -5.200         -10.349           2.416           0.252
> 2025 01 08 14 21 31.0000000  0  4
E02        -0.160         -16.343           0.279           0.150  
E07        -2.501     -249181.472        4565.743           0.132  
E30        -3.252          -9.339           2.091           0.051  
E34        -0.536         -10.352          -0.594          -0.051
> 2025 01 08 14 21 32.0000000  0  4
E02        -1.430         -16.356          -0.066           0.186  
E07        -4.985     -253747.058        4565.798          -0.070  
E30        -2.305          -9.353          -0.909           0.239  
E34         1.358         -10.345          -0.399          -0.169
> 2025 01 08 14 21 33.0000000  0  4
E02        -0.768         -16.365          -0.161           0.164  
E07         1.179     -258313.463        4567.798           0.023  
E30        -0.214          -9.376           0.001           0.147  
E34        -3.074         -10.357          -0.847          -0.164
> 2025 01 08 14 21 34.0000000  0  4
E02         1.679         -16.371           0.598           0.292  
E07         0.536     -262880.200        4567.789          -0.138  
E30        -0.912          -9.362           1.320           0.074  
E34        -2.376         -10.356          -0.834          -0.006
> 2025 01 08 14 21 35.0000000  0  4
E02        -3.288         -16.357          -0.934           0.074  
E07        -3.038     -267447.403        4570.678           0.214  
E30         0.447          -9.360          -0.916           0.217  
E34         0.840         -10.370          -0.050           0.264
> 2025 01 08 14 21 36.0000000  0  4
E02         0.286         -16.355          -0.510           0.396  
E07        -0.072     -272015.871        4570.381          -0.055  
E30        -2.626          -9.347          -0.114           0.132  
E34        -0.929         -10.351           0.584           0.246
> 2025 01 08 14 21 37.0000000  0  4
E02        -1.412         -16.362          -1.244           0.410  
E07        -2.769     -276585.785        4570.271           0.020  
E30        -1.573          -9.362          -2.075           0.086  
E34        -0.232         -10.355          -0.362           0.152
> 2025 01 08 14 21 38.0000000  0  4
E02        -1.090         -16.338          -1.032           0.364  
E07        -3.180     -281155.947        4573.701          -0.292  
E30        -1.161          -9.359           2.507          -0.239  
E34        -2.197         -10.351          -1.003          -0.084
> 2025 01 08 14 21 39.0000000  0  4
E02        -4.128         -16.349          -0.420           0.415  
E07        -2.180     -285726.781        4570.253          -0.320  
E30        -0.197          -9.348           1.291           0.049  
E34        -0.840         -10.341          -0.252          -0.063
> 2025 01 08 14 21 40.0000000  0  4
E02        -0.286         -16.352          -0.196          -0.156  
E07        -4.610     -290296.955        4570.642          -0.349  
E30        -1.698          -9.358           0.923           0.039  
E34        -2.716         -10.358           0.849           0.410
> 2025 01 08 14 21 41.0000000  0  4
E02        -2.787         -16.350           1.043          -0.159  
E07        -2.377     -294870.015        4577.418          -0.361  
E30        -3.127          -9.348          -1.494          -0.231  
E34        -2.162         -10.336          -0.627           0.294
> 2025 01 08 14 21 42.0000000  0  4
E02        -1.305         -16.343           0.578          -0.116  
E07         0.447     -299446.039        4571.786          -0.312  
E30        -2.305          -9.346           0.845           0.148  
E34        -1.126         -10.335           0.204           0.549
> 2025 01 08 14 21 43.0000000  0  4
E02        -3.270         -16.354           0.587          -0.020  
E07        -2.752     -304020.925        4573.629          -0.234  
E30        -1.840          -9.354          -0.391           0.386  
E34        -0.322         -10.368           0.188          -0.097
> 2025 01 08 14 21 44.0000000  0  4
E02        -1.858         -16.362           0.523           0.051  
E07        -3.967     -308592.881        4569.923           0.047  
E30        -1.894          -9.358          -1.487           0.360  
E34        -3.234         -10.331          -1.040          -0.092
> 2025 01 08 14 21 45.0000000  0  4
E02        -1.644         -16.360           0.587           0.322  
E07        -0.376     -313167.637        4579.701           0.062  
E30        -1.912          -9.344          -1.438          -0.154  
E34         1.018         -10.358          -0.214          -0.117
> 2025 01 08 14 21 46.0000000  0  4
E02        -1.787         -16.349           0.726           0.659  
E07        -1.877     -317742.087        4572.112           0.312  
E30        -1.680          -9.339          -1.136          -0.152  
E34        -0.339         -10.369          -0.118          -0.168
> 2025 01 08 14 21 47.0000000  0  4
E02        -2.573         -16.354           0.836           0.599  
E07        -2.555     -322318.206        4576.609           0.037  
E30        -1.608          -9.352          -0.214          -0.291  
E34        -2.591         -10.347           0.305          -0.017
> 2025 01 08 14 21 48.0000000  0  4
E02        -3.395         -16.342           0.829           0.653  
E07        -0.089     -326897.384        4582.260           0.122  
E30        -1.859          -9.344           0.320          -0.386  
E34        -5.129         -10.341          -0.715           0.282
> 2025 01 08 14 21 49.0000000  0  4
E02        -0.929         -16.362           0.514           0.159  
E07        -4.806     -331476.254        4577.799           0.556  
E30        -0.786          -9.344          -0.481          -0.289  
E34        -0.822         -10.356           1.261           0.255
> 2025 01 08 14 21 50.0000000  0  4
E02        -3.074         -16.356           1.151           0.111  
E07        -0.143     -336049.563        4574.738           0.635  
E30        -0.965          -9.352           1.732          -0.120  
E34        -3.163         -10.345          -0.131           0.244
> 2025 01 08 14 21 51.0000000  0  4
E02        -3.466         -16.347          -1.119          -0.010  
E07         0.000     -340626.182        4579.046           0.571  
E30        -3.270          -9.339          -3.111          -0.135  
E34        -2.645         -10.342           1.015           0.038
> 2025 01 08 14 21 52.0000000  0  4
E02        -2.412         -16.348           0.107           0.302  
E07        -0.911     -345204.669        4577.631           0.592  
E30        -2.859          -9.339          -3.257          -0.209  
E34         1.894         -10.350          -0.470           0.155
> 2025 01 08 14 21 53.0000000  0  4
E02        -3.967         -16.344           0.061          -0.242  
E07        -1.626     -349783.937        4577.732           0.579  
E30        -0.875          -9.350           2.675           0.090  
E34         0.804         -10.355          -0.402           0.200
> 2025 01 08 14 21 54.0000000  0  4
E02        -2.609         -16.359          -0.143          -0.246  
E07        -1.662     -354364.014        4583.132           0.596  
E30        -1.197          -9.346           1.226          -0.277  
E34        -0.930         -10.345          -1.036          -0.034
> 2025 01 08 14 21 55.0000000  0  4
E02        -0.179         -16.338          -1.619          -0.095  
E07        -1.894     -358945.092        4582.428           0.771  
E30        -2.931          -9.348           1.166          -0.366  
E34         1.251         -10.345           1.048           0.214
> 2025 01 08 14 21 56.0000000  0  4
E02        -3.109         -16.342          -0.511          -0.163  
E07        -1.840     -363526.327        4586.136           0.686  
E30        -1.268          -9.356          -0.094          -0.198  
E34        -2.752         -10.354          -0.093           0.396
> 2025 01 08 14 21 57.0000000  0  4
E02        -0.804         -16.353           0.188          -0.013  
E07        -2.806     -368110.062        4584.040           0.499  
E30         0.929          -9.353           0.606          -0.221  
E34        -2.395         -10.340          -0.722           0.432
> 2025 01 08 14 21 58.0000000  0  4
E02        -2.716         -16.339          -1.082          -0.091  
E07         0.626     -372693.928        4583.324           0.137  
E30        -2.895          -9.344          -2.329          -0.199  
E34        -2.805         -10.329          -2.974           0.232
> 2025 01 08 14 21 59.0000000  0  4
E02        -0.304         -16.346          -0.567          -0.135  
E07        -2.144     -377277.884        4582.724          -0.006  
E30        -0.590          -9.351           0.642          -0.216  
E34        -3.574         -10.336           1.516           0.488
> 2025 01 08 14 22  0.0000000  0  4
E02        -4.307         -16.347           0.613          -0.015  
E07         0.286     -381862.985        4584.754           0.223  
E30        -1.036          -9.350           0.220          -0.121  
E34        -3.574         -10.334          -1.846           0.334
> 2025 01 08 14 22  1.0000000  0  4
E02        -1.984         -16.349          -1.081          -0.473  
E07        -6.666     -386448.448        4582.733          -0.163  
E30         0.018          -9.351          -2.008          -0.232  
E34        -8.148         -10.339           0.840           0.174
> 2025 01 08 14 22  2.0000000  0  4
E02        -1.608         -16.362           1.409          -0.212  
E07        -4.199     -391034.062        4586.704          -0.289  
E30         2.216          -9.368           1.879           0.052  
E34        -3.037         -10.356          -2.091           0.166
> 2025 01 08 14 22  3.0000000  0  4
E02        -0.178         -16.349          -1.264          -0.295  
E07         0.304     -395620.526        4586.729          -0.275  
E30        -3.681          -9.351           2.576           0.340  
E34         1.055         -10.353           0.853          -0.224
> 2025 01 08 14 22  4.0000000  0  4
E02        -3.288         -16.342          -2.231          -0.044  
E07        -2.358     -400208.211        4592.390          -0.258  
E30        -2.037          -9.365           1.731           0.041  
E34        -0.965         -10.348          -0.797          -0.057
> 2025 01 08 14 22  5.0000000  0  4
E02        -4.521         -16.356           0.748          -0.095  
E07        -1.769     -404796.647        4589.346          -0.319  
E30        -1.000          -9.354          -0.167          -0.006  
E34        -3.127         -10.352           0.002           0.041
> 2025 01 08 14 22  6.0000000  0  4
E02        -0.017         -16.350          -0.337           0.081  
E07        -0.822     -409384.702        4585.599           0.018  
E30         0.804          -9.344          -2.599           0.068  
E34         0.375         -10.356           0.073           0.100
> 2025 01 08 14 22  7.0000000  0  4
E02        -4.699         -16.346          -0.404          -0.084  
E07        -3.431     -413973.398        4587.239           0.054  
E30        -3.663          -9.342          -0.286          -0.044  
E34        -1.733         -10.349           0.375          -0.015
> 2025 01 08 14 22  8.0000000  0  4
E02        -2.448         -16.349           0.432           0.067  
E07        -0.840     -418562.430        4590.151          -0.135  
E30        -3.431          -9.354           2.600           0.007  
E34        -0.214         -10.363           0.559          -0.247
> 2025 01 08 14 22  9.0000000  0  4
E02         1.555         -16.361           0.094           0.324  
E07        -1.929     -423151.728        4590.083          -0.154  
E30        -0.411          -9.353          -0.048           0.015  
E34        -2.001         -10.362          -0.957           0.203
> 2025 01 08 14 22 10.0000000  0  4
E02        -2.394         -16.343          -0.847          -0.053  
E07        -2.019     -427741.102        4589.355          -0.010  
E30        -2.680          -9.350          -2.414          -0.215  
E34        -0.375         -10.352          -1.262           0.380
> 2025 01 08 14 22 11.0000000  0  4
E02        -5.861         -16.341           0.138           0.171  
E07        -1.858     -432331.917        4594.246           0.070  
E30        -1.198          -9.345          -0.373           0.139  
E34        -2.269         -10.345          -0.708           0.347
> 2025 01 08 14 22 12.0000000  0  4
E02        -1.626         -16.354          -0.522          -0.170  
E07        -0.500     -436924.847        4593.316           0.223  
E30        -0.876          -9.356           0.994           0.008  
E34        -0.125         -10.358          -0.393           0.036
> 2025 01 08 14 22 13.0000000  0  4
E02        -6.558         -16.327          -3.698          -0.423  
E07        -3.770     -441520.016        4594.564           0.365  
E30        -2.377          -9.358           0.699           0.086  
E34        -2.716         -10.367          -0.447           0.037
> 2025 01 08 14 22 14.0000000  0  4
E02        -1.090         -16.363           0.897          -0.082  
E07        -1.608     -446116.070        4595.248           0.619  
E30        -3.091          -9.357           1.007           0.266  
E34        -3.395         -10.335          -1.003           0.329
> 2025 01 08 14 22 15.0000000  0  4
E02        -2.573         -16.357           1.289           0.247  
E07        -0.304     -450712.595        4598.051           0.435  
E30        -0.822          -9.353           0.118           0.086  
E34        -3.503         -10.340          -0.306           0.233
> 2025 01 08 14 22 16.0000000  0  4
E02        -0.322         -16.368           0.836          -0.020  
E07         0.965     -455308.701        4594.430           0.327  
E30        -0.787          -9.362           2.529          -0.186  
E34        -1.340         -10.353           0.972          -0.082
> 2025 01 08 14 22 17.0000000  0  4
E02         1.859         -16.351           0.157           0.011  
E07        -2.305     -459905.257        4596.724           0.248  
E30        -3.163          -9.348          -1.547          -0.111  
E34        -2.180         -10.339          -0.640           0.038
> 2025 01 08 14 22 18.0000000  0  4
E02        -3.806         -16.334          -1.360           0.110  
E07        -5.861     -464502.976        4595.154          -0.074  
E30        -2.519          -9.355           0.795          -0.039  
E34        -2.020         -10.335          -1.351          -0.081
> 2025 01 08 14 22 19.0000000  0  4
E02         1.037         -16.363           0.345           0.396  
E07        -2.788     -469101.715        4599.141          -0.212  
E30        -0.875          -9.354           2.004           0.001  
E34        -2.126         -10.349           0.331          -0.203
> 2025 01 08 14 22 20.0000000  0  4
E02        -1.590         -16.358          -0.596           0.455  
E07        -1.447     -473701.374        4599.135           0.076  
E30        -2.073          -9.355          -1.421           0.169  
E34        -2.413         -10.366           0.311           0.246
> 2025 01 08 14 22 21.0000000  0  4
E02        -0.018         -16.365          -0.228           0.213  
E07        -2.859     -478302.050        4600.906           0.177  
E30        -2.251          -9.354           0.240           0.173  
E34         0.232         -10.358          -0.257           0.259
> 2025 01 08 14 22 22.0000000  0  4
E02        -4.271         -16.344          -1.580          -0.264  
E07        -2.323     -482903.656        4602.188           0.327  
E30        -2.072          -9.351          -0.973           0.032  
E34        -2.555         -10.362           0.941           0.282
> 2025 01 08 14 22 23.0000000  0  4
E02        -0.590         -16.359          -0.664           0.011  
E07        -3.878     -487506.647        4599.826           0.433  
E30        -1.661          -9.356          -0.981          -0.012  
E34        -0.571         -10.346          -0.481           0.103
> 2025 01 08 14 22 24.0000000  0  4
E02         2.877         -16.356          -0.215           0.393  
E07        -0.626     -492110.515        4604.717           0.580  
E30        -1.287          -9.346          -0.543          -0.151  
E34        -2.501         -10.342           1.765           0.155
> 2025 01 08 14 22 25.0000000  0  4
E02        -3.252         -16.348          -1.467           0.487  
E07        -1.501     -496714.954        4603.968           0.475  
E30        -0.947          -9.357          -1.343           0.254  
E34        -1.215         -10.344           0.079          -0.212
> 2025 01 08 14 22 26.0000000  0  4
E02        -1.483         -16.352          -0.291           0.202  
E07        -1.680     -501320.062        4605.813           0.188  
E30        -2.126          -9.346          -1.273           0.250  
E34        -1.161         -10.350          -0.701           0.062
> 2025 01 08 14 22 27.0000000  0  4
E02        -0.536         -16.360          -2.131           0.181  
E07        -2.002     -505925.791        4603.223           0.006  
E30        -1.108          -9.363          -0.496          -0.118  
E34        -2.788         -10.357          -0.308           0.471
> 2025 01 08 14 22 28.0000000  0  4
E02         0.519         -16.353          -0.493           0.154  
E07         0.500     -510531.762        4605.459           0.341  
E30         0.822          -9.365           0.343          -0.157  
E34        -3.841         -10.364           0.416           0.487
> 2025 01 08 14 22 29.0000000  0  4
E02        -0.232         -16.347          -0.638           0.190  
E07        -3.896     -515138.029        4609.289           0.384  
E30        -2.966          -9.336           0.998          -0.047  
E34        -0.625         -10.357          -0.277           0.164
> 2025 01 08 14 22 30.0000000  0  4
E02        -2.555         -16.335           0.717           0.111  
E07        -2.734     -519745.694        4606.180           0.179  
E30        -2.001          -9.341          -1.877           0.529  
E34        -6.165         -10.325          -0.380           0.240
> 2025 01 08 14 22 31.0000000  0  4
E02        -1.983         -16.357           1.122           0.058  
E07        -1.751     -524354.294        4609.770           0.168  
E30        -1.787          -9.353           1.476           0.420  
E34        -2.841         -10.349           0.222          -0.019
> 2025 01 08 14 22 32.0000000  0  4
E02         0.143         -16.336          -0.785           0.297  
E07        -3.502     -528963.555        4609.494          -0.057  
E30        -3.681          -9.342          -1.884           0.259  
E34        -0.321         -10.353           0.256           0.141
> 2025 01 08 14 22 33.0000000  0  4
E02         0.501         -16.354           1.750           0.492  
E07        -4.986     -533573.644        4607.095           0.360  
E30        -0.571          -9.348           2.288           0.099  
E34        -0.429         -10.346          -0.541          -0.015
> 2025 01 08 14 22 34.0000000  0  4
E02        -2.359         -16.357           0.346           0.280  
E07        -4.146     -538184.221        4609.831           0.248  
E30        -2.020          -9.350           1.929          -0.393  
E34         2.126         -10.343          -1.079           0.018
> 2025 01 08 14 22 35.0000000  0  4
E02        -2.269         -16.343          -2.140           0.398  
E07         1.590     -542795.565        4612.066           0.623  
E30        -2.734          -9.338          -0.921          -0.006  
E34         0.643         -10.354           0.816          -0.105
> 2025 01 08 14 22 36.0000000  0  4
E02        -1.126         -16.344          -0.033           0.383  
E07        -0.214     -547408.238        4614.249           0.325  
E30        -1.055          -9.352           2.001           0.154  
E34        -1.573         -10.338           0.217           0.008
> 2025 01 08 14 22 37.0000000  0  4
E02        -0.196         -16.366           0.196          -0.033  
E07        -5.218     -552021.685        4612.762           0.097  
E30        -2.895          -9.356           2.427          -0.053  
E34        -2.341         -10.358           1.068           0.134
> 2025 01 08 14 22 38.0000000  0  4
E02        -3.413         -16.347          -0.241          -0.053  
E07        -0.661     -556634.537        4614.519           0.128  
E30        -0.857          -9.356           1.838          -0.190  
E34        -1.769         -10.359          -0.426          -0.163
> 2025 01 08 14 22 39.0000000  0  4
E02        -0.876         -16.372           1.019           0.169  
E07        -0.732     -561248.710        4611.538           0.283  
E30        -3.806          -9.359          -1.461          -0.112  
E34        -2.877         -10.378           1.451           0.295
> 2025 01 08 14 22 40.0000000  0  4
E02        -2.376         -16.355           1.026          -0.372  
E07        -3.860     -565864.242        4618.308           0.391  
E30        -0.982          -9.352           0.413          -0.216  
E34        -0.733         -10.350          -2.085          -0.236
> 2025 01 08 14 22 41.0000000  0  4
E02        -1.965         -16.360          -0.366          -0.358  
E07         3.181     -570480.940        4617.249           0.419  
E30        -1.555          -9.365           1.656          -0.202  
E34         2.966         -10.374           0.411           0.006
> 2025 01 08 14 22 42.0000000  0  4
E02        -1.858         -16.350          -0.124          -0.135  
E07        -2.859     -575097.024        4614.285           0.457  
E30        -2.591          -9.344          -2.397          -0.373  
E34        -1.126         -10.352           0.989          -0.398
> 2025 01 08 14 22 43.0000000  0  4
E02        -4.235         -16.351          -0.272           0.096  
E07         1.162     -579713.256        4617.486           0.284  
E30        -2.394          -9.352          -1.678          -0.582  
E34        -4.949         -10.356           1.048          -0.566
> 2025 01 08 14 22 44.0000000  0  4
E02         1.555         -16.373           1.039          -0.093  
E07         0.340     -584331.703        4618.684          -0.272  
E30        -2.198          -9.355           1.907          -0.283  
E34        -0.393         -10.358          -0.706          -0.139
> 2025 01 08 14 22 45.0000000  0  4
E02        -2.627         -16.358          -0.198          -0.163  
E07        -1.859     -588950.012        4617.775          -0.375  
E30        -0.929          -9.362          -0.717           0.056  
E34        -2.681         -10.365          -0.285          -0.119
> 2025 01 08 14 22 46.0000000  0  4
E02        -2.913         -16.357           0.051          -0.118  
E07        -5.111     -593569.426        4619.895           0.087  
E30        -0.536          -9.344          -0.635           0.321  
E34        -3.663         -10.355           0.599          -0.313
> 2025 01 08 14 22 47.0000000  0  4
E02        -1.680         -16.357          -0.355          -0.159  
E07        -1.662     -598190.138        4619.605           0.319  
E30        -2.716          -9.354           2.099           0.316  
E34        -1.787         -10.354          -1.195          -0.030
> 2025 01 08 14 22 48.0000000  0  4
E02        -4.378         -16.358           0.580          -0.493  
E07         0.089     -602811.713        4623.225           0.625  
E30        -3.806          -9.348          -2.180           0.249  
E34        -2.876         -10.358          -0.188          -0.004
> 2025 01 08 14 22 49.0000000  0  4
E02        -2.537         -16.355          -1.959          -0.007  
E07        -2.984     -607433.426        4622.635           0.485  
E30        -1.125          -9.352          -2.648           0.521  
E34        -0.179         -10.360           0.285           0.034
> 2025 01 08 14 22 50.0000000  0  4
E02         0.071         -16.361           1.443          -0.199  
E07        -2.752     -612057.237        4626.824           0.546  
E30        -0.322          -9.345          -2.301           0.519  
E34        -2.538         -10.349           2.352          -0.186
> 2025 01 08 14 22 51.0000000  0  4
E02        -5.093         -16.347           0.455          -0.525  
E07        -1.483     -616681.303        4626.692           0.709  
E30        -1.018          -9.355          -1.456           0.426  
E34        -2.448         -10.355          -1.832           0.260
> 2025 01 08 14 22 52.0000000  0  4
E02         0.072         -16.351          -0.685          -0.264  
E07        -4.521     -621305.766        4622.571           0.573  
E30        -3.716          -9.349          -0.682           0.185  
E34        -2.877         -10.359           1.256           0.264
> 2025 01 08 14 22 53.0000000  0  4
E02        -2.895         -16.343           0.434          -0.145  
E07        -0.893     -625930.574        4622.794           0.550  
E30        -2.305          -9.352           1.364           0.277  
E34         2.341         -10.364           1.097           0.399
> 2025 01 08 14 22 54.0000000  0  4
E02         1.215         -16.361           0.861          -0.296  
E07        -1.787     -630556.020        4626.289           0.927  
E30        -0.572          -9.360          -2.128           0.257  
E34        -3.431         -10.356           0.847           0.378
> 2025 01 08 14 22 55.0000000  0  4
E02        -1.804         -16.361           0.072           0.178  
E07        -3.914     -635182.020        4627.778           0.756  
E30        -3.181          -9.359          -1.013           0.267  
E34        -0.250         -10.351           0.230           0.384
> 2025 01 08 14 22 56.0000000  0  4
E02        -4.503         -16.352           1.254           0.458  
E07        -1.233     -639808.793        4626.832           0.337  
E30        -2.448          -9.352          -0.368          -0.412  
E34        -4.682         -10.341           0.571           0.050
> 2025 01 08 14 22 57.0000000  0  4
E02        -1.912         -16.358           1.362           0.184  
E07        -4.985     -644436.189        4623.969          -0.080  
E30        -2.537          -9.347          -3.568          -0.201  
E34        -0.071         -10.355          -0.436           0.479
> 2025 01 08 14 22 58.0000000  0  4
E02        -0.286         -16.367           0.110          -0.133  
E07        -1.609     -649063.650        4627.160           0.160  
E30        -1.323          -9.360           1.221          -0.515  
E34        -2.841         -10.346           1.097           0.470
> 2025 01 08 14 22 59.0000000  0  4
E02        -3.038         -16.354          -0.782           0.337  
E07        -1.680     -653691.597        4628.363           0.046  
E30        -3.842          -9.361           1.266          -0.234  
E34         1.090         -10.369           0.559           0.487
> 2025 01 08 14 23  0.0000000  0  4
E02        -1.930         -16.341           1.256           0.161  
E07        -6.808     -658321.915        4634.827          -0.252  
E30        -0.965          -9.362          -0.193          -0.049  
E34        -1.036         -10.364           0.822           0.408
> 2025 01 08 14 23  1.0000000  0  4
E02        -3.895         -16.362           1.117          -0.289  
E07        -6.022     -662952.428        4627.157          -0.167  
E30        -3.395          -9.349          -1.341           0.124  
E34        -5.522         -10.348          -0.193           0.758
> 2025 01 08 14 23  2.0000000  0  4
E02        -1.305         -16.356          -0.583           0.066  
E07        -3.663     -667583.260        4631.672          -0.173  
E30        -3.342          -9.366          -1.110           0.258  
E34        -1.608         -10.372           2.158           0.508
> 2025 01 08 14 23  3.0000000  0  4
E02        -2.251         -16.366           1.148          -0.260  
E07        -5.861     -672215.786        4635.220          -0.110  
E30        -1.501          -9.371           0.617           0.119  
E34         0.214         -10.367          -0.152           0.675
> 2025 01 08 14 23  4.0000000  0  4
E02        -3.449         -16.342          -0.282          -0.136  
E07        -2.930     -676848.428        4632.217          -0.367  
E30        -1.072          -9.358           0.262           0.074  
E34         0.607         -10.362           0.739           0.434
> 2025 01 08 14 23  5.0000000  0  4
E02        -3.020         -16.364           1.534           0.083  
E07        -2.448     -681481.134        4633.105          -0.227  
E30        -0.572          -9.355           1.320          -0.080  
E34        -1.519         -10.356          -0.471           0.441
> 2025 01 08 14 23  6.0000000  0  5
E02        -5.861         -16.348           0.440           0.022  
E07         1.072     -686114.939        4634.712          -0.183  
E29        -6.486      -78403.460         545.913           0.584  
E30        -3.074          -9.359           0.492          -0.277  
E34        -7.130         -10.342          -0.823           0.494
> 2025 01 08 14 23  7.0000000  0  5
E02         0.589         -16.348          -0.852          -0.377  
E07        -0.518     -690751.131        4634.985          -0.544  
E29         1.162      -78946.764         538.830           0.613  
E30        -2.930          -9.356           1.596          -0.160  
E34        -2.394         -10.344          -2.016           0.371
> 2025 01 08 14 23  8.0000000  0  5
E02        -1.966         -16.360          -0.669          -0.225  
E07        -4.431     -695386.843        4632.675          -0.066  
E29         0.357      -79490.344         542.779           0.982  
E30        -1.483          -9.363           2.146          -0.285  
E34        -0.429         -10.369          -0.719           0.592
> 2025 01 08 14 23  9.0000000  0  5
E02        -2.717         -16.350          -0.018           0.319  
E07         0.465     -700021.924        4634.657           0.593  
E29        -0.483      -80034.294         542.239           0.934  
E30        -2.395          -9.349           0.058          -0.058  
E34        -0.232         -10.362           1.399           0.122
> 2025 01 08 14 23 10.0000000  0  5
E02        -1.376         -16.356           0.350           0.237  
E07        -0.196     -704659.525        4638.566           0.579  
E29        -3.288      -80575.396         535.072           0.592  
E30        -1.519          -9.359           1.512           0.037  
E34         0.822         -10.362           0.319           0.160
> 2025 01 08 14 23 11.0000000  0  5
E02        -1.930         -16.343           0.106           0.214  
E07        -1.715     -709297.890        4638.700           0.607  
E29        -0.644      -81115.476         535.623           0.508  
E30         0.375          -9.364           1.311          -0.033  
E34        -3.324         -10.350          -0.498          -0.018
> 2025 01 08 14 23 12.0000000  0  5
E02        -1.162         -16.363           0.909           0.172  
E07        -2.448     -713937.612        4638.179           0.518  
E29        -2.037      -81653.915         544.634           0.561  
E30        -1.447          -9.367          -0.433          -0.458  
E34        -1.269         -10.366          -0.461          -0.003
> 2025 01 08 14 23 13.0000000  0  5
E02        -1.609         -16.361           1.026           0.017  
E07        -0.625     -718577.751        4640.280           0.307  
E29         1.251      -82191.617         537.850           0.874  
E30        -2.108          -9.352          -0.840          -0.168  
E34        -2.413         -10.342          -1.416           0.219
> 2025 01 08 14 23 14.0000000  0  5
E02        -2.609         -16.357          -0.559          -0.156  
E07         0.536     -723219.215        4642.570           0.490  
E29        -3.341      -82727.644         530.556           0.485  
E30        -0.858          -9.364           1.195          -0.436  
E34        -1.555         -10.358           1.428           0.301
> 2025 01 08 14 23 15.0000000  0  5
E02        -4.056         -16.331          -2.493           0.384  
E07        -7.738     -727861.505        4644.731           0.261  
E29         2.144      -83262.654         536.125           0.054  
E30        -2.931          -9.361           1.163          -0.209  
E34        -1.858         -10.342          -0.793           0.196
> 2025 01 08 14 23 16.0000000  0  5
E02         3.717         -16.372          -0.181          -0.340  
E07        -4.538     -732504.936        4647.546          -0.083  
E29        -5.504      -83796.163         533.882          -0.055  
E30        -2.752          -9.351           0.898          -0.311  
E34        -0.322         -10.372          -0.851           0.270
> 2025 01 08 14 23 17.0000000  0  5
E02        -4.109         -16.344           0.134          -0.159  
E07        -2.215     -737148.160        4639.984          -0.181  
E29         1.769      -84329.598         534.650           0.356  
E30        -2.609          -9.345          -1.205          -0.354  
E34        -0.375         -10.340          -0.640           0.571
> 2025 01 08 14 23 18.0000000  0  5
E02        -1.448         -16.363           1.328           0.282  
E07        -2.966     -741791.911        4643.797           0.056  
E29        -4.950      -84862.287         532.630           0.244  
E30        -2.323          -9.364           1.513          -0.328  
E34         0.232         -10.352           2.300           0.672
> 2025 01 08 14 23 19.0000000  0  5
E02        -2.538         -16.352          -0.329           0.044  
E07         3.109     -746436.352        4646.916           0.130  
E29         2.359      -85393.954         530.759           0.230  
E30        -1.644          -9.356           1.091          -0.042  
E34        -5.701         -10.349           1.713           0.598
> 2025 01 08 14 23 20.0000000  0  5
E02        -3.698         -16.358           0.311           0.406  
E07         0.893     -751080.358        4646.814           0.435  
E29        -0.661      -85925.761         532.043           0.018  
E30        -0.626          -9.346          -2.494           0.121  
E34         0.554         -10.358           0.893           0.236
> 2025 01 08 14 23 21.0000000  0  5
E02         0.894         -16.351          -0.252           0.194  
E07        -5.575     -755728.023        4646.510           0.651  
E29        -1.304      -86453.588         523.034           0.145  
E30        -4.431          -9.344          -1.175           0.044  
E34        -5.432         -10.333          -1.693          -0.039
> 2025 01 08 14 23 22.0000000  0  5
E02        -2.359         -16.357           0.717           0.277  
E07        -2.483     -760372.886        4641.118           0.623  
E29        -2.680      -86983.974         534.068           0.631  
E30        -3.056          -9.363           1.894          -0.097  
E34        -2.824         -10.356          -0.181          -0.464
> 2025 01 08 14 23 23.0000000  0  5
E02        -2.734         -16.354           1.176           0.088  
E07        -6.361     -765018.763        4646.654           0.221  
E29         2.020      -87513.034         529.256           0.513  
E30        -4.217          -9.346          -0.879          -0.099  
E34        -0.786         -10.353          -1.206           0.243
> 2025 01 08 14 23 24.0000000  0  5
E02        -0.375         -16.361          -0.013           0.134  
E07        -0.375     -769666.107        4648.962           0.179  
E29         0.107      -88040.343         524.650           0.222  
E30        -2.072          -9.353           0.113          -0.101  
E34        -0.947         -10.362          -0.065           0.115
> 2025 01 08 14 23 25.0000000  0  5
E02        -1.376         -16.348           0.552           0.207  
E07        -2.752     -774316.174        4648.438           0.239  
E29        -3.931      -88564.580         526.805           0.199  
E30        -2.394          -9.360          -1.378           0.113  
E34        -2.913         -10.351           1.461           0.251
> 2025 01 08 14 23 26.0000000  0  5
E02        -4.360         -16.359           0.112           0.271  
E07        -6.147     -778966.294        4650.009           0.193  
E29        -3.163      -89088.584         524.750          -0.060  
E30        -2.895          -9.353          -0.598          -0.041  
E34         2.234         -10.363           0.315           0.043
> 2025 01 08 14 23 27.0000000  0  5
E02        -1.805         -16.351           0.340           0.053  
E07        -3.467     -783614.807        4649.871           0.044  
E29        -3.252      -89613.763         522.782           0.033  
E30         0.446          -9.358          -0.381          -0.249  
E34        -4.056         -10.358          -0.616           0.191
> 2025 01 08 14 23 28.0000000  0  5
E02        -1.984         -16.369           0.613           0.354  
E07        -1.644     -788265.378        4649.067          -0.240  
E29        -5.682      -90136.688         524.331           0.036  
E30        -0.787          -9.369          -1.445          -0.223  
E34        -3.824         -10.369          -0.011           0.378
> 2025 01 08 14 23 29.0000000  0  5
E02        -4.682         -16.343          -2.450           0.584  
E07        -2.645     -792916.175        4649.654          -0.094  
E29        -3.252      -90659.053         521.140           0.005  
E30        -1.483          -9.350          -0.906          -0.243  
E34        -2.126         -10.362           1.330           0.731
> 2025 01 08 14 23 30.0000000  0  5
E02        -1.769         -16.344          -0.540           0.506  
E07         0.483     -797568.400        4651.453           0.209  
E29         1.305      -91179.754         524.630           0.411  
E30         0.929          -9.355          -1.688           0.046  
E34        -2.591         -10.357           0.531           0.487
> 2025 01 08 14 23 31.0000000  0  5
E02         0.554         -16.354          -0.409           0.518  
E07        -3.627     -802218.972        4650.908           0.231  
E29         4.449      -91701.748         523.173           0.533  
E30        -3.877          -9.348          -0.149           0.251  
E34        -0.197         -10.356           0.981           0.176
> 2025 01 08 14 23 32.0000000  0  5
E02        -0.679         -16.346           0.654           0.610  
E07        -1.609     -806871.343        4656.601           0.013  
E29        -1.108      -92221.746         515.706           0.540  
E30        -1.268          -9.340          -3.285          -0.077  
E34        -2.537         -10.342          -0.675           0.288
> 2025 01 08 14 23 33.0000000  0  5
E02        -3.485         -16.334          -1.465           0.612  
E07        -1.466     -811525.925        4650.973           0.050  
E29        -4.217      -92739.107         518.870           0.432  
E30        -1.358          -9.354           1.697           0.041  
E34         0.179         -10.351           0.141           0.429
> 2025 01 08 14 23 34.0000000  0  5
E02        -0.268         -16.356          -0.405           0.804  
E07         0.196     -816179.674        4655.077           0.151  
E29        -0.929      -93257.108         518.249           0.259  
E30        -0.143          -9.360          -1.318           0.330  
E34        -3.467         -10.353           0.174           0.204
> 2025 01 08 14 23 35.0000000  0  5
E02        -3.002         -16.359          -0.363           0.879  
E07        -0.483     -820835.659        4657.392           0.346  
E29        -4.145      -93772.549         515.758           0.082  
E30        -0.035          -9.364          -0.844           0.422  
E34         2.519         -10.374           0.634           0.294
> 2025 01 08 14 23 36.0000000  0  5
E02        -1.787         -16.366          -0.183           0.432  
E07         3.985     -825492.175        4653.834           0.587  
E29         2.072      -94287.147         512.799           0.081  
E30        -2.233          -9.367           0.938           0.215  
E34        -1.627         -10.370           1.312           0.064
> 2025 01 08 14 23 37.0000000  0  5
E02        -1.662         -16.366           0.821           0.787  
E07        -5.485     -830149.432        4657.608           0.709  
E29        -1.554      -94800.786         517.164           0.324  
E30        -0.965          -9.358          -0.901           0.107  
E34        -5.504         -10.341          -0.846           0.120
> 2025 01 08 14 23 38.0000000  0  5
E02        -4.432         -16.343          -1.399           0.872  
E07        -7.362     -834807.278        4660.664           0.409  
E29        -1.644      -95313.444         511.493           0.117  
E30        -1.036          -9.354           0.580           0.151  
E34        -2.591         -10.367          -0.609           0.037
> 2025 01 08 14 23 39.0000000  0  5
E02        -2.198         -16.343           0.807           0.439  
E07        -5.504     -839466.566        4661.404           0.166  
E29         1.823      -95824.360         509.224           0.195  
E30        -1.769          -9.353           1.459           0.018  
E34        -0.608         -10.355           1.442          -0.061
> 2025 01 08 14 23 40.0000000  0  5
E02        -2.215         -16.352           1.559           0.311  
E07        -5.647     -844126.346        4656.428           0.348  
E29         0.661      -96334.565         509.713          -0.021  
E30         0.697          -9.347          -0.381           0.141  
E34        -0.804         -10.350          -0.572          -0.082
> 2025 01 08 14 23 41.0000000  0  5
E02        -2.626         -16.343           1.493           0.276  
E07        -6.826     -848787.315        4664.251           0.283  
E29        -2.251      -96843.257         509.314          -0.322  
E30        -3.270          -9.357           1.556          -0.153  
E34        -1.161         -10.331          -1.394           0.318
> 2025 01 08 14 23 42.0000000  0  5
E02        -4.181         -16.357          -0.200           0.162  
E07        -0.537     -853449.026        4662.002           0.545  
E29        -2.108      -97350.953         506.890           0.037  
E30        -2.626          -9.348          -1.445          -0.060  
E34        -4.235         -10.365           0.537           0.325
> 2025 01 08 14 23 43.0000000  0  5
E02        -0.178         -16.357           0.549          -0.095  
E07         5.022     -858110.006        4667.486           0.523  
E29        -1.018      -97859.046         501.476           0.097  
E30        -0.447          -9.363           1.240          -0.024  
E34        -2.144         -10.352          -0.661           0.487
> 2025 01 08 14 23 44.0000000  0  5
E02        -5.789         -16.349           0.178           0.056  
E07         2.359     -862773.192        4661.911           0.518  
E29        -7.362      -98364.585         503.939           0.347  
E30        -2.931          -9.353          -1.883           0.289  
E34        -1.591         -10.357           0.755           0.348
> 2025 01 08 14 23 45.0000000  0  5
E02        -0.321         -16.347           0.352          -0.103  
E07        -7.290     -867436.751        4663.535           0.448  
E29        -1.269      -98869.572         504.210           0.103  
E30        -2.984          -9.352           2.130           0.328  
E34        -0.090         -10.356           0.238           0.184
> 2025 01 08 14 23 46.0000000  0  5
E02         0.483         -16.364          -1.906           0.026  
E07         0.893     -872101.159        4664.371           0.424  
E29        -1.305      -99373.328         504.774           0.252  
E30         0.411          -9.348           1.031           0.079  
E34        -5.325         -10.355           0.286           0.301
> 2025 01 08 14 23 47.0000000  0  5
E02        -6.040         -16.346          -0.113           0.469  
E07        -4.610     -876765.544        4664.802           0.462  
E29        -2.841      -99876.818         498.634           0.528  
E30        -2.501          -9.356          -0.240           0.002  
E34         2.091         -10.374           1.429           0.243
> 2025 01 08 14 23 48.0000000  0  5
E02        -5.414         -16.338          -0.246           0.667  
E07         0.035     -881430.714        4666.836           0.172  
E29        -3.752     -100379.232         504.031           0.235  
E30        -2.108          -9.340          -0.920           0.346  
E34         2.198         -10.362           0.266           0.038
> 2025 01 08 14 23 49.0000000  0  5
E02        -2.967         -16.358           1.974           0.241  
E07        -0.983     -886096.822        4669.279           0.366  
E29        -6.951     -100880.395         501.081           0.180  
E30        -3.145          -9.349          -1.221           0.221  
E34        -1.215         -10.356          -1.031           0.300
> 2025 01 08 14 23 50.0000000  0  5
E02        -3.555         -16.346          -0.720           0.210  
E07        -8.381     -890764.518        4669.410           0.126  
E29        -4.753     -101379.762         499.952          -0.088  
E30        -0.215          -9.354           0.419           0.179  
E34         0.000         -10.358          -0.172           0.277
> 2025 01 08 14 23 51.0000000  0  5
E02        -0.304         -16.360           1.136           0.586  
E07        -3.305     -895433.298        4668.184           0.384  
E29        -1.233     -101877.645         497.529           0.139  
E30        -1.805          -9.354          -0.970           0.201  
E34        -4.003         -10.364           0.330           0.707
> 2025 01 08 14 23 52.0000000  0  5
E02        -1.841         -16.356          -0.317           0.449  
E07        -1.037     -900102.002        4669.825           0.440  
E29        -3.806     -102375.349         497.862           0.007  
E30        -0.679          -9.348          -1.331           0.048  
E34        -6.039         -10.334          -0.832           0.334
> 2025 01 08 14 23 53.0000000  0  5
E02        -0.339         -16.346          -2.015           0.553  
E07         0.804     -904770.333        4667.203           0.441  
E29        -3.073     -102873.153         497.807           0.177  
E30        -2.270          -9.361          -0.522           0.307  
E34        -0.375         -10.360           0.315           0.480
> 2025 01 08 14 23 54.0000000  0  5
E02        -0.858         -16.357          -1.574           0.091  
E07         3.109     -909440.286        4673.166           0.819  
E29        -2.019     -103369.005         493.764           0.052  
E30        -1.769          -9.346          -2.055           0.195  
E34        -1.019         -10.354          -0.798           0.096
> 2025 01 08 14 23 55.0000000  0  5
E02        -2.215         -16.356           0.148           0.033  
E07         0.375     -914111.952        4669.435           0.423  
E29        -5.664     -103862.847         492.040           0.161  
E30        -1.787          -9.357          -1.685          -0.046  
E34        -4.360         -10.334          -2.267           0.157
> 2025 01 08 14 23 56.0000000  0  5
E02         1.465         -16.364          -1.005          -0.030  
E07        -4.931     -918783.750        4669.591           0.241  
E29        -5.789     -104356.288         489.886          -0.034  
E30        -1.912          -9.367          -1.757           0.180  
E34        -1.001         -10.368           0.226           0.214
> 2025 01 08 14 23 57.0000000  0  5
E02        -2.877         -16.356           1.087           0.104  
E07        -7.988     -923455.869        4671.609           0.039  
E29        -3.037     -104849.081         491.942          -0.218  
E30        -0.858          -9.360           0.265           0.254  
E34        -1.894         -10.363          -1.174           0.186
> 2025 01 08 14 23 58.0000000  0  5
E02        -1.751         -16.355          -1.788          -0.010  
E07        -4.985     -928128.374        4673.403           0.531  
E29         0.911     -105341.190         492.069           0.434  
E30        -2.895          -9.349          -1.931          -0.082  
E34         0.715         -10.372           0.102           0.134
> 2025 01 08 14 23 59.0000000  0  5
E02        -3.431         -16.356          -0.175          -0.169  
E07        -4.432     -932802.255        4675.052           0.466  
E29        -2.841     -105831.620         489.287          -0.025  
E30        -4.253          -9.342          -2.594          -0.377  
E34        -5.128         -10.344          -2.239           0.680
> 2025 01 08 14 24  0.0000000  0  5
E02         1.966         -16.383          -0.038          -0.339  
E07        -1.537     -937476.601        4675.612           0.497  
E29         0.714     -106321.356         488.669           0.355  
E30         0.179          -9.368           1.187           0.026  
E34        -1.787         -10.369           0.142           0.357
> 2025 01 08 14 24  1.0000000  0  5
E02         3.074         -16.369          -1.610           0.009  
E07        -1.590     -942151.997        4673.529           0.530  
E29         1.966     -106809.702         491.631           0.779  
E30        -2.556          -9.363          -0.561           0.334  
E34        -1.340         -10.359          -2.219          -0.256
> 2025 01 08 14 24  2.0000000  0  5
E02        -3.181         -16.353           0.134          -0.041  
E07        -3.199     -946828.178        4676.620          -0.034  
E29        -6.754     -107296.933         484.692           0.670  
E30        -2.234          -9.351          -0.243           0.427  
E34        -2.037         -10.342          -0.613           0.113
> 2025 01 08 14 24  3.0000000  0  5
E02        -4.592         -16.366          -0.451           0.224  
E07         0.894     -951505.719        4680.194           0.247  
E29        -4.789     -107782.556         483.738           0.396  
E30        -2.215          -9.355          -0.215           0.665  
E34        -1.090         -10.357           0.245           0.430
> 2025 01 08 14 24  4.0000000  0  5
E02        -2.734         -16.376          -0.322           0.318  
E07        -2.305     -956183.425        4680.051           0.035  
E29        -3.521     -108267.687         484.740           0.399  
E30        -2.663          -9.366           0.267           0.292  
E34        -0.339         -10.367          -1.037           0.727
> 2025 01 08 14 24  5.0000000  0  5
E02        -0.804         -16.357           0.751          -0.046  
E07         1.697     -960861.192        4677.528           0.362  
E29        -0.572     -108752.456         483.454          -0.025  
E30        -1.537          -9.363           1.548           0.064  
E34         0.446         -10.371          -0.013           0.452
> 2025 01 08 14 24  6.0000000  0  5
E02         0.965         -16.361          -0.485           0.030  
E07        -1.912     -965539.849        4679.665           0.366  
E29        -2.913     -109236.042         485.268          -0.227  
E30        -1.965          -9.350          -1.734           0.183  
E34        -1.037         -10.352          -0.402           0.188
> 2025 01 08 14 24  7.0000000  0  5
E02        -4.378         -16.346           0.603           0.171  
E07        -1.822     -970219.044        4678.548           0.049  
E29        -4.932     -109718.812         483.017          -0.486  
E30        -1.715          -9.355           1.362           0.089  
E34        -2.717         -10.354          -0.371          -0.011
> 2025 01 08 14 24  8.0000000  0  5
E02        -1.162         -16.361          -1.361          -0.182  
E07         1.162     -974898.945        4680.590          -0.287  
E29        -2.894     -110200.500         483.935          -0.101  
E30        -2.645          -9.350           1.193          -0.008  
E34         1.715         -10.374           1.768           0.294
> 2025 01 08 14 24  9.0000000  0  5
E02        -3.378         -16.365           1.725          -0.184  
E07        -2.627     -979580.706        4680.858          -0.387  
E29        -1.358     -110680.095         484.465          -0.303  
E30        -1.144          -9.363           1.449          -0.057  
E34        -0.375         -10.360          -0.561           0.074
> 2025 01 08 14 24 10.0000000  0  5
E02        -2.234         -16.360           1.386           0.034  
E07        -1.876     -984262.038        4684.379          -0.193  
E29         0.518     -111159.859         480.728          -0.037  
E30        -1.072          -9.362           1.370          -0.383  
E34         0.589         -10.362          -0.545          -0.132
> 2025 01 08 14 24 11.0000000  0  5
E02         0.876         -16.353           0.092           0.079  
E07         1.733     -988944.031        4684.141          -0.339  
E29         0.894     -111638.600         479.725          -0.374  
E30         0.053          -9.365          -0.787          -0.139  
E34        -0.482         -10.356          -0.041           0.049
> 2025 01 08 14 24 12.0000000  0  5
E02        -2.430         -16.348           1.628          -0.133  
E07        -4.556     -993626.403        4683.495          -0.032  
E29         2.716     -112116.714         478.074          -0.093  
E30        -2.842          -9.357           1.836          -0.036  
E34        -5.736         -10.360           1.985           0.347
> 2025 01 08 14 24 13.0000000  0  5
E02        -3.752         -16.355           1.615           0.287  
E07        -0.339     -998309.421        4682.638           0.176  
E29        -2.394     -112593.830         476.167           0.135  
E30        -2.108          -9.365           0.480           0.370  
E34        -1.554         -10.335           0.057          -0.377
> 2025 01 08 14 24 14.0000000  0  5
E02        -2.108         -16.359          -0.514           0.831  
E07        -3.234    -1002993.219        4682.692           0.570  
E29         4.074     -113069.896         476.860           0.418  
E30        -2.716          -9.359          -0.530           0.386  
E34         2.466         -10.347           1.026          -0.279
> 2025 01 08 14 24 15.0000000  0  5
E02        -3.145         -16.354           1.168           0.381  
E07        -3.521    -1007678.429        4689.216           0.865  
E29        -2.144     -113544.192         471.718          -0.016  
E30        -2.609          -9.346          -0.612           0.481  
E34        -2.930         -10.353          -0.729           0.042
> 2025 01 08 14 24 16.0000000  0  5
E02        -4.002         -16.348           1.951           0.432  
E07        -3.073    -1012365.497        4689.895           0.989  
E29         0.643     -114016.430         470.635          -0.239  
E30        -3.396          -9.365           0.452           0.392  
E34        -3.145         -10.367           0.290           0.073
> 2025 01 08 14 24 17.0000000  0  5
E02        -7.076         -16.350          -0.866           0.010  
E07         3.932    -1017052.543        4688.057           0.647  
E29        -3.860     -114488.301         468.996          -0.190  
E30        -6.255          -9.356           0.534           0.154  
E34        -2.466         -10.348          -1.357           0.131
> 2025 01 08 14 24 18.0000000  0  5
E02        -0.822         -16.350          -0.913           0.061  
E07        -3.859    -1021740.396        4687.894           0.144  
E29         0.214     -114959.091         467.295           0.037  
E30        -2.466          -9.357          -0.297          -0.380  
E34        -0.286         -10.358          -2.685           0.145
> 2025 01 08 14 24 19.0000000  0  5
E02         1.108         -16.372           1.602           0.159  
E07        -4.128    -1026429.068        4689.078           0.327  
E29        -1.233     -115428.831         468.340           0.140  
E30        -0.536          -9.361          -0.375           0.199  
E34         0.500         -10.363           0.481          -0.004
> 2025 01 08 14 24 20.0000000  0  5
E02        -3.895         -16.341           1.030           0.391  
E07        -1.430    -1031118.471        4687.236           0.044  
E29        -0.250     -115897.487         467.351           0.310  
E30         0.161          -9.370           1.448           0.067  
E34        -1.733         -10.361          -0.609          -0.230
> 2025 01 08 14 24 21.0000000  0  5
E02        -0.554         -16.363          -0.674           0.475  
E07         0.107    -1035808.587        4688.545           0.067  
E29         2.055     -116365.109         465.685           0.096  
E30        -2.180          -9.354           0.201           0.193  
E34        -2.127         -10.367           0.168           0.104
> 2025 01 08 14 24 22.0000000  0  5
E02        -6.433         -16.337          -2.630           0.086  
E07         3.288    -1040499.529        4689.687           0.167  
E29         1.858     -116831.593         461.202          -0.033  
E30        -2.073          -9.363           0.526           0.254  
E34        -3.377         -10.365          -0.147           0.127
> 2025 01 08 14 24 23.0000000  0  5
E02        -3.609         -16.367           0.407           0.212  
E07        -5.540    -1045191.776        4692.434          -0.108  
E29        -6.736     -117296.525         465.862          -0.184  
E30        -3.466          -9.356          -0.567          -0.031  
E34        -3.682         -10.352          -2.060          -0.182
> 2025 01 08 14 24 24.0000000  0  5
E02         0.643         -16.343          -1.307           0.713  
E07         0.643    -1049883.784        4691.568          -0.022  
E29        -3.949     -117761.384         463.163          -0.418  
E30        -0.590          -9.366           1.035          -0.194  
E34        -1.733         -10.369          -0.106          -0.047
> 2025 01 08 14 24 25.0000000  0  5
E02        -0.090         -16.343           0.150           0.231  
E07        -2.984    -1054575.588        4689.555           0.301  
E29         2.591     -118226.092         461.441          -0.612  
E30        -2.859          -9.355          -0.045          -0.034  
E34         0.822         -10.355          -1.054           0.007
> 2025 01 08 14 24 26.0000000  0  5
E02        -0.339         -16.349           0.886           0.065  
E07        -4.664    -1059267.905        4692.534           0.332  
E29         1.412     -118690.023         461.517          -0.416  
E30        -1.930          -9.356          -0.428           0.210  
E34        -7.773         -10.345           0.142           0.190
> 2025 01 08 14 24 27.0000000  0  5
E02         1.304         -16.367          -0.052           0.074  
E07        -4.360    -1063963.030        4695.856           0.388  
E29        -3.681     -119150.889         457.887          -0.125  
E30        -2.823          -9.354          -1.336           0.068  
E34         1.697         -10.373           0.941           0.636
> 2025 01 08 14 24 28.0000000  0  5
E02        -3.627         -16.339          -0.659           0.088  
E07        -0.429    -1068659.098        4697.269           0.368  
E29        -4.396     -119610.429         457.373           0.086  
E30        -0.500          -9.360          -1.890           0.021  
E34        -2.252         -10.350          -1.565           0.889
> 2025 01 08 14 24 29.0000000  0  5
E02         0.036         -16.349           0.685           0.012  
E07        -3.985    -1073355.200        4698.672           0.131  
E29        -7.452     -120069.697         459.898           0.079  
E30        -1.198          -9.359           0.836          -0.021  
E34        -4.199         -10.355           0.656           0.626
> 2025 01 08 14 24 30.0000000  0  5
E02        -2.484         -16.357           0.464           0.215  
E07        -1.286    -1078051.528        4697.603           0.409  
E29        -4.145     -120528.419         460.913           0.179  
E30        -3.145          -9.357           0.806          -0.157  
E34        -4.039         -10.363          -0.374           0.313
> 2025 01 08 14 24 31.0000000  0  5
E02        -1.894         -16.345          -0.065           0.364  
E07        -1.090    -1082748.907        4697.701           0.346  
E29         2.430     -120985.785         457.613           0.294  
E30         0.071          -9.353          -0.593          -0.065  
E34        -0.465         -10.361          -0.419           0.089
> 2025 01 08 14 24 32.0000000  0  5
E02        -1.894         -16.335          -0.185           0.137  
E07        -1.519    -1087445.645        4697.313           0.009  
E29        -5.146     -121443.443         458.510           0.473  
E30        -1.180          -9.355           1.801          -0.299  
E34        -1.429         -10.366          -0.321           0.215
> 2025 01 08 14 24 33.0000000  0  5
E02        -2.591         -16.342          -1.694           0.607  
E07        -2.055    -1092143.154        4699.653           0.047  
E29         2.430     -121900.093         457.095           0.053  
E30        -0.607          -9.356           0.426          -0.680  
E34        -0.572         -10.364           0.861           0.450
> 2025 01 08 14 24 34.0000000  0  5
E02        -0.107         -16.367           2.423           0.533  
E07         0.250    -1096841.286        4698.132           0.187  
E29        -0.518     -122355.747         454.666           0.232  
E30        -0.983          -9.368           1.224          -0.222  
E34         0.072         -10.360          -1.927           0.155
> 2025 01 08 14 24 35.0000000  0  5
E02        -4.717         -16.342          -1.575           0.245  
E07        -1.340    -1101540.368        4700.334           0.238  
E29        -1.144     -122810.226         453.333           0.506  
E30        -0.661          -9.355           1.254           0.083  
E34        -4.092         -10.351           0.309          -0.111
> 2025 01 08 14 24 36.0000000  0  5
E02        -0.875         -16.353          -0.264           0.120  
E07         1.161    -1106240.004        4700.788           0.169  
E29        -6.487     -123263.815         450.189           0.203  
E30         1.107          -9.380           0.719          -0.226  
E34        -1.769         -10.371          -0.793           0.016
> 2025 01 08 14 24 37.0000000  0  5
E02        -2.538         -16.376           1.074           0.071  
E07        -0.965    -1110940.310        4704.107          -0.246  
E29        -1.948     -123716.418         452.984           0.244  
E30        -1.609          -9.370           0.508          -0.474  
E34        -2.859         -10.372          -0.541           0.308
> 2025 01 08 14 24 38.0000000  0  5
E02        -2.073         -16.351           1.338          -0.002  
E07         1.608    -1115641.447        4703.735          -0.002  
E29        -2.859     -124167.961         448.230           0.065  
E30        -2.144          -9.349           1.442          -0.206  
E34        -1.680         -10.345           0.050           0.236
> 2025 01 08 14 24 39.0000000  0  5
E02        -1.447         -16.353          -0.978           0.079  
E07         0.035    -1120343.349        4702.641           0.195  
E29        -1.644     -124618.332         448.834           0.201  
E30        -1.930          -9.355          -0.827          -0.305  
E34        -7.845         -10.332          -0.208           0.285
> 2025 01 08 14 24 40.0000000  0  5
E02        -1.251         -16.347           0.579           0.169  
E07        -2.627    -1125046.272        4704.803          -0.067  
E29        -0.858     -125067.447         446.026          -0.099  
E30        -1.251          -9.364          -0.172          -0.116  
E34        -1.823         -10.369          -0.389           0.637
