     3.02           OBSERVATION DATA    E                   RINEX VERSION / TYPE
G = GPS  R = GLONASS  E = GALILEO  S = GEO  M = MIXED       COMMENT             
GNSS-SDR            jmfriedt            20250107 145116 UTC PGM / RUN BY / DATE 
GALILEO OBSERVATION DATA FILE GENERATED BY GNSS-SDR         COMMENT             
GNSS-SDR VERSION 0.0.19.git-main-87fcfd237                  COMMENT             
See https://gnss-sdr.org                                    COMMENT             
DEFAULT MARKER NAME                                         MARKER NAME         
jmfriedt            CTTC                                    OBSERVER / AGENCY   
GNSS-SDR            Software Receiver   0.0.19.gi           REC # / TYPE / VERS 
Antenna number      Antenna type                            ANT # / TYPE        
        0.0000        0.0000        0.0000                  APPROX POSITION XYZ 
        0.0000        0.0000        0.0000                  ANTENNA: DELTA H/E/N
E    4 C1B L1B D1B S1B                                      SYS / # / OBS TYPES 
DBHZ                                                        SIGNAL STRENGTH UNIT
  2025    01    07    14    18    6.1400000     GAL         TIME OF FIRST OBS   
    18    18   137     7                                    LEAP SECONDS        
                                                            END OF HEADER       
> 2025 01 07 14 18 07.0000000  0  4                                             
E04  25983637.371 6 136544913.484 6      -530.329 6        39.152               
E13  25485818.248 6 133931993.188 6     -1806.770 6        40.712               
E21  23643832.517 6 124249177.673 6      -549.031 6        41.764               
E27  26411701.610 6 138790262.962 6      2412.615 6        37.522               
> 2025 01 07 14 18 08.0000000  0  4                                             
E04  25983735.785 6 136545443.696 6      -529.514 6        39.066               
E13  25485480.353 6 133933797.783 6     -1803.516 6        40.515               
E21  23643940.741 6 124249727.173 6      -550.032 6        41.666               
E27  26412163.060 6 138787847.342 6      2417.504 6        37.427               
> 2025 01 07 14 18 09.0000000  0  4                                             
E04  25983841.150 6 136545974.253 6      -531.634 6        38.667               
E13  25485137.456 6 133935602.137 6     -1804.819 6        40.219               
E21  23644044.595 6 124250276.739 6      -549.813 6        41.692               
E27  26412625.501 6 138785431.772 6      2415.136 6        37.489               
> 2025 01 07 14 18 10.0000000  0  4                                             
E04  25983944.576 6 136546505.363 6      -532.547 6        38.744               
E13  25484798.972 6 133937406.074 6     -1805.232 6        40.090               
E21  23644150.719 6 124250826.581 6      -549.742 6        41.281               
E27  26413087.558 6 138783016.071 6      2418.009 6        37.211               
> 2025 01 07 14 18 11.0000000  0  4                                             
E04  25984042.114 6 136547037.117 6      -532.634 6        38.692               
E13  25484454.725 6 133939209.449 6     -1805.319 6        40.188               
E21  23644258.756 6 124251376.801 6      -549.919 6        41.307               
E27  26413546.926 6 138780600.158 6      2414.573 6        36.924               
> 2025 01 07 14 18 12.0000000  0  4                                             
E04  25984148.542 6 136547569.411 6      -531.740 6        38.801               
E13  25484114.285 6 133941012.404 6     -1802.126 6        40.278               
E21  23644367.828 6 124251927.263 6      -550.183 6        41.465               
E27  26414008.930 6 138778184.054 6      2418.256 6        37.244               
> 2025 01 07 14 18 13.0000000  0  4                                             
E04  25984250.610 6 136548102.247 6      -532.618 6        38.762               
E13  25483774.541 6 133942814.965 6     -1801.464 6        40.210               
E21  23644472.424 6 124252477.978 6      -550.731 6        41.356               
E27  26414470.371 6 138775767.876 6      2416.061 6        37.231               
> 2025 01 07 14 18 14.0000000  0  4                                             
E04  25984355.840 6 136548635.811 6      -534.140 6        38.766               
E13  25483434.538 6 133944616.855 6     -1801.827 6        40.334               
E21  23644577.262 6 124253029.178 6      -552.690 6        41.257               
E27  26414928.872 6 138773351.292 6      2415.372 6        37.261               
> 2025 01 07 14 18 15.0000000  0  4                                             
E04  25984459.507 6 136549170.068 6      -535.802 6        38.770               
E13  25483094.151 6 133946418.176 6     -1801.104 6        40.444               
E21  23644684.235 6 124253580.764 6      -552.335 6        41.289               
E27  26415397.067 6 138770934.470 6      2414.587 6        37.329               
> 2025 01 07 14 18 16.0000000  0  4                                             
E04  25984562.746 6 136549704.657 6      -535.126 6        38.579               
E13  25482751.209 6 133948219.275 6     -1800.172 6        40.319               
E21  23644791.860 6 124254132.425 6      -551.916 6        41.252               
E27  26415857.114 6 138768517.710 6      2416.175 6        37.164               
> 2025 01 07 14 18 17.0000000  0  4                                             
E04  25984662.946 6 136550239.827 6      -534.048 6        38.392               
E13  25482411.063 6 133950019.897 6     -1801.517 6        40.427               
E21  23644899.235 6 124254684.384 6      -553.005 6        41.009               
E27  26416317.599 6 138766100.757 6      2416.756 6        37.129               
> 2025 01 07 14 18 18.0000000  0  4                                             
E04  25984772.448 6 136550775.423 6      -537.026 6        38.494               
E13  25482068.264 6 133951820.262 6     -1800.834 6        40.677               
E21  23645007.897 6 124255236.449 6      -550.365 6        41.261               
E27  26416775.752 6 138763683.846 6      2414.136 6        36.890               
> 2025 01 07 14 18 19.0000000  0  4                                             
E04  25984874.149 6 136551311.551 6      -537.299 6        38.512               
E13  25481727.662 6 133953620.137 6     -1799.383 6        40.829               
E21  23645113.485 6 124255788.803 6      -552.561 6        41.218               
E27  26417240.453 6 138761266.718 6      2416.687 6        36.861               
> 2025 01 07 14 18 20.0000000  0  4                                             
E04  25984978.477 6 136551848.083 6      -535.084 6        38.381               
E13  25481389.259 6 133955419.752 6     -1800.088 6        40.692               
E21  23645218.474 6 124256341.284 6      -551.572 6        41.311               
E27  26417704.074 6 138758849.658 6      2415.280 6        36.510               
> 2025 01 07 14 18 21.0000000  0  4                                             
E04  25985082.618 6 136552385.008 6      -537.263 6        38.350               
E13  25481049.533 6 133957219.057 6     -1797.050 6        40.793               
E21  23645326.582 6 124256893.886 6      -553.098 6        41.311               
E27  26418159.100 6 138756432.542 6      2416.306 6        36.753               
> 2025 01 07 14 18 22.0000000  0  4                                             
E04  25985186.687 6 136552922.559 6      -537.158 6        38.813               
E13  25480705.795 6 133959017.851 6     -1798.828 6        40.634               
E21  23645435.413 6 124257446.834 6      -553.285 6        41.537               
E27  26418624.168 6 138754015.218 6      2415.942 6        37.047               
> 2025 01 07 14 18 23.0000000  0  4                                             
E04  25985291.480 6 136553460.791 6      -538.124 6        38.726               
E13  25480368.089 6 133960816.087 6     -1798.047 6        40.693               
E21  23645540.599 6 124258000.151 6      -552.951 6        41.292               
E27  26419089.540 6 138751597.624 6      2417.519 6        36.693               
> 2025 01 07 14 18 24.0000000  0  4                                             
E04  25985396.881 6 136553999.697 6      -538.443 6        38.581               
E13  25480026.415 6 133962613.771 6     -1796.184 6        40.471               
E21  23645648.537 6 124258553.875 6      -554.235 6        41.286               
E27  26419547.058 6 138749179.810 6      2418.173 6        36.815               
> 2025 01 07 14 18 25.0000000  0  4                                             
E04  25985499.663 6 136554538.853 6      -539.708 6        38.783               
E13  25479686.394 6 133964411.301 6     -1796.152 6        40.242               
E21  23645757.734 6 124259107.573 6      -554.451 6        41.220               
E27  26420015.414 6 138746762.061 6      2416.502 6        37.077               
> 2025 01 07 14 18 26.0000000  0  4                                             
E04  25985604.197 6 136555078.614 6      -540.084 6        38.883               
E13  25479348.196 6 133966208.352 6     -1796.952 6        40.190               
E21  23645861.241 6 124259661.607 6      -554.679 6        41.398               
E27  26420470.056 6 138744344.190 6      2418.877 6        36.971               
> 2025 01 07 14 18 27.0000000  0  4                                             
E04  25985710.848 6 136555619.026 6      -539.453 6        38.870               
E13  25479005.710 6 133968004.844 6     -1795.847 6        40.347               
E21  23645971.868 6 124260216.004 6      -554.373 6        41.524               
E27  26420939.386 6 138741926.006 6      2419.144 6        37.053               
> 2025 01 07 14 18 28.0000000  0  4                                             
E04  25985812.559 6 136556159.703 6      -539.193 6        38.615               
E13  25478665.367 6 133969801.175 6     -1796.556 6        40.439               
E21  23646078.742 6 124260770.401 6      -554.997 6        41.540               
E27  26421399.227 6 138739507.964 6      2420.590 6        37.257               
> 2025 01 07 14 18 29.0000000  0  4                                             
E04  25985914.680 6 136556700.864 6      -541.514 6        38.439               
E13  25478326.043 6 133971597.157 6     -1795.783 6        40.569               
E21  23646185.286 6 124261324.979 6      -556.301 6        41.357               
E27  26421859.578 6 138737089.891 6      2419.359 6        36.724               
> 2025 01 07 14 18 30.0000000  0  4                                             
E04  25986020.411 6 136557242.623 6      -541.087 6        38.694               
E13  25477985.120 6 133973392.613 6     -1794.667 6        40.175               
E21  23646290.749 6 124261879.893 6      -553.951 6        41.721               
E27  26422326.013 6 138734671.581 6      2416.320 6        36.986               
> 2025 01 07 14 18 31.0000000  0  4                                             
E04  25986124.972 6 136557784.745 6      -543.332 6        38.197               
E13  25477643.465 6 133975187.862 6     -1796.004 6        40.154               
E21  23646398.759 6 124262434.869 6      -557.255 6        41.614               
E27  26422784.550 6 138732253.321 6      2419.063 6        36.991               
> 2025 01 07 14 18 32.0000000  0  4                                             
E04  25986236.153 6 136558327.424 6      -543.868 6        38.112               
E13  25477309.671 6 133976982.644 6     -1794.472 6        40.257               
E21  23646506.777 6 124262990.121 6      -554.935 6        41.551               
E27  26423246.018 6 138729834.929 6      2420.043 6        37.224               
> 2025 01 07 14 18 33.0000000  0  4                                             
E04  25986339.373 6 136558870.769 6      -542.744 6        38.151               
E13  25476964.549 6 133978776.873 6     -1793.713 6        40.052               
E21  23646614.545 6 124263545.783 6      -554.948 6        41.231               
E27  26423710.657 6 138727416.270 6      2419.378 6        37.379               
> 2025 01 07 14 18 34.0000000  0  4                                             
E04  25986442.576 6 136559414.522 6      -542.105 6        38.219               
E13  25476627.298 6 133980570.785 6     -1794.341 6        39.927               
E21  23646720.884 6 124264101.561 6      -556.645 6        41.222               
E27  26424176.663 6 138724997.592 6      2420.520 6        37.322               
> 2025 01 07 14 18 35.0000000  0  4                                             
E04  25986547.610 6 136559958.332 6      -544.884 6        38.041               
E13  25476286.500 6 133982364.772 6     -1794.692 6        39.907               
E21  23646825.846 6 124264657.109 6      -554.872 6        41.153               
E27  26424636.076 6 138722579.257 6      2420.499 6        36.979               
> 2025 01 07 14 18 36.0000000  0  4                                             
E04  25986652.814 6 136560502.890 6      -546.986 6        38.105               
E13  25475946.863 6 133984158.063 6     -1790.471 6        40.095               
E21  23646937.126 6 124265213.179 6      -555.961 6        41.266               
E27  26425102.091 6 138720160.547 6      2417.953 6        37.330               
> 2025 01 07 14 18 37.0000000  0  4                                             
E04  25986758.420 6 136561047.846 6      -545.205 6        37.913               
E13  25475608.969 6 133985951.114 6     -1792.932 6        40.329               
E21  23647045.492 6 124265769.319 6      -555.246 6        41.381               
E27  26425553.784 6 138717741.901 6      2418.993 6        37.383               
> 2025 01 07 14 18 38.0000000  0  4                                             
E04  25986863.918 6 136561593.018 6      -547.134 6        38.231               
E13  25475268.609 6 133987744.096 6     -1793.517 6        40.179               
E21  23647148.561 6 124266325.387 6      -556.913 6        41.357               
E27  26426024.508 6 138715323.422 6      2418.512 6        37.200               
> 2025 01 07 14 18 39.0000000  0  4                                             
E04  25986971.311 6 136562139.682 6      -548.126 6        38.084               
E13  25474928.150 6 133989535.650 6     -1790.061 6        40.185               
E21  23647259.197 6 124266882.686 6      -558.345 6        41.334               
E27  26426483.893 6 138712903.831 6      2421.893 6        37.441               
> 2025 01 07 14 18 40.0000000  0  4                                             
E04  25987072.691 6 136562687.147 6      -547.467 6        38.046               
E13  25474591.266 6 133991326.486 6     -1790.318 6        40.496               
E21  23647365.509 6 124267440.520 6      -557.579 6        41.397               
E27  26426945.942 6 138710483.882 6      2419.990 6        37.696               
> 2025 01 07 14 18 41.0000000  0  4                                             
E04  25987181.737 6 136563233.585 6      -547.644 6        38.205               
E13  25474251.674 6 133993118.512 6     -1792.510 6        40.531               
E21  23647474.644 6 124267997.003 6      -556.355 6        41.549               
E27  26427405.730 6 138708065.356 6      2417.594 6        37.601               
> 2025 01 07 14 18 42.0000000  0  4                                             
E04  25987285.726 6 136563780.706 6      -546.844 6        37.971               
E13  25473911.644 6 133994909.897 6     -1790.310 6        40.525               
E21  23647583.225 6 124268553.969 6      -557.757 6        41.223               
E27  26427868.189 6 138705646.497 6      2418.806 6        37.497               
> 2025 01 07 14 18 43.0000000  0  4                                             
E04  25987394.923 6 136564328.555 6      -549.843 6        37.575               
E13  25473574.241 6 133996700.718 6     -1791.140 6        40.315               
E21  23647690.644 6 124269111.325 6      -558.402 6        41.061               
E27  26428329.227 6 138703227.353 6      2418.317 6        37.821               
> 2025 01 07 14 18 44.0000000  0  4                                             
E04  25987497.822 6 136564877.386 6      -548.868 6        37.429               
E13  25473234.658 6 133998490.663 6     -1788.916 6        39.950               
E21  23647798.359 6 124269669.389 6      -558.464 6        40.971               
E27  26428793.822 6 138700807.629 6      2418.811 6        37.620               
> 2025 01 07 14 18 45.0000000  0  4                                             
E04  25987602.347 6 136565426.570 6      -546.756 6        37.847               
E13  25472892.788 6 134000280.332 6     -1788.629 6        39.920               
E21  23647907.288 6 124270227.560 6      -559.033 6        41.188               
E27  26429261.186 6 138698387.907 6      2417.929 6        37.370               
> 2025 01 07 14 18 46.0000000  0  4                                             
E04  25987713.108 6 136565976.325 6      -548.472 6        37.664               
E13  25472558.110 6 134002069.562 6     -1788.926 6        39.899               
E21  23648014.163 6 124270785.997 6      -558.244 6        41.385               
E27  26429717.481 6 138695968.095 6      2419.531 6        37.277               
> 2025 01 07 14 18 47.0000000  0  4                                             
E04  25987818.517 6 136566526.674 6      -551.144 6        37.794               
E13  25472218.125 6 134003858.302 6     -1788.611 6        39.666               
E21  23648122.512 6 124271344.731 6      -558.046 6        41.310               
E27  26430180.512 6 138693548.056 6      2419.644 6        37.468               
> 2025 01 07 14 18 48.0000000  0  4                                             
E04  25987924.365 6 136567076.532 6      -550.040 6        38.213               
E13  25471879.543 6 134005647.612 6     -1789.839 6        40.055               
E21  23648231.504 6 124271902.731 6      -557.947 6        41.259               
E27  26430643.722 6 138691128.877 6      2420.738 6        37.581               
> 2025 01 07 14 18 49.0000000  0  4                                             
E04  25988028.380 6 136567627.884 6      -552.682 6        38.387               
E13  25471539.889 6 134007435.602 6     -1787.766 6        40.168               
E21  23648337.369 6 124272461.897 6      -560.417 6        41.243               
E27  26431100.311 6 138688708.680 6      2423.946 6        37.281               
> 2025 01 07 14 18 50.0000000  0  4                                             
E04  25988138.418 6 136568179.692 6      -550.302 6        38.195               
E13  25471202.897 6 134009223.195 6     -1788.817 6        40.067               
E21  23648447.871 6 124273021.294 6      -560.501 6        41.421               
E27  26431565.102 6 138686288.388 6      2416.970 6        37.235               
> 2025 01 07 14 18 51.0000000  0  4                                             
E04  25988242.674 6 136568731.216 6      -552.060 6        37.942               
E13  25470866.870 6 134011011.176 6     -1787.140 6        40.166               
E21  23648555.541 6 124273580.100 6      -560.145 6        41.498               
E27  26432022.710 6 138683868.743 6      2424.609 6        37.156               
> 2025 01 07 14 18 52.0000000  0  4                                             
E04  25988351.702 6 136569284.030 6      -551.493 6        37.999               
E13  25470526.965 6 134012797.994 6     -1785.698 6        39.916               
E21  23648661.754 6 124274139.908 6      -560.362 6        41.750               
E27  26432486.813 6 138681448.273 6      2420.662 6        37.266               
> 2025 01 07 14 18 53.0000000  0  4                                             
E04  25988459.533 6 136569837.579 6      -551.112 6        38.058               
E13  25470192.368 6 134014584.162 6     -1784.240 6        39.940               
E21  23648771.050 6 124274700.189 6      -561.543 6        41.546               
E27  26432956.804 6 138679027.441 6      2421.669 6        37.365               
> 2025 01 07 14 18 54.0000000  0  4                                             
E04  25988564.799 6 136570391.907 6      -554.817 6        38.141               
E13  25469851.195 6 134016369.707 6     -1785.091 6        39.872               
E21  23648879.524 6 124275260.962 6      -561.063 6        41.704               
E27  26433418.897 6 138676606.241 6      2420.771 6        37.610               
> 2025 01 07 14 18 55.0000000  0  4                                             
E04  25988671.951 6 136570947.211 6      -555.208 6        37.935               
E13  25469513.470 6 134018154.348 6     -1784.715 6        40.015               
E21  23648987.533 6 124275822.448 6      -561.648 6        41.569               
E27  26433882.419 6 138674184.463 6      2419.840 6        37.537               
> 2025 01 07 14 18 56.0000000  0  4                                             
E04  25988777.825 6 136571502.329 6      -554.658 6        37.701               
E13  25469176.550 6 134019939.300 6     -1785.734 6        39.988               
E21  23649099.724 6 124276383.474 6      -562.202 6        41.454               
E27  26434340.894 6 138671763.269 6      2421.642 6        37.858               
> 2025 01 07 14 18 57.0000000  0  4                                             
E04  25988893.330 6 136572057.841 6      -556.535 6        38.036               
E13  25468836.976 6 134021723.938 6     -1783.577 6        39.938               
E21  23649206.179 6 124276944.581 6      -560.220 6        41.376               
E27  26434808.008 6 138669342.114 6      2421.258 6        38.096               
> 2025 01 07 14 18 58.0000000  0  4                                             
E04  25988998.061 6 136572613.738 6      -556.248 6        38.204               
E13  25468497.974 6 134023508.317 6     -1784.117 6        39.486               
E21  23649317.744 6 124277505.824 6      -560.964 6        41.281               
E27  26435267.027 6 138666920.934 6      2422.120 6        38.147               
> 2025 01 07 14 18 59.0000000  0  4                                             
E04  25989101.540 6 136573170.319 6      -559.331 6        38.050               
E13  25468159.945 6 134025292.119 6     -1784.982 6        39.686               
E21  23649423.823 6 124278067.443 6      -561.889 6        41.344               
E27  26435728.843 6 138664499.510 6      2418.914 6        38.046               
> 2025 01 07 14 19 00.0000000  0  4                                             
E04  25989211.256 6 136573727.355 6      -556.448 6        37.982               
E13  25467824.910 6 134027075.570 6     -1783.118 6        39.744               
E21  23649531.172 6 124278629.245 6      -561.401 6        41.474               
E27  26436191.964 6 138662078.037 6      2419.781 6        37.548               
> 2025 01 07 14 19 01.0000000  0  4                                             
E04  25989322.053 6 136574284.896 6      -557.668 6        38.054               
E13  25467486.667 6 134028858.634 6     -1783.673 6        39.828               
E21  23649641.683 6 124279191.283 6      -562.549 6        41.546               
E27  26436656.246 6 138659656.411 6      2419.609 6        37.678               
> 2025 01 07 14 19 02.0000000  0  4                                             
E04  25989426.479 6 136574842.009 6      -557.305 6        37.892               
E13  25467149.827 6 134030642.210 6     -1784.280 6        40.089               
E21  23649747.700 6 124279752.627 6      -561.199 6        41.542               
E27  26437117.150 6 138657235.646 6      2421.279 6        37.336               
> 2025 01 07 14 19 03.0000000  0  4                                             
E04  25989537.231 6 136575399.413 6      -557.848 6        37.886               
E13  25466811.281 6 134032425.623 6     -1783.605 6        40.263               
E21  23649861.186 6 124280313.971 6      -561.115 6        41.381               
E27  26437579.556 6 138654815.001 6      2422.224 6        37.690               
> 2025 01 07 14 19 04.0000000  0  4                                             
E04  25989642.525 6 136575957.797 6      -559.614 6        37.807               
E13  25466476.272 6 134034208.160 6     -1781.006 6        40.182               
E21  23649965.666 6 124280875.992 6      -562.149 6        41.296               
E27  26438043.847 6 138652393.785 6      2423.290 6        37.737               
> 2025 01 07 14 19 05.0000000  0  4                                             
E04  25989753.036 6 136576517.276 6      -561.198 6        38.107               
E13  25466135.171 6 134035989.710 6     -1780.253 6        40.238               
E21  23650076.811 6 124281438.870 6      -563.933 6        41.043               
E27  26438503.679 6 138649971.872 6      2421.739 6        37.604               
> 2025 01 07 14 19 06.0000000  0  5                                             
E04  25989857.364 6 136577077.197 6      -562.283 6        38.360               
E13  25465802.342 6 134037770.922 6     -1781.783 6        40.161               
E15  26202831.619 6 137696809.656 6      -980.474 6        37.869               
E21  23650184.168 6 124282001.880 6      -562.361 6        41.041               
E27  26438967.059 6 138647549.887 6      2421.953 6        37.977               
> 2025 01 07 14 19 07.0000000  0  5                                             
E04  25989969.447 6 136577637.826 6      -560.801 6        37.972               
E13  25465463.179 6 134039551.513 6     -1780.666 6        40.156               
E15  26203015.742 6 137697788.974 6      -979.735 6        37.944               
E21  23650294.420 6 124282565.339 6      -565.005 6        41.198               
E27  26439431.359 6 138645127.618 6      2424.976 6        38.105               
> 2025 01 07 14 19 08.0000000  0  5                                             
E04  25990077.877 6 136578199.205 6      -561.855 6        37.992               
E13  25465124.248 6 134041331.486 6     -1779.246 6        40.237               
E15  26203205.037 6 137698769.049 6      -979.153 6        37.925               
E21  23650399.660 6 124283129.260 6      -564.090 6        41.179               
E27  26439896.105 6 138642704.994 6      2426.669 6        38.154               
> 2025 01 07 14 19 09.0000000  0  5                                             
E04  25990184.045 6 136578761.173 6      -563.041 6        38.275               
E13  25464790.393 6 134043110.958 6     -1777.856 6        40.183               
E15  26203393.457 6 137699749.723 6      -978.529 6        37.589               
E21  23650512.127 6 124283693.495 6      -565.477 6        41.445               
E27  26440353.516 6 138640282.183 6      2425.601 6        38.279               
> 2025 01 07 14 19 10.0000000  0  5                                             
E04  25990295.110 6 136579323.483 6      -562.518 6        38.217               
E13  25464450.300 6 134044890.216 6     -1778.903 6        40.083               
E15  26203581.823 6 137700730.747 6      -981.612 6        37.580               
E21  23650621.468 6 124284257.789 6      -563.382 6        41.422               
E27  26440825.500 6 138637859.457 6      2425.019 6        38.425               
> 2025 01 07 14 19 11.0000000  0  5                                             
E04  25990405.326 6 136579886.128 6      -562.229 6        38.293               
E13  25464112.075 6 134046669.247 6     -1778.682 6        39.781               
E15  26203764.945 6 137701712.101 6      -982.389 6        37.660               
E21  23650730.987 6 124284822.150 6      -564.842 6        41.559               
E27  26441278.891 6 138635436.799 6      2421.500 6        38.245               
> 2025 01 07 14 19 12.0000000  0  5                                             
E04  25990508.574 6 136580448.527 6      -565.122 6        38.076               
E13  25463780.426 6 134048448.602 6     -1778.652 6        39.756               
E15  26203956.715 6 137702693.261 6      -984.768 6        37.544               
E21  23650836.629 6 124285385.975 6      -563.889 6        41.628               
E27  26441748.694 6 138633014.778 6      2421.510 6        38.462               
> 2025 01 07 14 19 13.0000000  0  5                                             
E04  25990615.153 6 136581012.333 6      -564.285 6        37.686               
E13  25463443.524 6 134050226.677 6     -1780.894 6        39.871               
E15  26204145.234 6 137703675.800 6      -982.694 6        37.571               
E21  23650947.050 6 124285950.952 6      -564.411 6        41.635               
E27  26442210.840 6 138630591.711 6      2422.417 6        38.313               
> 2025 01 07 14 19 14.0000000  0  5                                             
E04  25990727.308 6 136581575.685 6      -560.955 6        37.589               
E13  25463105.388 6 134052005.289 6     -1777.939 6        40.020               
E15  26204328.525 6 137704657.908 6      -982.029 6        37.503               
E21  23651058.276 6 124286515.175 6      -564.929 6        41.368               
E27  26442672.978 6 138628169.546 6      2422.754 6        38.196               
> 2025 01 07 14 19 15.0000000  0  5                                             
E04  25990840.669 6 136582140.000 6      -564.171 6        37.853               
E13  25462771.863 6 134053783.063 6     -1776.389 6        39.818               
E15  26204521.225 6 137705641.006 6      -984.804 6        37.397               
E21  23651168.117 6 124287080.065 6      -564.427 6        41.363               
E27  26443134.624 6 138625746.847 6      2421.784 6        38.284               
> 2025 01 07 14 19 16.0000000  0  5                                             
E04  25990950.796 6 136582704.885 6      -565.514 6        37.997               
E13  25462434.889 6 134055560.386 6     -1778.593 6        39.947               
E15  26204712.941 6 137706624.667 6      -984.496 6        37.413               
E21  23651276.922 6 124287645.276 6      -565.589 6        41.626               
E27  26443596.851 6 138623323.912 6      2421.275 6        38.473               
> 2025 01 07 14 19 17.0000000  0  5                                             
E04  25991055.393 6 136583270.082 6      -565.619 6        37.895               
E13  25462098.272 6 134057337.497 6     -1777.013 6        39.786               
E15  26204900.325 6 137707608.645 6      -983.843 6        37.369               
E21  23651386.280 6 124288210.510 6      -566.146 6        41.449               
E27  26444062.831 6 138620901.088 6      2425.716 6        38.546               
> 2025 01 07 14 19 18.0000000  0  5                                             
E04  25991166.270 6 136583835.836 6      -564.069 6        37.717               
E13  25461762.353 6 134059114.137 6     -1775.587 6        39.773               
E15  26205086.753 6 137708593.176 6      -983.983 6        37.443               
E21  23651496.666 6 124288776.020 6      -566.033 6        41.147               
E27  26444522.484 6 138618478.152 6      2424.527 6        38.244               
> 2025 01 07 14 19 19.0000000  0  5                                             
E04  25991274.306 6 136584402.875 6      -568.629 6        38.048               
E13  25461420.733 6 134060889.615 6     -1774.825 6        39.811               
E15  26205281.346 6 137709579.028 6      -986.218 6        37.517               
E21  23651605.283 6 124289342.532 6      -568.419 6        41.346               
E27  26444990.099 6 138616054.288 6      2425.625 6        38.464               
> 2025 01 07 14 19 20.0000000  0  5                                             
E04  25991384.370 6 136584970.477 6      -566.793 6        37.978               
E13  25461088.270 6 134062664.624 6     -1775.556 6        39.695               
E15  26205466.961 6 137710565.462 6      -988.009 6        37.603               
E21  23651713.801 6 124289909.344 6      -566.982 6        40.992               
E27  26445453.076 6 138613630.282 6      2422.811 6        38.710               
> 2025 01 07 14 19 21.0000000  0  5                                             
E04  25991495.944 6 136585538.484 6      -569.834 6        37.897               
E13  25460748.491 6 134064439.357 6     -1775.308 6        39.429               
E15  26205657.587 6 137711552.262 6      -987.543 6        37.612               
E21  23651823.133 6 124290476.255 6      -567.879 6        41.179               
E27  26445912.820 6 138611206.285 6      2427.280 6        38.290               
> 2025 01 07 14 19 22.0000000  0  5                                             
E04  25991604.097 6 136586106.778 6      -566.532 6        37.713               
E13  25460415.466 6 134066213.889 6     -1773.674 6        39.674               
E15  26205844.122 6 137712539.398 6      -986.890 6        37.377               
E21  23651931.491 6 124291043.183 6      -565.500 6        41.546               
E27  26446372.456 6 138608782.398 6      2423.358 6        38.404               
> 2025 01 07 14 19 23.0000000  0  5                                             
E04  25991714.268 6 136586674.811 6      -570.286 6        37.706               
E13  25460082.924 6 134067988.802 6     -1774.634 6        39.733               
E15  26206036.545 6 137713526.262 6      -985.715 6        37.461               
E21  23652043.083 6 124291609.586 6      -567.966 6        41.365               
E27  26446837.836 6 138606359.171 6      2422.392 6        38.474               
> 2025 01 07 14 19 24.0000000  0  5                                             
E04  25991827.075 6 136587243.697 6      -568.856 6        37.831               
E13  25459743.305 6 134069762.961 6     -1773.978 6        39.652               
E15  26206225.742 6 137714514.027 6      -988.217 6        37.316               
E21  23652152.236 6 124292176.555 6      -566.965 6        41.313               
E27  26447301.466 6 138603935.472 6      2422.403 6        38.456               
> 2025 01 07 14 19 25.0000000  0  5                                             
E04  25991936.577 6 136587812.665 6      -568.268 6        38.138               
E13  25459409.226 6 134071537.131 6     -1773.009 6        39.722               
E15  26206416.521 6 137715501.854 6      -988.084 6        37.280               
E21  23652263.729 6 124292743.335 6      -568.371 6        41.702               
E27  26447761.236 6 138601512.091 6      2422.275 6        38.616               
> 2025 01 07 14 19 26.0000000  0  5                                             
E04  25992046.158 6 136588382.875 6      -571.701 6        37.859               
E13  25459079.658 6 134073310.173 6     -1772.702 6        39.749               
E15  26206609.640 6 137716490.951 6      -989.580 6        37.263               
E21  23652369.568 6 124293311.059 6      -567.560 6        41.354               
E27  26448223.534 6 138599087.892 6      2422.844 6        38.532               
> 2025 01 07 14 19 27.0000000  0  5                                             
E04  25992160.011 6 136588952.562 6      -569.902 6        38.061               
E13  25458741.130 6 134075083.862 6     -1773.395 6        39.717               
E15  26206795.808 6 137717479.488 6      -988.412 6        37.399               
E21  23652481.115 6 124293878.004 6      -568.171 6        41.230               
E27  26448691.292 6 138596664.608 6      2424.579 6        38.294               
> 2025 01 07 14 19 28.0000000  0  5                                             
E04  25992267.457 6 136589523.132 6      -569.827 6        37.891               
E13  25458405.764 6 134076856.734 6     -1771.159 6        39.932               
E15  26206981.619 6 137718468.954 6      -987.660 6        37.200               
E21  23652590.473 6 124294445.536 6      -568.607 6        41.045               
E27  26449153.563 6 138594240.865 6      2423.967 6        38.296               
> 2025 01 07 14 19 29.0000000  0  5                                             
E04  25992380.658 6 136590094.549 6      -571.389 6        37.884               
E13  25458071.256 6 134078628.870 6     -1773.190 6        39.772               
E15  26207177.669 6 137719459.292 6      -991.347 6        37.243               
E21  23652703.477 6 124295013.670 6      -568.425 6        41.227               
E27  26449616.487 6 138591816.632 6      2423.340 6        38.360               
> 2025 01 07 14 19 30.0000000  0  5                                             
E04  25992486.398 6 136590666.355 6      -571.530 6        37.836               
E13  25457733.790 6 134080400.733 6     -1770.286 6        39.872               
E15  26207368.260 6 137720450.033 6      -989.514 6        37.252               
E21  23652811.540 6 124295581.902 6      -569.648 6        41.268               
E27  26450078.062 6 138589392.438 6      2425.578 6        38.323               
> 2025 01 07 14 19 31.0000000  0  5                                             
E04  25992600.268 6 136591239.386 6      -573.941 6        38.366               
E13  25457395.414 6 134082171.504 6     -1770.333 6        39.619               
E15  26207557.493 6 137721441.960 6      -991.555 6        37.446               
E21  23652919.844 6 124296151.039 6      -569.385 6        41.320               
E27  26450537.903 6 138586967.458 6      2424.649 6        38.641               
> 2025 01 07 14 19 32.0000000  0  5                                             
E04  25992712.217 6 136591813.031 6      -574.002 6        38.518               
E13  25457062.648 6 134083941.739 6     -1770.065 6        39.884               
E15  26207745.699 6 137722434.549 6      -993.106 6        37.042               
E21  23653031.445 6 124296720.542 6      -568.356 6        41.037               
E27  26451012.800 6 138584542.201 6      2424.728 6        38.296               
> 2025 01 07 14 19 33.0000000  0  5                                             
E04  25992825.051 6 136592386.331 6      -573.365 6        38.863               
E13  25456727.425 6 134085712.412 6     -1769.724 6        39.594               
E15  26207936.040 6 137723426.778 6      -991.419 6        37.384               
E21  23653142.859 6 124297289.435 6      -568.993 6        40.907               
E27  26451471.712 6 138582117.715 6      2426.160 6        38.372               
> 2025 01 07 14 19 34.0000000  0  5                                             
E04  25992931.613 6 136592960.188 6      -572.715 6        38.446               
E13  25456389.843 6 134087482.633 6     -1769.111 6        39.887               
E15  26208130.955 6 137724419.618 6      -993.207 6        37.386               
E21  23653250.859 6 124297858.596 6      -568.498 6        41.171               
E27  26451933.456 6 138579693.088 6      2421.213 6        38.549               
> 2025 01 07 14 19 35.0000000  0  5                                             
E04  25993043.670 6 136593534.289 6      -573.716 6        38.403               
E13  25456054.397 6 134089252.744 6     -1769.746 6        39.922               
E15  26208323.118 6 137725412.667 6      -994.779 6        37.710               
E21  23653359.860 6 124298427.715 6      -568.800 6        41.246               
E27  26452392.324 6 138577268.607 6      2422.113 6        38.481               
> 2025 01 07 14 19 36.0000000  0  5                                             
E04  25993154.940 6 136594108.929 6      -574.591 6        38.470               
E13  25455722.855 6 134091022.415 6     -1768.606 6        39.810               
E15  26208514.925 6 137726406.242 6      -993.077 6        38.040               
E21  23653472.524 6 124298997.083 6      -571.493 6        41.429               
E27  26452856.936 6 138574844.031 6      2423.166 6        38.575               
> 2025 01 07 14 19 37.0000000  0  5                                             
E04  25993271.044 6 136594684.791 6      -576.075 6        38.603               
E13  25455388.874 6 134092790.972 6     -1768.140 6        40.115               
E15  26208703.782 6 137727401.084 6      -994.395 6        37.914               
E21  23653584.331 6 124299567.401 6      -569.696 6        41.145               
E27  26453324.953 6 138572418.592 6      2425.186 6        38.271               
> 2025 01 07 14 19 38.0000000  0  5                                             
E04  25993381.841 6 136595261.059 6      -576.913 6        38.678               
E13  25455050.917 6 134094559.206 6     -1768.883 6        40.041               
E15  26208896.142 6 137728396.386 6      -997.729 6        37.768               
E21  23653692.108 6 124300137.867 6      -570.189 6        41.375               
E27  26453782.739 6 138569993.161 6      2423.021 6        38.237               
> 2025 01 07 14 19 39.0000000  0  5                                             
E04  25993490.628 6 136595837.710 6      -577.218 6        38.960               
E13  25454719.760 6 134096327.178 6     -1767.468 6        40.150               
E15  26209084.669 6 137729392.015 6      -996.696 6        37.770               
E21  23653803.324 6 124300708.419 6      -571.212 6        41.637               
E27  26454252.534 6 138567567.751 6      2424.922 6        38.316               
> 2025 01 07 14 19 40.0000000  0  5                                             
E04  25993602.336 6 136596415.093 6      -576.682 6        38.923               
E13  25454384.903 6 134098094.498 6     -1767.067 6        40.295               
E15  26209280.362 6 137730388.415 6      -998.016 6        38.086               
E21  23653911.253 6 124301279.443 6      -570.670 6        41.760               
E27  26454705.076 6 138565142.004 6      2426.044 6        38.127               
> 2025 01 07 14 19 41.0000000  0  5                                             
E04  25993716.939 6 136596993.714 6      -579.500 6        38.757               
E13  25454049.037 6 134099860.731 6     -1768.593 6        40.537               
E15  26209473.008 6 137731386.029 6      -997.264 6        37.826               
E21  23654023.641 6 124301851.387 6      -570.088 6        41.538               
E27  26455176.881 6 138562715.443 6      2427.002 6        38.104               
> 2025 01 07 14 19 42.0000000  0  5                                             
E04  25993826.029 6 136597572.557 6      -577.963 6        38.841               
E13  25453713.385 6 134101626.800 6     -1766.016 6        40.292               
E15  26209664.519 6 137732383.921 6      -998.784 6        37.858               
E21  23654133.213 6 124302423.334 6      -572.135 6        41.200               
E27  26455637.499 6 138560288.998 6      2429.514 6        38.228               
> 2025 01 07 14 19 43.0000000  0  5                                             
E04  25993939.310 6 136598151.806 6      -580.918 6        38.720               
E13  25453383.469 6 134103392.571 6     -1764.759 6        39.913               
E15  26209856.057 6 137733382.206 6      -995.684 6        37.689               
E21  23654242.295 6 124302995.365 6      -571.867 6        41.205               
E27  26456100.316 6 138557862.606 6      2425.347 6        38.089               
> 2025 01 07 14 19 44.0000000  0  5                                             
E04  25994049.053 6 136598731.190 6      -579.794 6        38.884               
E13  25453047.335 6 134105158.338 6     -1766.607 6        39.915               
E15  26210047.828 6 137734380.616 6      -997.773 6        38.012               
E21  23654356.666 6 124303567.251 6      -570.623 6        40.697               
E27  26456565.179 6 138555436.476 6      2427.012 6        38.084               
> 2025 01 07 14 19 45.0000000  0  5                                             
E04  25994164.442 6 136599310.750 6      -580.466 6        38.733               
E13  25452710.719 6 134106924.001 6     -1765.846 6        39.896               
E15  26210240.098 6 137735379.251 6      -999.793 6        38.083               
E21  23654463.594 6 124304139.062 6      -572.049 6        41.009               
E27  26457023.233 6 138553010.572 6      2426.126 6        38.001               
> 2025 01 07 14 19 46.0000000  0  5                                             
E04  25994275.096 6 136599890.526 6      -578.312 6        38.551               
E13  25452378.721 6 134108689.568 6     -1764.846 6        39.933               
E15  26210423.372 6 137736378.070 6      -996.975 6        37.844               
E21  23654575.427 6 124304710.787 6      -571.868 6        41.076               
E27  26457491.187 6 138550584.846 6      2424.916 6        38.288               
> 2025 01 07 14 19 47.0000000  0  5                                             
E04  25994388.859 6 136600471.430 6      -582.693 6        38.744               
E13  25452043.239 6 134110454.126 6     -1764.899 6        40.011               
E15  26210621.977 6 137737378.063 6     -1000.548 6        37.801               
E21  23654687.332 6 124305283.368 6      -572.899 6        41.051               
E27  26457954.415 6 138548158.409 6      2426.435 6        38.031               
> 2025 01 07 14 19 48.0000000  0  5                                             
E04  25994499.602 6 136601052.700 6      -581.610 6        38.631               
E13  25451712.341 6 134112218.403 6     -1764.796 6        39.792               
E15  26210812.720 6 137738378.424 6      -999.412 6        37.910               
E21  23654796.878 6 124305856.048 6      -571.535 6        40.968               
E27  26458417.821 6 138545731.983 6      2425.861 6        38.169               
> 2025 01 07 14 19 49.0000000  0  5                                             
E04  25994612.570 6 136601634.537 6      -582.673 6        38.538               
E13  25451379.601 6 134113982.208 6     -1762.261 6        39.743               
E15  26211004.839 6 137739379.341 6     -1001.199 6        37.921               
E21  23654908.836 6 124306429.004 6      -574.730 6        41.079               
E27  26458879.458 6 138543305.401 6      2427.009 6        37.929               
> 2025 01 07 14 19 50.0000000  0  5                                             
E04  25994724.153 6 136602217.256 6      -582.149 6        38.809               
E13  25451044.522 6 134115745.263 6     -1764.663 6        40.170               
E15  26211197.949 6 137740381.156 6     -1001.031 6        37.693               
E21  23655018.650 6 124307002.554 6      -573.438 6        41.422               
E27  26459338.397 6 138540878.363 6      2425.040 6        37.978               
> 2025 01 07 14 19 51.0000000  0  5                                             
E04  25994836.728 6 136602800.363 6      -583.547 6        38.758               
E13  25450708.834 6 134117508.008 6     -1762.699 6        40.089               
E15  26211389.345 6 137741383.402 6     -1001.398 6        37.514               
E21  23655131.422 6 124307576.255 6      -574.824 6        41.121               
E27  26459805.360 6 138538451.283 6      2425.484 6        38.426               
> 2025 01 07 14 19 52.0000000  0  5                                             
E04  25994951.054 6 136603383.967 6      -584.105 6        38.711               
E13  25450377.525 6 134119270.402 6     -1763.175 6        40.218               
E15  26211577.425 6 137742386.082 6     -1001.663 6        37.236               
E21  23655239.270 6 124308150.099 6      -572.642 6        41.189               
E27  26460268.793 6 138536024.171 6      2427.581 6        38.112               
> 2025 01 07 14 19 53.0000000  0  5                                             
E04  25995061.413 6 136603968.271 6      -584.862 6        38.642               
E13  25450040.425 6 134121032.156 6     -1759.846 6        40.032               
E15  26211771.545 6 137743389.553 6     -1004.905 6        37.360               
E21  23655353.587 6 124308724.436 6      -574.609 6        41.068               
E27  26460736.657 6 138533596.714 6      2426.433 6        38.396               
> 2025 01 07 14 19 54.0000000  0  5                                             
E04  25995171.978 6 136604552.960 6      -585.279 6        38.320               
E13  25449708.410 6 134122793.634 6     -1761.327 6        39.665               
E15  26211969.328 6 137744393.377 6     -1004.372 6        37.323               
E21  23655461.159 6 124309298.860 6      -574.411 6        41.201               
E27  26461198.464 6 138531169.321 6      2425.751 6        38.235               
> 2025 01 07 14 19 55.0000000  0  5                                             
E04  25995286.616 6 136605138.363 6      -586.462 6        38.321               
E13  25449374.858 6 134124554.515 6     -1760.719 6        40.347               
E15  26212164.798 6 137745397.932 6     -1006.521 6        37.300               
E21  23655572.438 6 124309873.727 6      -574.547 6        41.201               
E27  26461661.317 6 138528741.558 6      2429.417 6        38.675               
> 2025 01 07 14 19 56.0000000  0  5                                             
E04  25995397.476 6 136605724.073 6      -584.791 6        38.116               
E13  25449042.905 6 134126315.159 6     -1760.219 6        40.334               
E15  26212353.682 6 137746402.813 6     -1006.623 6        37.577               
E21  23655687.774 6 124310448.628 6      -573.625 6        41.192               
E27  26462125.429 6 138526313.912 6      2425.641 6        38.378               
> 2025 01 07 14 19 57.0000000  0  5                                             
E04  25995511.605 6 136606310.167 6      -587.780 6        38.005               
E13  25448708.781 6 134128075.557 6     -1760.367 6        40.489               
E15  26212547.454 6 137747408.054 6     -1003.907 6        37.733               
E21  23655795.041 6 124311023.598 6      -575.503 6        41.042               
E27  26462592.096 6 138523886.306 6      2428.809 6        38.074               
> 2025 01 07 14 19 58.0000000  0  5                                             
E04  25995629.166 6 136606896.629 6      -586.889 6        38.167               
E13  25448372.995 6 134129835.684 6     -1759.818 6        40.692               
E15  26212744.236 6 137748413.713 6     -1006.368 6        37.644               
E21  23655905.115 6 124311598.682 6      -575.617 6        40.999               
E27  26463056.548 6 138521458.725 6      2429.148 6        37.902               
> 2025 01 07 14 19 59.0000000  0  5                                             
E04  25995739.855 6 136607483.478 6      -588.099 6        38.179               
E13  25448045.117 6 134131595.513 6     -1758.685 6        40.132               
E15  26212933.309 6 137749419.745 6     -1008.608 6        37.591               
E21  23656015.590 6 124312173.879 6      -576.297 6        40.594               
E27  26463516.202 6 138519031.156 6      2426.423 6        37.912               
> 2025 01 07 14 20 00.0000000  0  5                                             
E04  25995849.133 6 136608071.204 6      -588.401 6        38.008               
E13  25447711.591 6 134133354.579 6     -1759.671 6        40.226               
E15  26213129.627 6 137750426.691 6     -1006.648 6        37.275               
E21  23656127.655 6 124312749.685 6      -576.449 6        40.725               
E27  26463984.969 6 138516603.105 6      2427.973 6        38.055               
> 2025 01 07 14 20 01.0000000  0  5                                             
E04  25995966.247 6 136608659.503 6      -589.744 6        38.143               
E13  25447372.777 6 134135113.179 6     -1758.129 6        40.202               
E15  26213318.886 6 137751434.177 6     -1010.260 6        37.281               
E21  23656239.730 6 124313325.756 6      -576.065 6        40.972               
E27  26464449.608 6 138514174.890 6      2427.069 6        38.168               
> 2025 01 07 14 20 02.0000000  0  5                                             
E04  25996079.849 6 136609248.229 6      -588.937 6        37.717               
E13  25447044.237 6 134136871.440 6     -1758.598 6        39.865               
E15  26213515.079 6 137752442.127 6     -1011.031 6        37.470               
E21  23656352.037 6 124313901.982 6      -576.559 6        40.886               
E27  26464912.165 6 138511746.666 6      2429.440 6        38.051               
> 2025 01 07 14 20 03.0000000  0  5                                             
E04  25996191.959 6 136609837.646 6      -590.214 6        37.694               
E13  25446710.667 6 134138629.133 6     -1757.732 6        39.863               
E15  26213705.438 6 137753450.758 6     -1008.110 6        37.356               
E21  23656460.511 6 124314478.632 6      -579.050 6        40.895               
E27  26465369.773 6 138509318.138 6      2428.217 6        37.829               
> 2025 01 07 14 20 04.0000000  0  5                                             
E04  25996305.356 6 136610427.381 6      -589.691 6        37.855               
E13  25446375.578 6 134140386.627 6     -1757.584 6        39.917               
E15  26213901.408 6 137754459.695 6     -1007.775 6        37.272               
E21  23656572.183 6 124315055.291 6      -575.616 6        41.325               
E27  26465838.424 6 138506889.697 6      2427.057 6        37.790               
> 2025 01 07 14 20 05.0000000  0  5                                             
E04  25996418.083 6 136611017.222 6      -589.909 6        38.125               
E13  25446047.655 6 134142144.093 6     -1757.979 6        39.784               
E15  26214095.295 6 137755468.791 6     -1009.252 6        37.402               
E21  23656687.313 6 124315631.806 6      -577.803 6        41.256               
E27  26466305.520 6 138504461.579 6      2425.699 6        38.117               
> 2025 01 07 14 20 06.0000000  0  5                                             
E04  25996538.234 6 136611608.136 6      -592.422 6        38.148               
E13  25445712.691 6 134143900.558 6     -1755.207 6        39.845               
E15  26214286.074 6 137756478.962 6     -1008.893 6        37.551               
E21  23656798.110 6 124316209.127 6      -577.985 6        41.402               
E27  26466768.587 6 138502032.725 6      2430.015 6        37.902               
> 2025 01 07 14 20 07.0000000  0  5                                             
E04  25996651.890 6 136612199.449 6      -590.279 6        37.980               
E13  25445377.951 6 134145656.777 6     -1755.366 6        39.847               
E15  26214485.001 6 137757489.532 6     -1007.469 6        37.404               
E21  23656910.390 6 124316786.544 6      -578.261 6        41.353               
E27  26467233.307 6 138499603.919 6      2427.060 6        37.785               
> 2025 01 07 14 20 08.0000000  0  5                                             
E04  25996764.108 6 136612790.466 6      -589.887 6        37.960               
E13  25445044.363 6 134147413.361 6     -1757.529 6        39.785               
E15  26214676.682 6 137758499.837 6     -1014.182 6        37.178               
E21  23657019.704 6 124317363.408 6      -576.972 6        41.361               
E27  26467695.373 6 138497175.786 6      2428.160 6        37.903               
> 2025 01 07 14 20 09.0000000  0  5                                             
E04  25996879.497 6 136613382.084 6      -590.953 6        38.013               
E13  25444716.609 6 134149169.452 6     -1756.137 6        39.890               
E15  26214873.625 6 137759510.733 6     -1011.980 6        37.166               
E21  23657134.360 6 124317940.586 6      -576.645 6        41.441               
E27  26468155.554 6 138494747.496 6      2427.480 6        37.907               
> 2025 01 07 14 20 10.0000000  0  5                                             
E04  25996997.138 6 136613974.110 6      -593.544 6        38.084               
E13  25444380.377 6 134150925.256 6     -1755.421 6        39.917               
E15  26215066.638 6 137760522.017 6     -1011.412 6        37.129               
E21  23657245.676 6 124318517.879 6      -578.083 6        41.190               
E27  26468622.632 6 138492319.199 6      2428.769 6        37.750               
> 2025 01 07 14 20 11.0000000  0  5                                             
E04  25997105.433 6 136614567.169 6      -594.284 6        38.252               
E13  25444051.792 6 134152680.071 6     -1752.671 6        39.704               
E15  26215257.095 6 137761534.419 6     -1013.859 6        37.174               
E21  23657357.473 6 124319095.965 6      -578.484 6        41.370               
E27  26469089.889 6 138489890.209 6      2426.089 6        37.839               
> 2025 01 07 14 20 12.0000000  0  5                                             
E04  25997220.304 6 136615161.940 6      -595.144 6        38.191               
E13  25443719.151 6 134154433.366 6     -1754.157 6        39.846               
E15  26215455.753 6 137762548.463 6     -1015.410 6        37.193               
E21  23657467.296 6 124319675.432 6      -578.237 6        41.215               
E27  26469549.668 6 138487459.969 6      2428.585 6        37.780               
> 2025 01 07 14 20 13.0000000  0  5                                             
E04  25997338.186 6 136615756.035 6      -593.696 6        38.538               
E13  25443386.796 6 134156187.392 6     -1753.794 6        39.516               
E15  26215652.027 6 137763561.880 6     -1011.066 6        37.254               
E21  23657580.979 6 124320253.987 6      -578.732 6        41.022               
E27  26470017.712 6 138485030.759 6      2430.483 6        37.949               
> 2025 01 07 14 20 14.0000000  0  5                                             
E04  25997453.405 6 136616350.912 6      -596.332 6        38.285               
E13  25443055.514 6 134157940.751 6     -1753.215 6        39.562               
E15  26215844.280 6 137764576.083 6     -1014.077 6        37.265               
E21  23657692.812 6 124320833.012 6      -579.533 6        41.189               
E27  26470477.267 6 138482601.224 6      2427.516 6        38.356               
> 2025 01 07 14 20 15.0000000  0  5                                             
E04  25997571.904 6 136616945.562 6      -595.643 6        38.059               
E13  25442721.774 6 134159694.431 6     -1753.310 6        39.879               
E15  26216040.017 6 137765590.068 6     -1014.756 6        37.296               
E21  23657804.449 6 124321411.563 6      -577.700 6        41.173               
E27  26470943.702 6 138480172.284 6      2429.090 6        38.306               
> 2025 01 07 14 20 16.0000000  0  5                                             
E04  25997684.461 6 136617540.907 6      -595.684 6        38.165               
E13  25442391.858 6 134161447.495 6     -1752.903 6        40.068               
E15  26216236.433 6 137766604.779 6     -1015.619 6        37.400               
E21  23657918.409 6 124321990.530 6      -581.341 6        41.471               
E27  26471407.359 6 138477743.031 6      2428.554 6        38.105               
> 2025 01 07 14 20 17.0000000  0  5                                             
E04  25997797.688 6 136618137.742 6      -598.249 6        37.856               
E13  25442061.648 6 134163199.195 6     -1751.822 6        40.052               
E15  26216424.719 6 137767620.932 6     -1017.056 6        37.643               
E21  23658029.411 6 124322570.690 6      -581.830 6        41.279               
E27  26471877.252 6 138475312.740 6      2429.745 6        38.064               
> 2025 01 07 14 20 18.0000000  0  5                                             
E04  25997914.194 6 136618735.344 6      -596.706 6        37.896               
E13  25441729.936 6 134164950.234 6     -1751.629 6        39.923               
E15  26216622.100 6 137768637.908 6     -1017.659 6        37.498               
E21  23658142.977 6 124323151.344 6      -581.448 6        41.313               
E27  26472337.513 6 138472882.067 6      2429.222 6        38.035               
> 2025 01 07 14 20 19.0000000  0  5                                             
E04  25998029.056 6 136619332.683 6      -597.103 6        38.059               
E13  25441394.722 6 134166701.618 6     -1751.459 6        39.787               
E15  26216817.748 6 137769654.616 6     -1016.119 6        37.578               
E21  23658253.462 6 124323731.474 6      -581.162 6        41.193               
E27  26472799.776 6 138470452.026 6      2430.028 6        38.012               
> 2025 01 07 14 20 20.0000000  0  5                                             
E04  25998143.248 6 136619930.474 6      -598.410 6        38.046               
E13  25441068.032 6 134168452.662 6     -1751.135 6        40.011               
E15  26217015.433 6 137770671.809 6     -1016.015 6        37.320               
E21  23658363.776 6 124324311.768 6      -580.613 6        41.254               
E27  26473266.273 6 138468021.959 6      2426.833 6        37.917               
> 2025 01 07 14 20 21.0000000  0  5                                             
E04  25998261.675 6 136620528.665 6      -598.936 6        38.232               
E13  25440733.416 6 134170203.423 6     -1749.896 6        40.182               
E15  26217211.912 6 137771689.361 6     -1016.591 6        37.521               
E21  23658477.789 6 124324892.161 6      -581.574 6        41.357               
E27  26473731.565 6 138465591.917 6      2432.004 6        37.935               
> 2025 01 07 14 20 22.0000000  0  5                                             
E04  25998377.966 6 136621127.118 6      -598.588 6        38.256               
E13  25440399.989 6 134171953.993 6     -1751.652 6        40.033               
E15  26217407.783 6 137772707.236 6     -1017.135 6        37.774               
E21  23658589.399 6 124325472.585 6      -580.173 6        41.466               
E27  26474190.933 6 138463161.952 6      2430.900 6        37.844               
> 2025 01 07 14 20 23.0000000  0  5                                             
E04  25998492.382 6 136621726.365 6      -599.289 6        38.454               
E13  25440075.550 6 134173703.865 6     -1751.654 6        39.975               
E15  26217602.109 6 137773725.899 6     -1019.608 6        37.823               
E21  23658702.242 6 124326053.506 6      -580.022 6        41.131               
E27  26474657.984 6 138460731.640 6      2430.392 6        37.653               
> 2025 01 07 14 20 24.0000000  0  5                                             
E04  25998607.315 6 136622325.674 6      -599.229 6        38.582               
E13  25439742.713 6 134175453.810 6     -1750.515 6        39.752               
E15  26217795.907 6 137774744.601 6     -1018.101 6        37.576               
E21  23658815.425 6 124326634.184 6      -581.727 6        41.352               
E27  26475122.963 6 138458301.687 6      2427.762 6        37.590               
> 2025 01 07 14 20 25.0000000  0  5                                             
E04  25998724.411 6 136622925.098 6      -601.350 6        38.553               
E13  25439410.751 6 134177203.710 6     -1750.219 6        40.276               
E15  26217992.234 6 137775763.476 6     -1017.952 6        37.686               
E21  23658928.142 6 124327214.729 6      -579.598 6        41.264               
E27  26475586.226 6 138455871.966 6      2429.453 6        37.829               
> 2025 01 07 14 20 26.0000000  0  5                                             
E04  25998842.472 6 136623525.189 6      -600.205 6        38.494               
E13  25439082.703 6 134178953.055 6     -1748.066 6        40.142               
E15  26218192.832 6 137776783.015 6     -1021.178 6        37.832               
E21  23659037.545 6 124327795.667 6      -582.346 6        41.526               
E27  26476052.697 6 138453442.007 6      2431.792 6        37.757               
> 2025 01 07 14 20 27.0000000  0  5                                             
E04  25998964.231 6 136624126.188 6      -598.469 6        38.790               
E13  25438748.346 6 134180701.590 6     -1748.696 6        40.447               
E15  26218388.980 6 137777803.462 6     -1021.524 6        37.935               
E21  23659154.659 6 124328377.239 6      -582.652 6        41.743               
E27  26476516.220 6 138451011.552 6      2427.874 6        37.640               
> 2025 01 07 14 20 28.0000000  0  5                                             
E04  25999071.588 6 136624727.428 6      -600.072 6        38.727               
E13  25438422.281 6 134182449.996 6     -1748.026 6        40.431               
E15  26218579.705 6 137778824.141 6     -1020.928 6        37.935               
E21  23659265.367 6 124328958.741 6      -580.647 6        41.475               
E27  26476980.600 6 138448581.252 6      2430.903 6        37.933               
> 2025 01 07 14 20 29.0000000  0  5                                             
E04  25999189.354 6 136625329.057 6      -600.223 6        38.331               
E13  25438088.586 6 134184198.111 6     -1748.640 6        40.749               
E15  26218775.148 6 137779845.225 6     -1021.927 6        38.075               
E21  23659379.773 6 124329540.376 6      -580.859 6        41.372               
E27  26477443.390 6 138446150.974 6      2430.618 6        38.014               
> 2025 01 07 14 20 30.0000000  0  5                                             
E04  25999306.807 6 136625930.923 6      -602.283 6        38.172               
E13  25437754.811 6 134185946.090 6     -1748.703 6        40.702               
E15  26218969.741 6 137780866.558 6     -1023.935 6        37.893               
E21  23659492.669 6 124330121.972 6      -581.355 6        41.664               
E27  26477910.066 6 138443720.847 6      2428.703 6        37.870               
> 2025 01 07 14 20 31.0000000  0  5                                             
E04  25999424.207 6 136626533.477 6      -602.142 6        38.028               
E13  25437426.575 6 134187693.467 6     -1747.487 6        40.322               
E15  26219168.820 6 137781888.603 6     -1021.336 6        37.600               
E21  23659603.949 6 124330703.987 6      -582.105 6        41.513               
E27  26478376.546 6 138441290.437 6      2428.384 6        37.895               
> 2025 01 07 14 20 32.0000000  0  5                                             
E04  25999534.789 6 136627136.747 6      -602.971 6        38.052               
E13  25437099.411 6 134189440.235 6     -1748.811 6        40.424               
E15  26219362.083 6 137782911.374 6     -1024.339 6        37.686               
E21  23659714.862 6 124331286.433 6      -582.373 6        41.270               
E27  26478836.727 6 138438859.708 6      2432.788 6        37.835               
> 2025 01 07 14 20 33.0000000  0  5                                             
E04  25999656.164 6 136627740.696 6      -604.914 6        38.117               
E13  25436765.323 6 134191186.432 6     -1745.558 6        40.448               
E15  26219561.027 6 137783934.824 6     -1025.647 6        38.124               
E21  23659828.455 6 124331869.257 6      -583.215 6        41.398               
E27  26479302.679 6 138436428.711 6      2430.533 6        37.851               
> 2025 01 07 14 20 34.0000000  0  5                                             
E04  25999773.912 6 136628345.400 6      -604.180 6        37.880               
E13  25436435.872 6 134192931.967 6     -1745.429 6        40.499               
E15  26219754.656 6 137784959.029 6     -1024.632 6        37.939               
E21  23659941.584 6 124332452.585 6      -583.386 6        41.512               
E27  26479766.273 6 138433997.362 6      2430.813 6        37.590               
> 2025 01 07 14 20 35.0000000  0  5                                             
E04  25999892.277 6 136628950.866 6      -605.251 6        37.873               
E13  25436105.036 6 134194676.855 6     -1743.239 6        40.249               
E15  26219949.125 6 137785984.008 6     -1025.542 6        37.515               
E21  23660054.248 6 124333036.366 6      -584.197 6        41.238               
E27  26480227.232 6 138431565.660 6      2432.099 6        37.432               
> 2025 01 07 14 20 36.0000000  0  5                                             
E04  26000009.783 6 136629556.589 6      -605.080 6        38.167               
E13  25435770.760 6 134196421.589 6     -1745.843 6        40.389               
E15  26220150.973 6 137787009.251 6     -1026.346 6        37.432               
E21  23660163.857 6 124333620.154 6      -584.138 6        41.210               
E27  26480695.355 6 138429134.086 6      2432.874 6        37.547               
> 2025 01 07 14 20 37.0000000  0  5                                             
E04  26000121.635 6 136630163.063 6      -605.284 6        38.260               
E13  25435444.016 6 134198165.637 6     -1742.696 6        40.010               
E15  26220345.022 6 137788035.260 6     -1027.499 6        37.722               
E21  23660280.756 6 124334204.412 6      -586.038 6        41.660               
E27  26481161.871 6 138426702.182 6      2431.666 6        37.713               
> 2025 01 07 14 20 38.0000000  0  5                                             
E04  26000240.151 6 136630770.171 6      -605.374 6        38.185               
E13  25435114.663 6 134199909.168 6     -1743.308 6        40.199               
E15  26220545.307 6 137789061.938 6     -1025.890 6        37.837               
E21  23660394.859 6 124334789.044 6      -585.703 6        41.813               
E27  26481629.369 6 138424270.005 6      2432.036 6        37.726               
> 2025 01 07 14 20 39.0000000  0  5                                             
E04  26000355.710 6 136631377.727 6      -608.908 6        38.077               
E13  25434783.818 6 134201652.388 6     -1743.056 6        40.312               
E15  26220743.921 6 137790089.009 6     -1028.406 6        38.113               
E21  23660503.502 6 124335373.782 6      -585.504 6        41.788               
E27  26482089.550 6 138421837.841 6      2431.597 6        37.877               
> 2025 01 07 14 20 40.0000000  0  5                                             
E04  26000473.735 6 136631986.437 6      -609.699 6        38.430               
E13  25434450.873 6 134203394.502 6     -1740.893 6        40.108               
E15  26220942.115 6 137791117.286 6     -1027.919 6        38.035               
E21  23660620.509 6 124335959.442 6      -585.746 6        41.699               
E27  26482556.762 6 138419404.888 6      2432.087 6        37.760               
> 2025 01 07 14 20 41.0000000  0  5                                             
E04  26000594.440 6 136632595.157 6      -608.556 6        38.354               
E13  25434124.317 6 134205136.734 6     -1741.214 6        40.264               
E15  26221136.039 6 137792145.558 6     -1026.981 6        38.111               
E21  23660730.180 6 124336544.840 6      -585.218 6        41.622               
E27  26483017.399 6 138416972.339 6      2431.590 6        37.703               
> 2025 01 07 14 20 42.0000000  0  5                                             
E04  26000707.086 6 136633203.386 6      -608.880 6        38.313               
E13  25433792.882 6 134206879.522 6     -1741.959 6        40.135               
E15  26221335.957 6 137793173.395 6     -1027.489 6        38.241               
E21  23660847.097 6 124337129.472 6      -585.841 6        41.580               
E27  26483484.424 6 138414540.645 6      2432.193 6        37.510               
> 2025 01 07 14 20 43.0000000  0  5                                             
E04  26000823.637 6 136633811.928 6      -608.993 6        38.235               
E13  25433463.422 6 134208622.164 6     -1742.316 6        39.687               
E15  26221528.550 6 137794201.519 6     -1026.652 6        37.854               
E21  23660956.473 6 124337714.108 6      -585.867 6        41.899               
E27  26483945.257 6 138412109.090 6      2432.503 6        37.601               
> 2025 01 07 14 20 44.0000000  0  5                                             
E04  26000939.491 6 136634421.036 6      -609.447 6        38.298               
E13  25433137.152 6 134210364.270 6     -1739.798 6        39.751               
E15  26221729.648 6 137795230.255 6     -1031.946 6        37.898               
E21  23661069.932 6 124338299.071 6      -584.737 6        41.734               
E27  26484410.986 6 138409677.334 6      2432.963 6        37.614               
> 2025 01 07 14 20 45.0000000  0  5                                             
E04  26001064.663 6 136635032.028 6      -611.463 6        38.071               
E13  25432805.788 6 134212104.640 6     -1742.381 6        39.963               
E15  26221926.672 6 137796260.810 6     -1031.673 6        37.448               
E21  23661182.632 7 124338885.605 7      -587.144 7        42.052               
E27  26484879.047 6 138407244.105 6      2433.050 6        37.795               
> 2025 01 07 14 20 46.0000000  0  5                                             
E04  26001180.401 6 136635643.000 6      -610.625 6        38.285               
E13  25432478.964 6 134213845.110 6     -1738.741 6        40.365               
E15  26222126.188 6 137797291.385 6     -1032.306 6        37.436               
E21  23661296.663 6 124339471.852 6      -586.697 6        41.819               
E27  26485340.077 6 138404811.321 6      2434.149 6        37.792               
> 2025 01 07 14 20 47.0000000  0  5                                             
E04  26001297.631 6 136636254.721 6      -613.216 6        38.179               
E13  25432146.984 6 134215584.930 6     -1739.372 6        40.295               
E15  26222323.686 6 137798322.725 6     -1032.331 6        37.818               
E21  23661410.802 6 124340058.589 6      -587.383 6        41.938               
E27  26485807.745 6 138402378.173 6      2436.172 6        37.722               
> 2025 01 07 14 20 48.0000000  0  5                                             
E04  26001421.526 6 136636866.422 6      -614.471 6        38.265               
E13  25431818.972 6 134217324.899 6     -1742.341 6        40.400               
E15  26222520.227 6 137799354.038 6     -1029.691 6        37.679               
E21  23661524.109 6 124340644.990 6      -587.311 6        41.747               
E27  26486272.581 6 138399945.473 6      2433.018 6        37.567               
> 2025 01 07 14 20 49.0000000  0  5                                             
E04  26001536.754 6 136637479.257 6      -614.505 6        38.778               
E13  25431489.994 6 134219063.782 6     -1739.409 6        40.195               
E15  26222720.306 6 137800386.536 6     -1034.597 6        37.852               
E21  23661637.872 6 124341232.279 6      -586.900 6        41.600               
E27  26486740.062 6 138397512.003 6      2433.542 6        37.116               
> 2025 01 07 14 20 50.0000000  0  5                                             
E04  26001656.709 6 136638092.256 6      -613.838 6        38.435               
E13  25431159.676 6 134220802.648 6     -1738.759 6        39.937               
E15  26222919.984 6 137801419.191 6     -1032.850 6        37.886               
E21  23661752.699 6 124341819.450 6      -587.918 6        41.761               
E27  26487197.857 6 138395078.813 6      2434.091 6        37.110               
> 2025 01 07 14 20 51.0000000  0  5                                             
E04  26001768.846 6 136638705.838 6      -612.728 6        38.462               
E13  25430834.585 6 134222540.988 6     -1739.686 6        39.658               
E15  26223122.234 6 137802452.426 6     -1033.468 6        37.657               
E21  23661865.363 6 124342406.942 6      -587.706 6        41.684               
E27  26487662.907 6 138392645.379 6      2435.072 6        37.191               
> 2025 01 07 14 20 52.0000000  0  5                                             
E04  26001891.579 6 136639319.609 6      -612.618 6        38.515               
E13  25430504.973 6 134224279.238 6     -1737.077 6        39.632               
E15  26223313.799 6 137803485.874 6     -1033.141 6        37.381               
E21  23661979.591 6 124342994.335 6      -588.536 6        41.705               
E27  26488127.913 6 138390212.197 6      2433.569 6        37.092               
> 2025 01 07 14 20 53.0000000  0  5                                             
E04  26002008.755 6 136639933.921 6      -614.130 6        38.409               
E13  25430172.976 6 134226017.073 6     -1738.443 6        39.806               
E15  26223511.725 6 137804519.860 6     -1033.650 6        37.263               
E21  23662094.176 6 124343581.988 6      -587.002 6        41.643               
E27  26488594.044 6 138387778.842 6      2432.555 6        36.864               
> 2025 01 07 14 20 54.0000000  0  5                                             
E04  26002128.192 6 136640548.368 6      -613.215 6        38.215               
E13  25429843.533 6 134227754.842 6     -1737.999 6        39.727               
E15  26223713.905 6 137805553.983 6     -1032.478 6        36.998               
E21  23662204.633 7 124344169.489 7      -587.849 7        42.069               
E27  26489060.354 6 138385345.800 6      2434.043 6        37.138               
> 2025 01 07 14 20 55.0000000  0  5                                             
E04  26002248.763 6 136641163.676 6      -615.979 6        38.289               
E13  25429514.002 6 134229491.884 6     -1737.733 6        39.773               
E15  26223909.213 6 137806588.975 6     -1031.989 6        37.444               
E21  23662319.147 6 124344757.560 6      -588.480 6        41.896               
E27  26489527.388 6 138382912.286 6      2432.800 6        37.376               
> 2025 01 07 14 20 56.0000000  0  5                                             
E04  26002370.371 6 136641779.534 6      -616.696 6        38.046               
E13  25429186.909 6 134231228.464 6     -1735.639 6        39.933               
E15  26224114.608 6 137807624.567 6     -1037.118 6        37.590               
E21  23662433.258 6 124345345.950 6      -588.080 6        41.873               
E27  26489989.266 6 138380478.610 6      2431.997 6        37.553               
> 2025 01 07 14 20 57.0000000  0  5                                             
E04  26002488.136 6 136642396.004 6      -615.567 6        38.299               
E13  25428858.593 6 134232964.527 6     -1737.324 6        39.982               
E15  26224306.557 6 137808660.740 6     -1037.777 6        37.615               
E21  23662545.958 6 124345934.647 6      -589.233 6        41.824               
E27  26490454.156 6 138378044.726 6      2431.907 6        36.986               
> 2025 01 07 14 20 58.0000000  0  5                                             
E04  26002603.195 6 136643012.613 6      -616.900 6        38.373               
E13  25428531.357 6 134234700.547 6     -1736.637 6        40.355               
E15  26224509.532 6 137809697.042 6     -1038.314 6        37.458               
E21  23662658.837 6 124346523.207 6      -589.324 6        41.857               
E27  26490924.049 6 138375611.106 6      2435.689 6        37.010               
> 2025 01 07 14 20 59.0000000  0  5                                             
E04  26002724.347 6 136643629.976 6      -618.501 6        38.589               
E13  25428205.185 6 134236435.893 6     -1735.792 6        40.551               
E15  26224709.030 6 137810734.145 6     -1038.372 6        37.576               
E21  23662776.272 6 124347112.249 6      -589.163 6        41.784               
E27  26491386.499 6 138373177.137 6      2434.421 6        37.302               
> 2025 01 07 14 21 00.0000000  0  5                                             
E04  26002844.480 6 136644247.715 6      -619.264 6        39.038               
E13  25427873.089 6 134238170.991 6     -1732.561 6        40.307               
E15  26224907.100 6 137811771.623 6     -1038.804 6        37.642               
E21  23662889.365 6 124347701.383 6      -590.443 6        41.916               
E27  26491848.556 6 138370743.203 6      2433.229 6        37.359               
> 2025 01 07 14 21 01.0000000  0  5                                             
E04  26002968.116 6 136644866.340 6      -619.602 6        38.942               
E13  25427547.846 6 134239905.285 6     -1733.772 6        39.875               
E15  26225105.598 6 137812809.996 6     -1038.630 6        37.924               
E21  23663004.522 6 124348291.123 6      -591.318 6        41.983               
E27  26492312.356 6 138368308.769 6      2436.291 6        37.224               
> 2025 01 07 14 21 02.0000000  0  5                                             
E04  26003084.363 6 136645485.339 6      -617.739 6        38.764               
E13  25427216.742 6 134241639.314 6     -1734.063 6        40.074               
E15  26225303.747 6 137813848.753 6     -1037.902 6        37.708               
E21  23663120.304 7 124348880.976 7      -589.619 7        42.036               
E27  26492779.836 6 138365874.373 6      2432.947 6        37.408               
> 2025 01 07 14 21 03.0000000  0  5                                             
E04  26003202.370 6 136646104.839 6      -619.982 6        38.809               
E13  25426889.730 6 134243372.932 6     -1733.885 6        39.932               
E15  26225500.396 6 137814887.998 6     -1043.059 6        37.313               
E21  23663232.808 6 124349471.031 6      -589.138 6        41.792               
E27  26493248.263 6 138363439.871 6      2433.838 6        37.435               
> 2025 01 07 14 21 04.0000000  0  5                                             
E04  26003325.014 6 136646724.722 6      -620.955 6        38.573               
E13  25426565.202 6 134245106.290 6     -1734.271 6        39.919               
E15  26225702.021 6 137815927.652 6     -1039.336 6        37.327               
E21  23663345.999 6 124350061.204 6      -590.111 6        41.757               
E27  26493712.322 6 138361005.400 6      2434.218 6        37.345               
> 2025 01 07 14 21 05.0000000  0  5                                             
E04  26003440.913 6 136647345.063 6      -620.165 6        38.574               
E13  25426234.866 6 134246839.245 6     -1732.206 6        39.754               
E15  26225902.297 6 137816967.781 6     -1039.222 6        37.293               
E21  23663458.208 6 124350651.565 6      -590.340 6        41.565               
E27  26494177.631 6 138358570.829 6      2433.023 6        37.114               
> 2025 01 07 14 21 06.0000000  0  5                                             
E04  26003560.046 6 136647965.901 6      -619.152 6        38.617               
E13  25425904.575 6 134248571.824 6     -1732.548 6        39.769               
E15  26226098.007 6 137818008.397 6     -1039.069 6        37.419               
E21  23663575.491 6 124351242.132 6      -590.200 6        41.768               
E27  26494636.043 6 138356136.216 6      2433.980 6        37.356               
> 2025 01 07 14 21 07.0000000  0  5                                             
E04  26003684.861 6 136648587.201 6      -621.971 6        38.813               
E13  25425576.822 6 134250304.049 6     -1732.448 6        39.586               
E15  26226298.989 6 137819049.500 6     -1042.399 6        37.190               
E21  23663687.128 6 124351832.877 6      -590.773 6        41.819               
E27  26495108.795 6 138353701.526 6      2433.290 6        37.344               
> 2025 01 07 14 21 08.0000000  0  5                                             
E04  26003809.184 6 136649209.016 6      -622.691 6        38.349               
E13  25425250.998 6 134252035.827 6     -1733.560 6        39.500               
E15  26226502.625 6 137820091.123 6     -1042.697 6        37.101               
E21  23663803.232 6 124352423.891 6      -591.294 6        41.926               
E27  26495573.041 6 138351266.723 6      2436.315 6        37.395               
> 2025 01 07 14 21 09.0000000  0  5                                             
E04  26003926.003 6 136649831.915 6      -622.952 6        38.078               
E13  25424922.297 6 134253766.659 6     -1729.343 6        39.728               
E15  26226705.706 6 137821133.820 6     -1040.619 6        36.925               
E21  23663917.826 6 124353015.671 6      -591.315 6        41.943               
E27  26496035.652 6 138348831.233 6      2440.855 6        37.416               
> 2025 01 07 14 21 10.0000000  0  5                                             
E04  26004044.966 6 136650455.090 6      -621.831 6        38.486               
E13  25424590.469 6 134255497.280 6     -1731.427 6        39.661               
E15  26226903.391 6 137822176.831 6     -1044.479 6        36.778               
E21  23664032.491 6 124353607.483 6      -591.538 6        41.968               
E27  26496499.291 6 138346395.881 6      2434.279 6        37.174               
> 2025 01 07 14 21 11.0000000  0  5                                             
E04  26004162.258 6 136651078.683 6      -622.410 6        38.399               
E13  25424265.557 6 134257227.593 6     -1729.802 6        39.751               
E15  26227102.523 6 137823220.241 6     -1041.810 6        37.153               
E21  23664147.112 6 124354199.403 6      -591.021 6        41.862               
E27  26496968.246 6 138343960.508 6      2434.669 6        37.264               
> 2025 01 07 14 21 12.0000000  0  5                                             
E04  26004286.627 6 136651702.681 6      -623.824 6        38.487               
E13  25423939.340 6 134258957.608 6     -1730.592 6        39.733               
E15  26227308.535 6 137824264.075 6     -1045.261 6        37.300               
E21  23664260.107 6 124354791.469 6      -592.885 6        41.791               
E27  26497434.037 6 138341525.119 6      2435.704 6        37.339               
> 2025 01 07 14 21 13.0000000  0  5                                             
E04  26004410.968 6 136652327.356 6      -625.187 6        38.396               
E13  25423610.899 6 134260687.025 6     -1727.778 6        39.594               
E15  26227506.658 6 137825308.612 6     -1044.355 6        37.484               
E21  23664374.084 6 124355383.943 6      -593.629 6        41.678               
E27  26497903.600 6 138339089.451 6      2435.819 6        37.597               
> 2025 01 07 14 21 14.0000000  0  5                                             
E04  26004527.215 6 136652952.452 6      -624.560 6        38.672               
E13  25423282.939 6 134262416.127 6     -1727.581 6        39.410               
E15  26227709.758 6 137826353.564 6     -1042.539 6        37.492               
E21  23664489.170 7 124355976.565 7      -593.726 7        42.071               
E27  26498363.504 6 138336653.786 6      2433.153 6        37.728               
> 2025 01 07 14 21 15.0000000  0  5                                             
E04  26004649.466 6 136653577.902 6      -625.908 6        38.535               
E13  25422955.659 6 134264145.013 6     -1729.412 6        39.878               
E15  26227909.614 6 137827398.871 6     -1046.347 6        37.376               
E21  23664601.575 6 124356569.223 6      -593.096 6        41.998               
E27  26498827.392 6 138334218.179 6      2435.704 6        37.922               
> 2025 01 07 14 21 16.0000000  0  5                                             
E04  26004766.910 6 136654203.760 6      -627.927 6        38.574               
E13  25422628.308 6 134265873.526 6     -1728.737 6        39.504               
E15  26228107.209 6 137828444.590 6     -1045.618 6        37.233               
E21  23664717.670 6 124357162.045 6      -590.802 6        41.632               
E27  26499296.955 6 138331782.532 6      2437.244 6        38.038               
> 2025 01 07 14 21 17.0000000  0  5                                             
E04  26004892.619 6 136654830.190 6      -628.723 6        38.502               
E13  25422302.207 6 134267601.586 6     -1727.142 6        39.598               
E15  26228307.539 6 137829490.906 6     -1047.276 6        37.214               
E21  23664831.853 6 124357755.167 6      -593.356 6        41.556               
E27  26499758.592 6 138329346.710 6      2434.584 6        37.923               
> 2025 01 07 14 21 18.0000000  0  5                                             
E04  26005009.974 6 136655457.129 6      -627.257 6        38.155               
E13  25421976.803 6 134269329.250 6     -1728.254 6        39.635               
E15  26228513.944 6 137830537.737 6     -1048.819 6        37.337               
E21  23664947.278 6 124358348.511 6      -592.139 6        41.966               
E27  26500230.799 6 138326910.828 6      2437.128 6        37.779               
> 2025 01 07 14 21 19.0000000  0  5                                             
E04  26005129.071 6 136656084.312 6      -629.442 6        38.388               
E13  25421649.148 6 134271056.739 6     -1725.180 6        39.869               
E15  26228714.640 6 137831584.803 6     -1044.713 6        37.350               
E21  23665063.328 7 124358941.840 7      -592.314 7        42.349               
E27  26500693.571 6 138324475.041 6      2438.498 6        37.927               
> 2025 01 07 14 21 20.0000000  0  5                                             
E04  26005252.054 6 136656712.184 6      -626.788 6        38.301               
E13  25421322.681 6 134272783.662 6     -1726.545 6        39.495               
E15  26228912.137 6 137832632.577 6     -1050.223 6        37.345               
E21  23665179.942 7 124359535.546 7      -593.310 7        42.548               
E27  26501154.028 6 138322039.037 6      2435.469 6        37.899               
> 2025 01 07 14 21 21.0000000  0  5                                             
E04  26005373.921 6 136657340.677 6      -628.528 6        38.373               
E13  25420996.723 6 134274510.033 6     -1728.434 6        39.388               
E15  26229114.102 6 137833680.979 6     -1045.835 6        37.425               
E21  23665289.416 7 124360129.610 7      -593.830 7        42.724               
E27  26501619.713 6 138319602.769 6      2434.221 6        38.057               
> 2025 01 07 14 21 22.0000000  0  5                                             
E04  26005492.268 6 136657970.078 6      -629.107 6        38.727               
E13  25420670.560 6 134276235.614 6     -1724.806 6        39.672               
E15  26229313.815 6 137834730.305 6     -1048.911 6        37.192               
E21  23665409.684 7 124360724.317 7      -595.522 7        42.758               
E27  26502087.649 6 138317165.994 6      2436.816 6        37.768               
> 2025 01 07 14 21 23.0000000  0  5                                             
E04  26005612.821 6 136658599.768 6      -631.197 6        38.721               
E13  25420342.091 6 134277961.000 6     -1723.432 6        39.587               
E15  26229516.557 6 137835779.913 6     -1049.507 6        37.139               
E21  23665524.117 7 124361319.023 7      -594.706 7        42.704               
E27  26502558.480 6 138314729.319 6      2435.897 6        37.788               
> 2025 01 07 14 21 24.0000000  0  5                                             
E04  26005733.991 6 136659230.175 6      -630.069 6        38.616               
E13  25420016.151 6 134279685.735 6     -1724.141 6        39.274               
E15  26229720.782 6 137836830.272 6     -1047.631 6        37.384               
E21  23665638.264 7 124361914.193 7      -595.295 7        42.741               
E27  26503019.412 6 138312292.347 6      2436.700 6        37.555               
> 2025 01 07 14 21 25.0000000  0  5                                             
E04  26005857.689 6 136659861.192 6      -630.696 6        38.255               
E13  25419687.978 6 134281410.005 6     -1724.259 6        39.451               
E15  26229919.432 6 137837881.228 6     -1050.056 6        37.485               
E21  23665752.912 7 124362509.665 7      -594.995 7        42.758               
E27  26503481.630 6 138309855.187 6      2436.384 6        37.803               
> 2025 01 07 14 21 26.0000000  0  5                                             
E04  26005980.959 6 136660492.207 6      -633.883 6        38.179               
E13  25419362.074 6 134283134.354 6     -1726.087 6        39.676               
E15  26230121.638 6 137838932.204 6     -1052.956 6        37.492               
E21  23665867.685 7 124363104.862 7      -594.206 7        42.658               
E27  26503950.388 6 138307418.390 6      2436.578 6        37.617               
> 2025 01 07 14 21 27.0000000  0  5                                             
E04  26006100.896 6 136661123.396 6      -631.927 6        38.049               
E13  25419038.189 6 134284858.636 6     -1724.931 6        39.821               
E15  26230322.986 6 137839983.336 6     -1051.669 6        37.563               
E21  23665982.448 7 124363699.949 7      -595.203 7        42.467               
E27  26504413.803 6 138304981.875 6      2436.873 6        37.974               
> 2025 01 07 14 21 28.0000000  0  5                                             
E04  26006225.863 6 136661755.035 6      -632.993 6        38.343               
E13  25418714.885 6 134286582.512 6     -1723.040 6        39.715               
E15  26230530.463 6 137841034.972 6     -1053.694 6        37.907               
E21  23666097.069 7 124364295.240 7      -595.936 7        42.466               
E27  26504879.211 6 138302545.247 6      2438.491 6        38.214               
> 2025 01 07 14 21 29.0000000  0  5                                             
E04  26006349.677 6 136662388.101 6      -633.349 6        38.431               
E13  25418386.380 6 134288305.129 6     -1720.760 6        39.768               
E15  26230728.899 6 137842088.016 6     -1053.649 6        37.963               
E21  23666213.575 7 124364891.670 7      -597.559 7        42.451               
E27  26505348.103 6 138300107.628 6      2438.102 6        37.849               
> 2025 01 07 14 21 30.0000000  0  5                                             
E04  26006467.764 6 136663021.693 6      -632.548 6        38.126               
E13  25418062.093 6 134290027.256 6     -1722.233 6        39.714               
E15  26230930.560 6 137843141.591 6     -1053.501 6        38.378               
E21  23666326.901 7 124365488.341 7      -597.241 7        42.314               
E27  26505811.098 6 138297669.883 6      2439.271 6        37.750               
> 2025 01 07 14 21 31.0000000  0  5                                             
E04  26006588.693 6 136663655.390 6      -634.480 6        38.007               
E13  25417733.232 6 134291749.378 6     -1719.957 6        39.418               
E15  26231133.444 6 137844195.310 6     -1054.520 6        38.015               
E21  23666441.379 7 124366084.878 7      -596.587 7        42.192               
E27  26506280.714 6 138295232.406 6      2438.897 6        37.365               
> 2025 01 07 14 21 32.0000000  0  5                                             
E04  26006712.159 6 136664288.992 6      -635.534 6        38.019               
E13  25417408.614 6 134293471.757 6     -1721.944 6        39.645               
E15  26231337.223 6 137845248.879 6     -1053.880 6        37.977               
E21  23666559.654 7 124366680.956 7      -596.040 7        42.004               
E27  26506741.913 6 138292795.504 6      2435.190 6        37.460               
> 2025 01 07 14 21 33.0000000  0  5                                             
E04  26006838.636 6 136664923.105 6      -635.466 6        38.129               
E13  25417085.096 6 134295193.657 6     -1721.381 6        39.634               
E15  26231538.902 6 137846303.019 6     -1054.043 6        37.743               
E21  23666674.408 7 124367277.348 7      -596.296 7        42.128               
E27  26507204.569 6 138290358.420 6      2436.363 6        37.336               
> 2025 01 07 14 21 34.0000000  0  5                                             
E04  26006961.325 6 136665558.050 6      -635.923 6        38.012               
E13  25416756.404 6 134296914.856 6     -1721.868 6        39.481               
E15  26231739.910 6 137847357.979 6     -1054.408 6        38.071               
E21  23666787.430 7 124367874.273 7      -598.365 7        42.322               
E27  26507668.261 6 138287920.930 6      2436.770 6        37.456               
> 2025 01 07 14 21 35.0000000  0  5                                             
E04  26007086.399 6 136666193.573 6      -635.066 6        37.799               
E13  25416429.445 6 134298635.508 6     -1720.531 6        39.703               
E15  26231939.007 6 137848413.562 6     -1056.606 6        38.139               
E21  23666906.545 7 124368471.513 7      -597.327 7        42.007               
E27  26508138.949 6 138285483.221 6      2436.959 6        37.737               
> 2025 01 07 14 21 36.0000000  0  5                                             
E04  26007207.158 6 136666829.157 6      -636.148 6        38.176               
E13  25416107.079 6 134300356.265 6     -1722.996 6        39.664               
E15  26232145.108 6 137849469.161 6     -1056.079 6        37.851               
E21  23667020.826 6 124369068.513 6      -598.252 6        41.943               
E27  26508604.232 6 138283045.899 6      2436.547 6        37.546               
> 2025 01 07 14 21 37.0000000  0  5                                             
E04  26007334.680 6 136667465.496 6      -638.162 6        38.481               
E13  25415781.515 6 134302076.344 6     -1718.783 6        40.105               
E15  26232348.297 6 137850525.542 6     -1056.587 6        38.020               
E21  23667136.823 6 124369665.980 6      -596.978 6        41.923               
E27  26509067.120 6 138280608.242 6      2438.057 6        37.403               
> 2025 01 07 14 21 38.0000000  0  5                                             
E04  26007452.696 6 136668102.581 6      -638.308 6        38.410               
E13  25415457.844 6 134303795.771 6     -1719.181 6        39.816               
E15  26232555.086 6 137851582.678 6     -1055.010 6        37.963               
E21  23667249.139 7 124370263.933 7      -597.333 7        42.157               
E27  26509536.816 6 138278170.196 6      2437.831 6        37.816               
> 2025 01 07 14 21 39.0000000  0  5                                             
E04  26007581.094 6 136668739.926 6      -638.461 6        38.474               
E13  25415129.974 6 134305515.054 6     -1719.314 6        39.684               
E15  26232754.201 6 137852640.074 6     -1055.154 6        37.779               
E21  23667367.539 6 124370861.875 6      -598.866 6        41.966               
E27  26509996.970 6 138275732.333 6      2437.670 6        37.700               
> 2025 01 07 14 21 40.0000000  0  5                                             
E04  26007703.336 6 136669377.610 6      -637.796 6        38.753               
E13  25414807.555 6 134307234.033 6     -1719.784 6        39.897               
E15  26232956.433 6 137853697.858 6     -1056.453 6        37.770               
E21  23667481.418 6 124371459.887 6      -597.279 6        41.893               
E27  26510470.070 6 138273294.486 6      2437.585 6        37.200               
> 2025 01 07 14 21 41.0000000  0  5                                             
E04  26007826.418 6 136670016.248 6      -637.250 6        38.576               
E13  25414479.658 6 134308952.210 6     -1719.312 6        39.812               
E15  26233162.946 6 137854756.566 6     -1057.882 6        37.843               
E21  23667599.461 6 124372058.573 6      -600.168 6        41.788               
E27  26510932.994 6 138270856.109 6      2436.925 6        36.905               
> 2025 01 07 14 21 42.0000000  0  5                                             
E04  26007942.942 6 136670655.597 6      -638.994 6        38.502               
E13  25414153.647 6 134310669.744 6     -1715.158 6        39.724               
E15  26233367.269 6 137855816.019 6     -1060.800 6        37.578               
E21  23667712.420 6 124372657.679 6      -599.421 6        41.931               
E27  26511399.912 6 138268417.428 6      2441.612 6        36.831               
> 2025 01 07 14 21 43.0000000  0  5                                             
E04  26008070.500 6 136671295.122 6      -639.332 6        38.561               
E13  25413827.331 6 134312387.233 6     -1719.254 6        39.801               
E15  26233566.410 6 137856875.640 6     -1061.470 6        37.835               
E21  23667830.945 6 124373256.687 6      -599.146 6        41.841               
E27  26511866.686 6 138265978.945 6      2437.026 6        36.979               
> 2025 01 07 14 21 44.0000000  0  5                                             
E04  26008193.528 6 136671935.327 6      -640.626 6        38.633               
E13  25413509.066 6 134314104.088 6     -1717.119 6        39.549               
E15  26233771.788 6 137857935.940 6     -1059.053 6        37.512               
E21  23667947.058 7 124373856.091 7      -598.621 7        42.064               
E27  26512327.788 6 138263540.209 6      2438.344 6        37.113               
> 2025 01 07 14 21 45.0000000  0  5                                             
E04  26008317.977 6 136672575.876 6      -642.472 6        38.711               
E13  25413180.455 6 134315820.718 6     -1717.166 6        38.959               
E15  26233974.029 6 137858996.610 6     -1061.242 6        38.055               
E21  23668061.420 6 124374455.579 6      -599.432 6        41.847               
E27  26512799.476 6 138261101.497 6      2439.200 6        37.254               
> 2025 01 07 14 21 46.0000000  0  5                                             
E04  26008444.757 6 136673216.527 6      -639.930 6        38.342               
E13  25412856.534 6 134317537.319 6     -1715.076 6        39.161               
E15  26234180.274 6 137860057.389 6     -1061.121 6        37.919               
E21  23668173.360 7 124375054.897 7      -598.235 7        42.147               
E27  26513261.310 6 138258663.118 6      2436.092 6        37.473               
> 2025 01 07 14 21 47.0000000  0  5                                             
E04  26008566.177 6 136673857.841 6      -641.112 6        38.594               
E13  25412529.674 6 134319253.396 6     -1716.312 6        39.294               
E15  26234378.548 6 137861118.791 6     -1057.073 6        38.078               
E21  23668293.092 7 124375654.576 7      -599.581 7        42.088               
E27  26513727.745 6 138256224.470 6      2440.407 6        37.264               
> 2025 01 07 14 21 48.0000000  0  5                                             
E04  26008690.993 6 136674499.601 6      -641.683 6        38.668               
E13  25412203.600 6 134320969.096 6     -1714.879 6        39.311               
E15  26234583.184 6 137862180.726 6     -1062.017 6        37.945               
E21  23668409.535 7 124376254.441 7      -600.092 7        42.167               
E27  26514194.109 6 138253785.769 6      2439.257 6        37.404               
> 2025 01 07 14 21 49.0000000  0  5                                             
E04  26008816.397 6 136675141.697 6      -643.796 6        38.837               
E13  25411875.034 6 134322684.555 6     -1714.687 6        39.262               
E15  26234785.810 6 137863242.926 6     -1060.222 6        37.749               
E21  23668524.656 6 124376854.345 6      -600.494 6        41.856               
E27  26514665.101 6 138251347.148 6      2439.888 6        37.340               
> 2025 01 07 14 21 50.0000000  0  5                                             
E04  26008934.628 6 136675784.455 6      -644.034 6        39.237               
E13  25411551.917 6 134324399.436 6     -1713.590 6        39.338               
E15  26234989.365 6 137864305.879 6     -1061.878 6        37.745               
E21  23668640.957 7 124377454.668 7      -601.069 7        42.054               
E27  26515127.247 6 138248908.242 6      2437.742 6        37.746               
> 2025 01 07 14 21 51.0000000  0  5                                             
E04  26009062.489 6 136676427.848 6      -643.623 6        39.212               
E13  25411230.462 6 134326113.804 6     -1713.349 6        39.271               
E15  26235195.350 6 137865369.443 6     -1063.290 6        37.847               
E21  23668758.875 7 124378055.341 7      -600.913 7        42.136               
E27  26515590.841 6 138246469.126 6      2439.622 6        37.525               
> 2025 01 07 14 21 52.0000000  0  5                                             
E04  26009189.485 6 136677072.101 6      -643.518 6        39.262               
E13  25410902.843 6 134327827.400 6     -1713.027 6        39.330               
E15  26235397.529 6 137866433.854 6     -1067.298 6        37.737               
E21  23668871.932 7 124378656.575 7      -601.709 7        42.252               
E27  26516058.581 6 138244029.566 6      2439.369 6        37.266               
> 2025 01 07 14 21 53.0000000  0  5                                             
E04  26009311.155 6 136677716.814 6      -644.850 6        38.975               
E13  25410585.015 6 134329540.603 6     -1711.877 6        39.448               
E15  26235606.418 6 137867498.750 6     -1066.455 6        37.635               
E21  23668990.145 7 124379258.011 7      -602.075 7        42.001               
E27  26516519.994 6 138241589.943 6      2440.692 6        37.131               
> 2025 01 07 14 21 54.0000000  0  5                                             
E04  26009432.021 6 136678362.101 6      -645.980 6        39.162               
E13  25410255.644 6 134331253.362 6     -1711.388 6        39.290               
E15  26235812.546 6 137868564.249 6     -1068.543 6        38.051               
E21  23669105.784 7 124379859.731 7      -599.573 7        42.099               
E27  26516990.530 6 138239150.113 6      2440.442 6        37.122               
> 2025 01 07 14 21 55.0000000  0  5                                             
E04  26009562.608 6 136679008.345 6      -644.047 6        38.978               
E13  25409934.601 6 134332965.211 6     -1710.786 6        39.377               
E15  26236014.440 6 137869630.682 6     -1066.306 6        38.075               
E21  23669219.967 6 124380462.168 6      -603.070 6        41.952               
E27  26517455.411 6 138236709.712 6      2442.329 6        37.380               
> 2025 01 07 14 21 56.0000000  0  5                                             
E04  26009682.455 6 136679654.695 6      -646.351 6        38.857               
E13  25409609.688 6 134334677.090 6     -1711.127 6        39.394               
E15  26236215.547 6 137870697.222 6     -1064.635 6        38.392               
E21  23669336.661 7 124381064.398 7      -600.673 7        42.086               
E27  26517921.837 6 138234269.648 6      2441.493 6        37.067               
> 2025 01 07 14 21 57.0000000  0  5                                             
E04  26009810.022 6 136680301.581 6      -648.981 6        38.732               
E13  25409285.196 6 134336388.502 6     -1710.976 6        39.573               
E15  26236426.267 6 137871764.326 6     -1067.576 6        38.142               
E21  23669454.989 6 124381666.900 6      -602.649 6        41.989               
E27  26518386.673 6 138231829.452 6      2441.262 6        37.067               
> 2025 01 07 14 21 58.0000000  0  5                                             
E04  26009933.855 6 136680948.757 6      -647.197 6        38.732               
E13  25408958.773 6 134338099.763 6     -1712.410 6        39.337               
E15  26236627.463 6 137872831.698 6     -1066.915 6        38.198               
E21  23669569.583 7 124382269.411 7      -603.508 7        42.106               
E27  26518850.606 6 138229389.358 6      2441.347 6        36.982               
> 2025 01 07 14 21 59.0000000  0  5                                             
E04  26010057.839 6 136681596.360 6      -649.980 6        38.718               
E13  25408638.489 6 134339810.648 6     -1710.880 6        39.062               
E15  26236835.298 6 137873899.531 6     -1069.939 6        38.283               
E21  23669686.679 6 124382872.066 6      -603.583 6        41.914               
E27  26519315.943 6 138226949.242 6      2438.020 6        37.068               
