     3.02           OBSERVATION DATA    E                   RINEX VERSION / TYPE
G = GPS  R = GLONASS  E = GALILEO  S = GEO  M = MIXED       COMMENT             
GNSS-SDR            jmfriedt            20250107 160607 UTC PGM / RUN BY / DATE 
GALILEO OBSERVATION DATA FILE GENERATED BY GNSS-SDR         COMMENT             
GNSS-SDR VERSION 0.0.19.git-main-87fcfd237                  COMMENT             
See https://gnss-sdr.org                                    COMMENT             
DEFAULT MARKER NAME                                         MARKER NAME         
jmfriedt            CTTC                                    OBSERVER / AGENCY   
GNSS-SDR            Software Receiver   0.0.19.gi           REC # / TYPE / VERS 
Antenna number      Antenna type                            ANT # / TYPE        
        0.0000        0.0000        0.0000                  APPROX POSITION XYZ 
        0.0000        0.0000        0.0000                  ANTENNA: DELTA H/E/N
E    4 C1B L1B D1B S1B                                      SYS / # / OBS TYPES 
DBHZ                                                        SIGNAL STRENGTH UNIT
  2025    01    07    14    18    6.1600000     GAL         TIME OF FIRST OBS   
    18    18   137     7                                    LEAP SECONDS        
                                                            END OF HEADER       
> 2025 01 07 14 18 07.0000000  0  5                                             
E04  25983634.173 6 136544893.313 6      -528.858 6        38.802               
E13  25485820.571 6 133931902.332 6     -1805.113 6        40.266               
E15  26191903.407 6 137637767.742 6       945.058 6        37.145               
E21  23643831.409 6 124249175.512 6      -549.483 6        40.975               
E27  26411701.423 6 138790457.119 6      2412.611 6        37.459               
> 2025 01 07 14 18 08.0000000  0  5                                             
E04  25983734.570 6 136545423.526 6      -528.577 6        38.763               
E13  25485478.245 6 133933706.934 6     -1804.117 6        40.003               
E15  26192081.633 6 137636819.659 6       947.084 6        36.751               
E21  23643937.998 6 124249725.024 6      -550.298 6        41.538               
E27  26412159.477 6 138788041.494 6      2416.056 6        37.269               
> 2025 01 07 14 18 09.0000000  0  5                                             
E04  25983839.461 6 136545954.080 6      -528.603 6        38.614               
E13  25485139.216 6 133935511.295 6     -1805.838 6        40.031               
E15  26192263.245 6 137635871.217 6       950.145 6        36.764               
E21  23644042.112 6 124250274.576 6      -548.032 6        41.354               
E27  26412621.365 6 138785625.945 6      2417.465 6        37.201               
> 2025 01 07 14 18 10.0000000  0  5                                             
E04  25983942.244 6 136546485.190 6      -530.715 6        38.716               
E13  25484793.209 6 133937315.236 6     -1804.284 6        39.910               
E15  26192448.520 6 137634922.242 6       948.662 6        36.670               
E21  23644147.789 6 124250824.430 6      -552.307 6        41.314               
E27  26413084.065 6 138783210.256 6      2415.358 6        37.465               
> 2025 01 07 14 18 11.0000000  0  5                                             
E04  25984043.838 6 136547016.966 6      -531.131 6        38.648               
E13  25484453.751 6 133939118.603 6     -1803.870 6        39.980               
E15  26192630.936 6 137633972.583 6       948.071 6        36.835               
E21  23644256.352 6 124251374.647 6      -549.677 6        41.506               
E27  26413545.443 6 138780794.282 6      2416.765 6        37.608               
> 2025 01 07 14 18 12.0000000  0  5                                             
E04  25984149.685 6 136547549.266 6      -532.161 6        38.768               
E13  25484113.507 6 133940921.558 6     -1802.928 6        40.031               
E15  26192812.949 6 137633022.385 6       951.709 6        36.536               
E21  23644364.174 6 124251925.109 6      -551.189 6        41.254               
E27  26414003.855 6 138778378.210 6      2416.648 6        37.563               
> 2025 01 07 14 18 13.0000000  0  5                                             
E04  25984248.188 6 136548082.097 6      -533.745 6        38.642               
E13  25483772.718 6 133942724.106 6     -1800.932 6        40.224               
E15  26192999.011 6 137632071.665 6       953.415 6        36.346               
E21  23644470.968 6 124252475.826 6      -550.951 6        41.393               
E27  26414467.574 6 138775962.015 6      2417.176 6        37.549               
> 2025 01 07 14 18 14.0000000  0  5                                             
E04  25984355.545 6 136548615.661 6      -533.278 6        38.334               
E13  25483433.502 6 133944526.007 6     -1800.943 6        40.225               
E15  26193179.586 6 137631120.194 6       948.442 6        36.684               
E21  23644577.289 6 124253027.021 6      -551.866 6        41.195               
E27  26414927.719 6 138773545.450 6      2417.670 6        37.290               
> 2025 01 07 14 18 15.0000000  0  5                                             
E04  25984457.256 6 136549149.907 6      -534.899 6        38.438               
E13  25483092.418 6 133946327.345 6     -1800.015 6        40.036               
E15  26193358.571 6 137630167.986 6       952.948 6        36.759               
E21  23644682.234 6 124253578.608 6      -552.636 6        41.423               
E27  26415393.502 6 138771128.631 6      2415.335 6        37.169               
> 2025 01 07 14 18 16.0000000  0  5                                             
E04  25984563.737 6 136549684.507 6      -535.415 6        38.213               
E13  25482752.334 6 133948128.448 6     -1800.561 6        40.085               
E15  26193545.973 6 137629215.457 6       951.262 6        37.137               
E21  23644792.691 6 124254130.278 6      -550.884 6        41.360               
E27  26415854.979 6 138768711.866 6      2418.656 6        36.960               
> 2025 01 07 14 18 17.0000000  0  5                                             
E04  25984661.785 6 136550219.684 6      -535.119 6        38.071               
E13  25482410.679 6 133949929.066 6     -1801.591 6        40.356               
E15  26193726.468 6 137628262.309 6       954.539 6        37.271               
E21  23644897.198 6 124254682.221 6      -551.942 6        41.377               
E27  26416315.303 6 138766294.909 6      2418.128 6        37.032               
> 2025 01 07 14 18 18.0000000  0  5                                             
E04  25984769.446 6 136550755.260 6      -536.205 6        38.175               
E13  25482069.264 6 133951729.409 6     -1800.584 6        40.620               
E15  26193909.902 6 137627308.777 6       952.243 6        37.589               
E21  23645005.600 6 124255234.302 6      -551.933 6        41.245               
E27  26416774.009 6 138763877.988 6      2417.208 6        36.743               
> 2025 01 07 14 18 19.0000000  0  5                                             
E04  25984871.710 6 136551291.395 6      -536.906 6        38.089               
E13  25481726.527 6 133953529.291 6     -1797.282 6        40.326               
E15  26194093.194 6 137626354.660 6       957.568 6        37.633               
E21  23645109.250 6 124255786.646 6      -550.755 6        41.407               
E27  26417239.345 6 138761460.859 6      2416.575 6        36.557               
> 2025 01 07 14 18 20.0000000  0  5                                             
E04  25984977.789 6 136551827.917 6      -534.384 6        38.485               
E13  25481389.786 6 133955328.906 6     -1799.923 6        40.003               
E15  26194277.468 6 137625400.160 6       954.226 6        37.805               
E21  23645218.662 6 124256339.132 6      -552.165 6        41.614               
E27  26417702.493 6 138759043.791 6      2416.822 6        36.747               
> 2025 01 07 14 18 21.0000000  0  5                                             
E04  25985079.875 6 136552364.851 6      -536.973 6        38.449               
E13  25481047.835 6 133957128.207 6     -1799.781 6        40.322               
E15  26194463.449 6 137624445.215 6       955.554 6        37.640               
E21  23645326.153 6 124256891.728 6      -552.468 6        41.245               
E27  26418164.041 6 138756626.671 6      2418.053 6        36.956               
> 2025 01 07 14 18 22.0000000  0  5                                             
E04  25985185.374 6 136552902.416 6      -538.410 6        39.019               
E13  25480703.079 6 133958927.007 6     -1798.132 6        40.276               
E15  26194648.884 6 137623489.650 6       956.803 6        37.552               
E21  23645432.786 6 124257444.675 6      -553.397 6        41.103               
E27  26418624.624 6 138754209.374 6      2418.865 6        36.811               
> 2025 01 07 14 18 23.0000000  0  5                                             
E04  25985288.961 6 136553440.625 6      -537.377 6        38.801               
E13  25480366.248 6 133960725.255 6     -1798.176 6        40.272               
E15  26194829.773 6 137622533.414 6       957.464 6        37.213               
E21  23645539.527 6 124257997.997 6      -552.962 6        41.332               
E27  26419083.411 6 138751791.799 6      2417.955 6        36.804               
> 2025 01 07 14 18 24.0000000  0  5                                             
E04  25985393.745 6 136553979.530 6      -539.244 6        38.481               
E13  25480028.532 6 133962522.936 6     -1797.636 6        40.355               
E15  26195009.651 6 137621576.517 6       957.141 6        36.956               
E21  23645646.196 6 124258551.713 6      -554.036 6        41.338               
E27  26419549.354 6 138749373.945 6      2420.542 6        36.878               
> 2025 01 07 14 18 25.0000000  0  5                                             
E04  25985499.091 6 136554518.700 6      -540.572 6        38.584               
E13  25479687.404 6 133964320.458 6     -1797.768 6        40.383               
E15  26195199.349 6 137620619.272 6       958.288 6        37.169               
E21  23645754.750 6 124259105.415 6      -553.600 6        41.177               
E27  26420012.278 6 138746956.234 6      2419.426 6        36.762               
> 2025 01 07 14 18 26.0000000  0  5                                             
E04  25985600.793 6 136555058.444 6      -540.492 6        38.263               
E13  25479347.097 6 133966117.513 6     -1797.552 6        40.028               
E15  26195382.595 6 137619661.497 6       958.672 6        37.239               
E21  23645861.607 6 124259659.443 6      -553.968 6        41.401               
E27  26420474.934 6 138744538.310 6      2420.522 6        36.865               
> 2025 01 07 14 18 27.0000000  0  5                                             
E04  25985706.345 6 136555598.858 6      -541.028 6        38.289               
E13  25479003.047 6 133967914.011 6     -1796.238 6        40.021               
E15  26195564.029 6 137618703.041 6       957.495 6        37.502               
E21  23645966.998 6 124260213.835 6      -554.959 6        41.587               
E27  26420931.854 6 138742120.173 6      2417.943 6        36.794               
> 2025 01 07 14 18 28.0000000  0  5                                             
E04  25985814.676 6 136556139.541 6      -540.722 6        37.942               
E13  25478663.554 6 133969710.335 6     -1796.728 6        40.177               
E15  26195752.582 6 137617744.263 6       960.101 6        37.413               
E21  23646076.312 6 124260768.230 6      -554.074 6        41.356               
E27  26421398.620 6 138739702.138 6      2419.646 6        37.020               
> 2025 01 07 14 18 29.0000000  0  5                                             
E04  25985912.688 6 136556680.714 6      -540.414 6        38.081               
E13  25478324.855 6 133971506.315 6     -1794.225 6        40.410               
E15  26195939.591 6 137616785.042 6       958.656 6        37.558               
E21  23646182.963 6 124261322.814 6      -554.274 6        41.171               
E27  26421862.991 6 138737284.047 6      2418.321 6        37.019               
> 2025 01 07 14 18 30.0000000  0  5                                             
E04  25986020.420 6 136557222.471 6      -540.446 6        38.078               
E13  25477982.065 6 133973301.791 6     -1794.856 6        40.548               
E15  26196119.139 6 137615825.195 6       959.218 6        37.380               
E21  23646289.927 6 124261877.727 6      -553.699 6        41.185               
E27  26422325.799 6 138734865.748 6      2416.058 6        37.031               
> 2025 01 07 14 18 31.0000000  0  5                                             
E04  25986124.579 6 136557764.583 6      -542.077 6        38.054               
E13  25477641.445 6 133975097.021 6     -1796.780 6        40.289               
E15  26196305.012 6 137614864.959 6       961.936 6        37.330               
E21  23646396.069 6 124262432.701 6      -555.337 6        41.385               
E27  26422782.978 6 138732447.489 6      2417.243 6        36.884               
> 2025 01 07 14 18 32.0000000  0  5                                             
E04  25986229.389 6 136558307.260 6      -543.151 6        38.076               
E13  25477303.658 6 133976891.819 6     -1794.907 6        40.403               
E15  26196488.688 6 137613904.191 6       960.915 6        37.211               
E21  23646505.446 6 124262987.967 6      -556.351 6        41.341               
E27  26423243.489 6 138730029.086 6      2418.459 6        37.335               
> 2025 01 07 14 18 33.0000000  0  5                                             
E04  25986333.655 6 136558850.611 6      -544.090 6        37.999               
E13  25476964.469 6 133978686.030 6     -1793.212 6        40.470               
E15  26196678.707 6 137612942.734 6       960.594 6        37.484               
E21  23646612.776 6 124263543.621 6      -555.228 6        41.199               
E27  26423708.200 6 138727610.416 6      2421.628 6        37.252               
> 2025 01 07 14 18 34.0000000  0  5                                             
E04  25986442.183 6 136559394.348 6      -542.628 6        38.128               
E13  25476625.520 6 133980479.954 6     -1793.213 6        40.389               
E15  26196854.494 6 137611980.855 6       963.888 6        37.665               
E21  23646717.256 6 124264099.382 6      -555.660 6        41.235               
E27  26424171.133 6 138725191.771 6      2416.762 6        37.325               
> 2025 01 07 14 18 35.0000000  0  5                                             
E04  25986543.321 6 136559938.161 6      -544.744 6        37.970               
E13  25476287.965 6 133982273.933 6     -1794.929 6        40.121               
E15  26197046.219 6 137611018.912 6       963.485 6        37.927               
E21  23646823.979 6 124264654.946 6      -554.628 6        41.139               
E27  26424634.941 6 138722773.428 6      2416.784 6        37.448               
> 2025 01 07 14 18 36.0000000  0  5                                             
E04  25986649.571 6 136560482.747 6      -546.925 6        37.611               
E13  25475944.585 6 133984067.223 6     -1791.942 6        40.317               
E15  26197228.984 6 137610056.154 6       963.537 6        37.994               
E21  23646935.491 6 124265211.025 6      -555.374 6        40.920               
E27  26425096.489 6 138720354.710 6      2418.802 6        37.607               
> 2025 01 07 14 18 37.0000000  0  5                                             
E04  25986757.705 6 136561027.684 6      -545.525 6        37.802               
E13  25475604.815 6 133985860.289 6     -1794.350 6        39.990               
E15  26197415.509 6 137609093.064 6       963.247 6        37.529               
E21  23647043.437 6 124265767.158 6      -555.197 6        41.165               
E27  26425550.416 6 138717936.060 6      2417.517 6        37.608               
> 2025 01 07 14 18 38.0000000  0  5                                             
E04  25986863.615 6 136561572.876 6      -544.796 6        38.256               
E13  25475263.382 6 133987653.247 6     -1793.512 6        39.975               
E15  26197598.211 6 137608129.739 6       963.647 6        37.597               
E21  23647149.365 6 124266323.236 6      -556.285 6        40.974               
E27  26426021.041 6 138715517.591 6      2419.261 6        37.444               
> 2025 01 07 14 18 39.0000000  0  5                                             
E04  25986966.228 6 136562119.483 6      -545.835 6        38.356               
E13  25474923.156 6 133989444.819 6     -1790.945 6        39.975               
E15  26197786.515 6 137607164.898 6       965.373 6        37.630               
E21  23647257.347 6 124266880.534 6      -558.509 6        41.248               
E27  26426480.025 6 138713098.020 6      2422.280 6        37.562               
> 2025 01 07 14 18 40.0000000  0  5                                             
E04  25987071.896 6 136562666.978 6      -547.827 6        38.231               
E13  25474590.667 6 133991235.649 6     -1790.324 6        39.898               
E15  26197970.718 6 137606199.233 6       963.642 6        37.563               
E21  23647365.777 6 124267438.358 6      -557.498 6        41.191               
E27  26426943.172 6 138710678.030 6      2419.470 6        37.496               
> 2025 01 07 14 18 41.0000000  0  5                                             
E04  25987175.867 6 136563213.406 6      -546.675 6        38.411               
E13  25474247.904 6 133993027.688 6     -1792.404 6        40.059               
E15  26198159.897 6 137605234.603 6       967.487 6        37.434               
E21  23647471.088 6 124267994.841 6      -557.225 6        41.209               
E27  26427405.837 6 138708259.522 6      2417.241 6        37.427               
> 2025 01 07 14 18 42.0000000  0  5                                             
E04  25987283.170 6 136563760.538 6      -547.433 6        37.991               
E13  25473910.787 6 133994819.053 6     -1790.322 6        39.880               
E15  26198345.431 6 137604269.242 6       964.283 6        37.533               
E21  23647581.152 6 124268551.811 6      -557.573 6        41.046               
E27  26427866.187 6 138705840.648 6      2421.172 6        37.475               
> 2025 01 07 14 18 43.0000000  0  5                                             
E04  25987391.528 6 136564308.390 6      -548.107 6        38.060               
E13  25473570.703 6 133996609.884 6     -1790.620 6        40.034               
E15  26198528.759 6 137603303.188 6       966.356 6        37.586               
E21  23647688.625 6 124269109.165 6      -559.628 6        41.166               
E27  26428329.406 6 138703421.519 6      2420.882 6        37.587               
> 2025 01 07 14 18 44.0000000  0  5                                             
E04  25987499.904 6 136564857.218 6      -548.462 6        37.933               
E13  25473232.729 6 133998399.836 6     -1789.808 6        39.888               
E15  26198712.970 6 137602336.135 6       967.587 6        37.432               
E21  23647796.733 6 124269667.221 6      -560.790 6        41.248               
E27  26428791.383 6 138701001.803 6      2420.178 6        37.520               
> 2025 01 07 14 18 45.0000000  0  5                                             
E04  25987600.944 6 136565406.416 6      -549.005 6        37.897               
E13  25472894.155 6 134000189.489 6     -1789.786 6        39.718               
E15  26198901.989 6 137601368.683 6       968.161 6        37.582               
E21  23647905.528 6 124270225.398 6      -558.004 6        41.425               
E27  26429257.050 6 138698582.093 6      2420.467 6        37.468               
> 2025 01 07 14 18 46.0000000  0  5                                             
E04  25987712.304 6 136565956.173 6      -550.308 6        37.878               
E13  25472553.634 6 134001978.712 6     -1787.923 6        39.924               
E15  26199080.384 6 137600400.683 6       967.427 6        37.582               
E21  23648010.571 6 124270783.827 6      -558.289 6        41.359               
E27  26429708.135 6 138696162.252 6      2422.762 6        37.675               
> 2025 01 07 14 18 47.0000000  0  5                                             
E04  25987814.220 6 136566506.506 6      -552.130 6        37.805               
E13  25472215.633 6 134003767.472 6     -1790.774 6        40.060               
E15  26199271.422 6 137599432.066 6       966.786 6        37.886               
E21  23648121.047 6 124271342.567 6      -558.522 6        41.393               
E27  26430181.477 6 138693742.221 6      2420.329 6        37.303               
> 2025 01 07 14 18 48.0000000  0  5                                             
E04  25987925.294 6 136567056.388 6      -550.320 6        37.686               
E13  25471878.543 6 134005556.784 6     -1787.741 6        39.923               
E15  26199458.466 6 137598463.918 6       970.713 6        37.817               
E21  23648230.012 6 124271900.568 6      -558.720 6        41.581               
E27  26430635.127 6 138691323.061 6      2419.575 6        37.391               
> 2025 01 07 14 18 49.0000000  0  5                                             
E04  25988029.086 6 136567607.714 6      -552.469 6        38.011               
E13  25471536.565 6 134007344.762 6     -1786.495 6        39.909               
E15  26199642.883 6 137597494.299 6       970.223 6        37.710               
E21  23648335.171 6 124272459.725 6      -560.772 6        41.392               
E27  26431106.342 6 138688902.840 6      2418.924 6        37.152               
> 2025 01 07 14 18 50.0000000  0  5                                             
E04  25988138.185 6 136568159.539 6      -551.895 6        38.203               
E13  25471204.407 6 134009132.348 6     -1789.036 6        39.856               
E15  26199825.612 6 137596524.188 6       971.291 6        37.618               
E21  23648443.600 6 124273019.124 6      -558.937 6        41.414               
E27  26431567.068 6 138686482.523 6      2417.863 6        37.003               
> 2025 01 07 14 18 51.0000000  0  5                                             
E04  25988244.166 6 136568711.070 6      -552.920 6        38.508               
E13  25470860.625 6 134010920.348 6     -1787.708 6        39.835               
E15  26200015.184 6 137595554.382 6       967.247 6        37.674               
E21  23648552.682 6 124273577.941 6      -560.236 6        41.504               
E27  26432023.326 6 138684062.899 6      2422.649 6        37.078               
> 2025 01 07 14 18 52.0000000  0  5                                             
E04  25988349.102 6 136569263.873 6      -552.668 6        38.473               
E13  25470523.758 6 134012707.159 6     -1787.994 6        39.558               
E15  26200203.676 6 137594583.223 6       972.689 6        37.399               
E21  23648662.067 6 124274137.759 6      -560.702 6        41.503               
E27  26432485.794 6 138681642.422 6      2420.104 6        37.198               
> 2025 01 07 14 18 53.0000000  0  5                                             
E04  25988457.487 6 136569817.396 6      -551.879 6        38.463               
E13  25470187.114 6 134014493.337 6     -1785.059 6        40.063               
E15  26200387.807 6 137593611.368 6       972.698 6        37.204               
E21  23648770.434 6 124274698.023 6      -560.395 6        41.556               
E27  26432956.295 6 138679221.603 6      2420.833 6        36.969               
> 2025 01 07 14 18 54.0000000  0  5                                             
E04  25988565.416 6 136570371.730 6      -554.858 6        38.762               
E13  25469848.023 6 134016278.868 6     -1785.479 6        39.996               
E15  26200578.755 6 137592638.705 6       973.071 6        37.000               
E21  23648879.301 6 124275258.805 6      -563.006 6        41.294               
E27  26433417.048 6 138676800.388 6      2423.245 6        37.574               
> 2025 01 07 14 18 55.0000000  0  5                                             
E04  25988668.538 6 136570927.053 6      -554.805 6        38.532               
E13  25469511.746 6 134018063.500 6     -1785.504 6        40.121               
E15  26200767.122 6 137591665.043 6       972.792 6        37.189               
E21  23648988.230 6 124275820.286 6      -560.498 6        41.234               
E27  26433874.503 6 138674378.642 6      2419.152 6        37.295               
> 2025 01 07 14 18 56.0000000  0  5                                             
E04  25988779.487 6 136571482.184 6      -555.064 6        37.979               
E13  25469173.360 6 134019848.448 6     -1786.832 6        39.894               
E15  26200954.755 6 137590691.547 6       976.437 6        37.614               
E21  23649096.374 6 124276381.294 6      -560.121 6        41.042               
E27  26434341.984 6 138671957.438 6      2422.869 6        37.505               
> 2025 01 07 14 18 57.0000000  0  5                                             
E04  25988889.676 6 136572037.668 6      -555.160 6        38.216               
E13  25468835.895 6 134021633.100 6     -1783.908 6        39.945               
E15  26201140.522 6 137589717.689 6       975.029 6        37.470               
E21  23649205.821 6 124276942.408 6      -560.395 6        41.024               
E27  26434801.209 6 138669536.285 6      2421.070 6        37.576               
> 2025 01 07 14 18 58.0000000  0  5                                             
E04  25988996.783 6 136572593.585 6      -556.406 6        38.349               
E13  25468498.974 6 134023417.476 6     -1784.766 6        40.016               
E15  26201324.975 6 137588743.429 6       973.740 6        37.147               
E21  23649312.008 6 124277503.643 6      -559.287 6        41.289               
E27  26435269.913 6 138667115.079 6      2422.389 6        37.913               
> 2025 01 07 14 18 59.0000000  0  5                                             
E04  25989098.493 6 136573150.146 6      -558.581 6        38.295               
E13  25468161.151 6 134025201.286 6     -1785.107 6        40.056               
E15  26201511.929 6 137587768.465 6       974.882 6        37.708               
E21  23649423.082 6 124278065.283 6      -560.651 6        41.393               
E27  26435729.058 6 138664693.669 6      2421.161 6        37.837               
> 2025 01 07 14 19 00.0000000  0  5                                             
E04  25989215.509 6 136573707.202 6      -557.978 6        38.295               
E13  25467821.756 6 134026984.731 6     -1780.896 6        39.899               
E15  26201699.858 6 137586793.040 6       975.408 6        37.713               
E21  23649532.360 6 124278627.097 6      -563.321 6        41.331               
E27  26436189.864 6 138662272.181 6      2421.675 6        37.901               
> 2025 01 07 14 19 01.0000000  0  5                                             
E04  25989318.282 6 136574264.716 6      -556.481 6        38.075               
E13  25467483.755 6 134028767.800 6     -1782.784 6        39.997               
E15  26201886.938 6 137585817.111 6       976.343 6        37.393               
E21  23649639.163 6 124279189.108 6      -562.037 6        41.393               
E27  26436652.770 6 138659850.609 6      2421.262 6        37.717               
> 2025 01 07 14 19 02.0000000  0  5                                             
E04  25989423.165 6 136574821.841 6      -559.060 6        38.234               
E13  25467145.860 6 134030551.367 6     -1785.033 6        40.192               
E15  26202076.894 6 137584841.566 6       974.728 6        37.266               
E21  23649746.690 6 124279750.463 6      -559.723 6        41.213               
E27  26437117.928 6 138657429.802 6      2424.060 6        37.609               
> 2025 01 07 14 19 03.0000000  0  5                                             
E04  25989533.738 6 136575379.237 6      -556.047 6        38.221               
E13  25466806.492 6 134032334.784 6     -1782.639 6        40.063               
E15  26202264.054 6 137583865.729 6       976.903 6        37.373               
E21  23649859.542 6 124280311.810 6      -561.980 6        41.119               
E27  26437576.688 6 138655009.178 6      2420.747 6        37.952               
> 2025 01 07 14 19 04.0000000  0  5                                             
E04  25989640.094 6 136575937.635 6      -560.345 6        38.373               
E13  25466475.415 6 134034117.314 6     -1779.547 6        40.323               
E15  26202448.043 6 137582888.931 6       977.383 6        37.251               
E21  23649965.121 6 124280873.834 6      -562.938 6        41.348               
E27  26438044.186 6 138652587.944 6      2421.327 6        37.949               
> 2025 01 07 14 19 05.0000000  0  5                                             
E04  25989748.559 6 136576497.112 6      -560.626 6        38.497               
E13  25466135.832 6 134035898.858 6     -1779.962 6        40.594               
E15  26202635.417 6 137581911.006 6       978.484 6        37.455               
E21  23650075.355 6 124281436.697 6      -563.919 6        41.496               
E27  26438502.089 6 138650166.013 6      2422.607 6        37.651               
> 2025 01 07 14 19 06.0000000  0  5                                             
E04  25989860.259 6 136577057.038 6      -561.851 6        38.468               
E13  25465798.992 6 134037680.077 6     -1780.664 6        40.002               
E15  26202828.742 6 137580932.632 6       981.316 6        37.571               
E21  23650184.570 6 124281999.723 6      -563.867 6        41.454               
E27  26438963.655 6 138647744.058 6      2420.630 6        38.156               
> 2025 01 07 14 19 07.0000000  0  5                                             
E04  25989967.044 6 136577617.661 6      -560.828 6        38.360               
E13  25465464.859 6 134039460.668 6     -1779.442 6        40.010               
E15  26203012.579 6 137579953.544 6       978.113 6        37.540               
E21  23650291.302 6 124282563.170 6      -564.248 6        41.379               
E27  26439429.884 6 138645321.801 6      2423.519 6        37.938               
> 2025 01 07 14 19 08.0000000  0  5                                             
E04  25990076.688 6 136578179.039 6      -562.637 6        38.372               
E13  25465123.909 6 134041240.641 6     -1779.131 6        39.948               
E15  26203201.964 6 137578973.684 6       978.556 6        37.755               
E21  23650401.625 6 124283127.098 6      -564.497 6        41.295               
E27  26439893.344 6 138642899.161 6      2425.300 6        38.142               
> 2025 01 07 14 19 09.0000000  0  5                                             
E04  25990186.502 6 136578741.027 6      -562.275 6        38.503               
E13  25464790.017 6 134043020.115 6     -1778.375 6        39.736               
E15  26203393.100 6 137577993.222 6       979.285 6        38.243               
E21  23650510.510 6 124283691.336 6      -564.461 6        41.002               
E27  26440352.480 6 138640476.356 6      2424.342 6        38.119               
> 2025 01 07 14 19 10.0000000  0  5                                             
E04  25990291.304 6 136579303.327 6      -565.053 6        38.358               
E13  25464447.825 6 134044799.380 6     -1779.502 6        39.946               
E15  26203578.062 6 137577012.428 6       980.948 6        38.310               
E21  23650618.546 6 124284255.625 6      -563.936 6        41.016               
E27  26440821.542 6 138638053.622 6      2425.129 6        38.254               
> 2025 01 07 14 19 11.0000000  0  5                                             
E04  25990401.565 6 136579865.968 6      -561.348 6        37.919               
E13  25464112.567 6 134046578.401 6     -1779.173 6        39.720               
E15  26203762.354 6 137576031.264 6       982.454 6        38.204               
E21  23650727.941 6 124284819.984 6      -563.568 6        41.343               
E27  26441280.937 6 138635630.954 6      2421.295 6        38.236               
> 2025 01 07 14 19 12.0000000  0  5                                             
E04  25990510.968 6 136580428.371 6      -563.520 6        37.989               
E13  25463777.487 6 134048357.768 6     -1778.857 6        39.647               
E15  26203958.440 6 137575050.363 6       984.272 6        37.761               
E21  23650836.924 6 124285383.810 6      -564.095 6        41.312               
E27  26441743.744 6 138633208.961 6      2421.443 6        38.209               
> 2025 01 07 14 19 13.0000000  0  5                                             
E04  25990616.512 6 136580992.185 6      -565.500 6        37.759               
E13  25463444.194 6 134050135.841 6     -1780.515 6        39.722               
E15  26204145.877 6 137574068.036 6       981.800 6        37.441               
E21  23650946.103 6 124285948.770 6      -563.306 6        41.512               
E27  26442203.246 6 138630785.891 6      2422.022 6        38.123               
> 2025 01 07 14 19 14.0000000  0  5                                             
E04  25990728.291 6 136581555.532 6      -561.672 6        37.805               
E13  25463105.228 6 134051914.439 6     -1778.422 6        39.640               
E15  26204330.803 6 137573086.130 6       985.934 6        37.171               
E21  23651054.756 6 124286513.005 6      -564.474 6        41.440               
E27  26442668.109 6 138628363.713 6      2421.631 6        38.072               
> 2025 01 07 14 19 15.0000000  0  5                                             
E04  25990841.197 6 136582119.845 6      -566.007 6        37.995               
E13  25462768.745 6 134053692.244 6     -1776.890 6        39.556               
E15  26204517.124 6 137572103.292 6       982.863 6        37.194               
E21  23651163.748 6 124287077.899 6      -564.659 6        41.562               
E27  26443136.116 6 138625941.003 6      2422.283 6        38.441               
> 2025 01 07 14 19 16.0000000  0  5                                             
E04  25990946.981 6 136582684.715 6      -563.654 6        38.233               
E13  25462429.439 6 134055469.551 6     -1777.759 6        39.672               
E15  26204712.441 6 137571119.842 6       982.804 6        37.437               
E21  23651277.306 6 124287643.112 6      -564.739 6        41.624               
E27  26443596.708 6 138623518.081 6      2424.197 6        38.436               
> 2025 01 07 14 19 17.0000000  0  5                                             
E04  25991052.659 6 136583249.917 6      -564.194 6        38.039               
E13  25462094.162 6 134057246.656 6     -1775.389 6        39.512               
E15  26204896.144 6 137570136.100 6       983.696 6        37.172               
E21  23651385.762 6 124288208.346 6      -566.277 6        41.438               
E27  26444058.792 6 138621095.279 6      2423.631 6        38.596               
> 2025 01 07 14 19 18.0000000  0  5                                             
E04  25991164.974 6 136583815.672 6      -565.019 6        37.903               
E13  25461756.518 6 134059023.302 6     -1775.842 6        39.517               
E15  26205088.718 6 137569151.751 6       983.143 6        37.278               
E21  23651493.467 6 124288773.863 6      -566.679 6        41.490               
E27  26444521.904 6 138618672.310 6      2421.666 6        38.580               
> 2025 01 07 14 19 19.0000000  0  5                                             
E04  25991276.102 6 136584382.704 6      -567.079 6        38.007               
E13  25461420.992 6 134060798.785 6     -1774.858 6        39.571               
E15  26205277.245 6 137568166.144 6       986.143 6        37.419               
E21  23651600.985 6 124289340.366 6      -567.915 6        41.779               
E27  26444987.401 6 138616248.464 6      2426.134 6        38.607               
> 2025 01 07 14 19 20.0000000  0  5                                             
E04  25991385.621 6 136584950.320 6      -568.986 6        38.062               
E13  25461087.449 6 134062573.801 6     -1775.189 6        39.871               
E15  26205463.798 6 137567179.951 6       984.078 6        37.436               
E21  23651712.515 6 124289907.182 6      -566.727 6        41.508               
E27  26445447.939 6 138613824.448 6      2423.891 6        38.629               
> 2025 01 07 14 19 21.0000000  0  5                                             
E04  25991495.239 6 136585518.329 6      -569.130 6        38.198               
E13  25460748.920 6 134064348.519 6     -1773.209 6        40.024               
E15  26205652.807 6 137566193.349 6       986.861 6        37.258               
E21  23651824.384 6 124290474.090 6      -566.786 6        41.490               
E27  26445910.148 6 138611400.447 6      2426.365 6        38.593               
> 2025 01 07 14 19 22.0000000  0  5                                             
E04  25991602.899 6 136586086.620 6      -568.518 6        38.224               
E13  25460412.911 6 134066123.068 6     -1775.750 6        39.839               
E15  26205844.917 6 137565206.439 6       987.933 6        37.558               
E21  23651933.474 6 124291041.027 6      -566.406 6        41.261               
E27  26446369.284 6 138608976.548 6      2421.007 6        38.639               
> 2025 01 07 14 19 23.0000000  0  5                                             
E04  25991714.375 6 136586654.651 6      -571.120 6        37.996               
E13  25460080.190 6 134067897.962 6     -1773.312 6        39.981               
E15  26206033.882 6 137564219.795 6       986.482 6        37.415               
E21  23652040.402 6 124291607.410 6      -566.132 6        41.350               
E27  26446837.944 6 138606553.308 6      2423.375 6        38.391               
> 2025 01 07 14 19 24.0000000  0  5                                             
E04  25991823.627 6 136587223.534 6      -569.368 6        38.027               
E13  25459743.555 6 134069672.118 6     -1774.869 6        39.853               
E15  26206222.919 6 137563232.260 6       991.022 6        37.075               
E21  23652152.432 6 124292174.395 6      -565.900 6        41.407               
E27  26447299.375 6 138604129.618 6      2423.120 6        38.306               
> 2025 01 07 14 19 25.0000000  0  5                                             
E04  25991936.898 6 136587792.513 6      -570.092 6        38.067               
E13  25459404.812 6 134071446.296 6     -1773.486 6        40.224               
E15  26206412.893 6 137562244.651 6       987.950 6        36.966               
E21  23652258.851 6 124292741.166 6      -569.019 6        41.490               
E27  26447760.110 6 138601706.254 6      2423.741 6        38.109               
> 2025 01 07 14 19 26.0000000  0  5                                             
E04  25992048.410 6 136588362.722 6      -568.627 6        37.825               
E13  25459075.584 6 134073219.332 6     -1773.026 6        39.808               
E15  26206604.386 6 137561255.827 6       989.019 6        37.014               
E21  23652368.996 6 124293308.908 6      -568.865 6        41.288               
E27  26448223.088 6 138599282.051 6      2423.229 6        38.259               
> 2025 01 07 14 19 27.0000000  0  5                                             
E04  25992153.641 6 136588932.375 6      -569.524 6        37.828               
E13  25458741.192 6 134074993.026 6     -1772.040 6        39.714               
E15  26206793.378 6 137560267.463 6       988.359 6        37.194               
E21  23652479.578 6 124293875.839 6      -566.662 6        41.181               
E27  26448690.738 6 138596858.770 6      2425.271 6        38.324               
> 2025 01 07 14 19 28.0000000  0  5                                             
E04  25992266.546 6 136589502.970 6      -570.713 6        38.342               
E13  25458402.333 6 134076765.911 6     -1772.310 6        39.847               
E15  26206978.457 6 137559278.218 6       987.116 6        37.141               
E21  23652589.133 6 124294443.375 6      -568.542 6        41.410               
E27  26449151.723 6 138594435.026 6      2422.594 6        38.174               
> 2025 01 07 14 19 29.0000000  0  5                                             
E04  25992375.788 6 136590074.389 6      -570.645 6        38.376               
E13  25458066.011 6 134078538.039 6     -1772.015 6        39.951               
E15  26207179.296 6 137558288.093 6       988.383 6        37.147               
E21  23652701.628 6 124295011.507 6      -568.995 6        41.373               
E27  26449619.695 6 138592010.778 6      2423.930 6        38.210               
> 2025 01 07 14 19 30.0000000  0  5                                             
E04  25992488.292 6 136590646.215 6      -572.510 6        38.153               
E13  25457728.135 6 134080309.905 6     -1771.678 6        40.059               
E15  26207363.052 6 137557297.599 6       990.824 6        37.409               
E21  23652809.592 6 124295579.732 6      -568.947 6        41.155               
E27  26450074.846 6 138589586.601 6      2423.495 6        38.084               
> 2025 01 07 14 19 31.0000000  0  5                                             
E04  25992597.641 6 136591219.226 6      -573.951 6        38.251               
E13  25457395.771 6 134082080.667 6     -1769.112 6        39.982               
E15  26207554.482 6 137556305.880 6       993.514 6        37.626               
E21  23652921.586 6 124296148.886 6      -569.451 6        41.040               
E27  26450540.897 6 138587161.601 6      2426.088 6        38.048               
> 2025 01 07 14 19 32.0000000  0  5                                             
E04  25992709.742 6 136591792.857 6      -573.190 6        38.503               
E13  25457063.023 6 134083850.905 6     -1769.790 6        39.991               
E15  26207747.057 6 137555313.503 6       994.703 6        37.646               
E21  23653027.996 6 124296718.376 6      -568.636 6        41.135               
E27  26451006.903 6 138584736.375 6      2423.284 6        38.202               
> 2025 01 07 14 19 33.0000000  0  5                                             
E04  25992820.888 6 136592366.171 6      -573.641 6        38.483               
E13  25456723.252 6 134085621.576 6     -1770.415 6        40.477               
E15  26207939.113 6 137554321.503 6       991.206 6        37.759               
E21  23653138.650 6 124297287.271 6      -570.884 6        41.128               
E27  26451470.988 6 138582311.886 6      2424.988 6        38.411               
> 2025 01 07 14 19 34.0000000  0  5                                             
E04  25992928.138 6 136592940.032 6      -574.022 6        38.332               
E13  25456388.315 6 134087391.808 6     -1771.292 6        40.384               
E15  26208130.178 6 137553328.887 6       992.252 6        37.334               
E21  23653247.455 6 124297856.428 6      -568.642 6        40.897               
E27  26451932.581 6 138579887.243 6      2424.397 6        38.397               
> 2025 01 07 14 19 35.0000000  0  5                                             
E04  25993042.508 6 136593514.144 6      -574.299 6        38.272               
E13  25456052.226 6 134089161.911 6     -1770.773 6        40.443               
E15  26208319.536 6 137552336.086 6       991.711 6        37.541               
E21  23653359.485 6 124298425.552 6      -569.087 6        41.140               
E27  26452392.637 6 138577462.773 6      2425.754 6        38.486               
> 2025 01 07 14 19 36.0000000  0  5                                             
E04  25993156.379 6 136594088.762 6      -574.862 6        38.547               
E13  25455717.119 6 134090931.580 6     -1769.209 6        40.222               
E15  26208511.985 6 137551342.684 6       992.141 6        37.427               
E21  23653469.960 6 124298994.925 6      -571.610 6        41.236               
E27  26452855.605 6 138575038.192 6      2423.082 6        38.129               
> 2025 01 07 14 19 37.0000000  0  5                                             
E04  25993266.541 6 136594664.611 6      -575.660 6        38.557               
E13  25455387.534 6 134092700.136 6     -1767.837 6        40.075               
E15  26208698.770 6 137550348.096 6       996.057 6        37.407               
E21  23653580.185 6 124299565.228 6      -570.148 6        41.014               
E27  26453320.888 6 138572612.750 6      2425.560 6        37.997               
> 2025 01 07 14 19 38.0000000  0  5                                             
E04  25993378.803 6 136595240.899 6      -576.720 6        38.593               
E13  25455048.442 6 134094468.354 6     -1768.439 6        40.313               
E15  26208894.454 6 137549353.031 6       994.385 6        37.433               
E21  23653691.098 6 124300135.709 6      -570.500 6        41.092               
E27  26453782.471 6 138570187.315 6      2425.073 6        38.232               
> 2025 01 07 14 19 39.0000000  0  5                                             
E04  25993488.072 6 136595817.541 6      -575.880 6        38.632               
E13  25454719.125 6 134096236.339 6     -1767.224 6        40.396               
E15  26209081.739 6 137548357.636 6       996.486 6        37.324               
E21  23653799.429 6 124300706.246 6      -571.308 6        41.307               
E27  26454243.983 6 138567761.931 6      2424.739 6        38.316               
> 2025 01 07 14 19 40.0000000  0  5                                             
E04  25993603.283 6 136596394.942 6      -576.989 6        38.774               
E13  25454382.008 6 134098003.659 6     -1765.532 6        40.274               
E15  26209276.967 6 137547361.420 6       998.604 6        37.474               
E21  23653909.806 6 124301277.280 6      -570.971 6        41.231               
E27  26454704.986 6 138565336.162 6      2424.579 6        38.036               
> 2025 01 07 14 19 41.0000000  0  5                                             
E04  25993712.329 6 136596973.521 6      -576.434 6        38.884               
E13  25454048.626 6 134099769.898 6     -1765.546 6        40.053               
E15  26209463.627 6 137546364.074 6       998.028 6        37.501               
E21  23654020.719 6 124301849.226 6      -571.930 6        41.309               
E27  26455175.371 6 138562909.590 6      2429.262 6        37.801               
> 2025 01 07 14 19 42.0000000  0  5                                             
E04  25993826.253 6 136597552.386 6      -577.182 6        38.582               
E13  25453714.252 6 134101535.957 6     -1765.565 6        39.920               
E15  26209660.052 6 137545366.380 6       998.226 6        37.663               
E21  23654132.159 6 124302421.157 6      -572.795 6        41.548               
E27  26455637.017 6 138560483.165 6      2424.599 6        37.587               
> 2025 01 07 14 19 43.0000000  0  5                                             
E04  25993939.667 6 136598131.651 6      -579.438 6        38.435               
E13  25453377.046 6 134103301.752 6     -1765.382 6        40.023               
E15  26209852.126 6 137544368.308 6       998.231 6        37.857               
E21  23654242.617 6 124302993.194 6      -569.479 6        41.161               
E27  26456099.119 6 138558056.775 6      2426.187 6        37.533               
> 2025 01 07 14 19 44.0000000  0  5                                             
E04  25994049.848 6 136598711.027 6      -580.046 6        38.419               
E13  25453045.450 6 134105067.502 6     -1765.797 6        39.713               
E15  26210040.260 6 137543370.120 6       999.094 6        37.806               
E21  23654354.548 6 124303565.097 6      -571.716 6        40.991               
E27  26456563.150 6 138555630.651 6      2422.565 6        37.634               
> 2025 01 07 14 19 45.0000000  0  5                                             
E04  25994162.253 6 136599290.585 6      -578.641 6        38.384               
E13  25452710.585 6 134106833.164 6     -1764.718 6        39.696               
E15  26210239.830 6 137542371.721 6       997.281 6        37.898               
E21  23654461.878 6 124304136.893 6      -571.094 6        40.649               
E27  26457023.823 6 138553204.735 6      2424.997 6        37.586               
> 2025 01 07 14 19 46.0000000  0  5                                             
E04  25994276.168 6 136599870.365 6      -580.755 6        38.488               
E13  25452378.078 6 134108598.732 6     -1765.231 6        39.577               
E15  26210424.185 6 137541373.113 6       997.249 6        38.109               
E21  23654573.578 6 124304708.643 6      -573.291 6        40.717               
E27  26457489.936 6 138550778.992 6      2425.715 6        37.938               
> 2025 01 07 14 19 47.0000000  0  5                                             
E04  25994387.411 6 136600451.258 6      -579.157 6        38.356               
E13  25452043.713 6 134110363.294 6     -1765.301 6        39.540               
E15  26210623.568 6 137540373.338 6      1000.118 6        37.982               
E21  23654684.401 6 124305281.215 6      -572.087 6        40.846               
E27  26457953.137 6 138548352.567 6      2425.354 6        38.093               
> 2025 01 07 14 19 48.0000000  0  5                                             
E04  25994499.272 6 136601032.542 6      -581.491 6        38.500               
E13  25451708.481 6 134112127.560 6     -1764.673 6        39.683               
E15  26210808.244 6 137539373.197 6      1000.490 6        37.790               
E21  23654793.018 6 124305853.884 6      -571.838 6        41.207               
E27  26458413.273 6 138545926.137 6      2424.644 6        38.287               
> 2025 01 07 14 19 49.0000000  0  5                                             
E04  25994608.871 6 136601614.374 6      -580.911 6        38.612               
E13  25451375.241 6 134113891.368 6     -1763.356 6        39.665               
E15  26211001.158 6 137538372.502 6      1001.340 6        37.876               
E21  23654907.076 6 124306426.847 6      -573.735 6        41.319               
E27  26458875.956 6 138543499.573 6      2428.488 6        38.028               
> 2025 01 07 14 19 50.0000000  0  5                                             
E04  25994722.268 6 136602197.079 6      -579.819 6        38.688               
E13  25451040.412 6 134115654.430 6     -1763.921 6        40.019               
E15  26211198.968 6 137537370.931 6      1002.015 6        37.532               
E21  23655017.453 6 124307000.397 6      -572.598 6        41.350               
E27  26459340.175 6 138541072.514 6      2427.009 6        37.726               
> 2025 01 07 14 19 51.0000000  0  5                                             
E04  25994832.707 6 136602780.209 6      -583.462 6        38.658               
E13  25450708.244 6 134117417.169 6     -1762.215 6        40.246               
E15  26211391.936 6 137536368.882 6      1000.500 6        37.197               
E21  23655126.517 6 124307574.087 6      -572.618 6        41.198               
E27  26459803.876 6 138538645.442 6      2424.809 6        37.807               
> 2025 01 07 14 19 52.0000000  0  5                                             
E04  25994947.677 6 136603363.784 6      -584.244 6        38.583               
E13  25450375.979 6 134119179.561 6     -1762.100 6        40.194               
E15  26211576.228 6 137535366.435 6      1000.679 6        37.084               
E21  23655239.556 6 124308147.939 6      -575.563 6        41.276               
E27  26460267.274 6 138536218.344 6      2430.252 6        38.016               
> 2025 01 07 14 19 53.0000000  0  5                                             
E04  25995062.039 6 136603948.109 6      -585.082 6        38.555               
E13  25450038.638 6 134120941.306 6     -1761.596 6        40.025               
E15  26211771.277 6 137534363.179 6      1004.016 6        37.256               
E21  23655349.165 6 124308722.281 6      -572.809 6        41.360               
E27  26460732.217 6 138533790.862 6      2428.245 6        37.759               
> 2025 01 07 14 19 54.0000000  0  5                                             
E04  25995175.757 6 136604532.792 6      -587.285 6        38.137               
E13  25449704.595 6 134122702.802 6     -1762.037 6        39.818               
E15  26211966.880 6 137533359.589 6      1004.526 6        37.309               
E21  23655461.999 6 124309296.710 6      -574.457 6        41.207               
E27  26461198.670 6 138531363.469 6      2424.380 6        37.725               
> 2025 01 07 14 19 55.0000000  0  5                                             
E04  25995284.794 6 136605118.191 6      -585.837 6        38.092               
E13  25449374.456 6 134124463.652 6     -1760.310 6        40.025               
E15  26212157.418 6 137532355.266 6      1003.644 6        37.438               
E21  23655570.991 6 124309871.570 6      -574.720 6        41.406               
E27  26461662.523 6 138528935.720 6      2428.054 6        37.804               
> 2025 01 07 14 19 56.0000000  0  5                                             
E04  25995398.780 6 136605703.917 6      -585.044 6        38.034               
E13  25449042.771 6 134126224.322 6     -1758.506 6        40.088               
E15  26212355.692 6 137531350.591 6      1006.055 6        37.122               
E21  23655683.244 6 124310446.457 6      -574.211 6        40.922               
E27  26462123.436 6 138526508.088 6      2428.480 6        37.606               
> 2025 01 07 14 19 57.0000000  0  5                                             
E04  25995510.381 6 136606290.004 6      -586.201 6        38.142               
E13  25448707.262 6 134127984.724 6     -1760.811 6        40.219               
E15  26212547.865 6 137530345.577 6      1005.442 6        37.647               
E21  23655792.013 6 124311021.437 6      -575.884 6        40.996               
E27  26462586.083 6 138524080.470 6      2430.660 6        37.424               
> 2025 01 07 14 19 58.0000000  0  5                                             
E04  25995622.679 6 136606876.465 6      -584.486 6        38.258               
E13  25448374.988 6 134129744.844 6     -1760.954 6        40.395               
E15  26212739.626 6 137529340.149 6      1006.365 6        37.851               
E21  23655902.023 6 124311596.520 6      -575.822 6        40.980               
E27  26463051.902 6 138521652.886 6      2426.358 6        37.512               
> 2025 01 07 14 19 59.0000000  0  5                                             
E04  25995738.336 6 136607463.335 6      -588.752 6        38.305               
E13  25448043.097 6 134131504.678 6     -1758.657 6        40.077               
E15  26212935.739 6 137528334.312 6      1006.196 6        37.774               
E21  23656014.053 6 124312171.728 6      -576.611 6        41.086               
E27  26463516.559 6 138519225.306 6      2429.518 6        37.887               
> 2025 01 07 14 20 00.0000000  0  5                                             
E04  25995849.866 6 136608051.054 6      -587.307 6        38.238               
E13  25447710.314 6 134133263.733 6     -1758.240 6        39.986               
E15  26213126.687 6 137527327.622 6      1005.927 6        37.577               
E21  23656125.797 6 124312747.513 6      -576.829 6        41.181               
E27  26463981.306 6 138516797.275 6      2424.786 6        38.071               
> 2025 01 07 14 20 01.0000000  0  5                                             
E04  25995963.522 6 136608639.329 6      -588.242 6        37.628               
E13  25447372.330 6 134135022.346 6     -1759.125 6        40.045               
E15  26213319.762 6 137526320.353 6      1006.512 6        37.616               
E21  23656236.916 6 124313323.598 6      -575.672 6        41.068               
E27  26464450.868 6 138514369.042 6      2428.983 6        37.870               
> 2025 01 07 14 20 02.0000000  0  5                                             
E04  25996077.517 6 136609228.076 6      -588.573 6        37.558               
E13  25447041.226 6 134136780.611 6     -1756.924 6        39.764               
E15  26213508.459 6 137525312.619 6      1008.857 6        37.044               
E21  23656351.635 6 124313899.815 6      -576.287 6        40.940               
E27  26464907.109 6 138511940.827 6      2430.065 6        37.657               
> 2025 01 07 14 20 03.0000000  0  5                                             
E04  25996192.996 6 136609817.471 6      -588.523 6        37.713               
E13  25446706.441 6 134138538.298 6     -1757.063 6        39.851               
E15  26213705.635 6 137524304.221 6      1010.099 6        36.975               
E21  23656460.770 6 124314476.477 6      -577.847 6        40.971               
E27  26465373.231 6 138509512.295 6      2427.406 6        37.424               
> 2025 01 07 14 20 04.0000000  0  5                                             
E04  25996305.696 6 136610407.218 6      -590.329 6        37.760               
E13  25446375.248 6 134140295.782 6     -1757.452 6        39.681               
E15  26213898.218 6 137523295.499 6      1010.333 6        37.149               
E21  23656572.192 6 124315053.138 6      -575.554 6        41.275               
E27  26465835.038 6 138507083.858 6      2428.997 6        37.224               
> 2025 01 07 14 20 05.0000000  0  5                                             
E04  25996420.156 6 136610997.049 6      -591.322 6        37.954               
E13  25446042.866 6 134142053.260 6     -1758.200 6        39.510               
E15  26214097.833 6 137522286.638 6      1008.689 6        37.214               
E21  23656685.544 6 124315629.628 6      -576.521 6        41.233               
E27  26466299.758 6 138504655.734 6      2427.626 6        37.694               
> 2025 01 07 14 20 06.0000000  0  5                                             
E04  25996536.421 6 136611587.961 6      -590.578 6        38.091               
E13  25445712.852 6 134143809.734 6     -1755.815 6        39.905               
E15  26214283.519 6 137521276.695 6      1010.927 6        37.390               
E21  23656795.046 6 124316206.949 6      -577.316 6        41.333               
E27  26466763.923 6 138502226.891 6      2428.027 6        37.987               
> 2025 01 07 14 20 07.0000000  0  5                                             
E04  25996650.371 6 136612179.274 6      -590.606 6        37.977               
E13  25445378.228 6 134145565.943 6     -1756.129 6        40.152               
E15  26214482.285 6 137520266.328 6      1007.664 6        37.174               
E21  23656909.014 6 124316784.377 6      -575.991 6        41.375               
E27  26467230.001 6 138499798.080 6      2428.204 6        37.983               
> 2025 01 07 14 20 08.0000000  0  5                                             
E04  25996762.071 6 136612770.301 6      -591.528 6        38.161               
E13  25445046.427 6 134147322.510 6     -1756.027 6        39.934               
E15  26214674.225 6 137519256.251 6      1011.038 6        37.164               
E21  23657020.883 6 124317361.250 6      -577.676 6        40.944               
E27  26467693.926 6 138497369.943 6      2429.396 6        37.978               
> 2025 01 07 14 20 09.0000000  0  5                                             
E04  25996875.592 6 136613361.913 6      -592.156 6        38.000               
E13  25444711.481 6 134149078.631 6     -1753.632 6        39.934               
E15  26214869.828 6 137518245.567 6      1012.846 6        37.181               
E21  23657129.822 6 124317938.417 6      -577.284 6        40.960               
E27  26468154.937 6 138494941.673 6      2427.444 6        38.186               
> 2025 01 07 14 20 10.0000000  0  5                                             
E04  25996991.777 6 136613953.932 6      -594.139 6        38.079               
E13  25444379.635 6 134150834.420 6     -1754.874 6        39.860               
E15  26215066.048 6 137517234.510 6      1010.013 6        37.129               
E21  23657243.487 6 124318515.706 6      -576.841 6        40.747               
E27  26468621.221 6 138492513.362 6      2427.564 6        37.890               
> 2025 01 07 14 20 11.0000000  0  5                                             
E04  25997106.442 6 136614547.025 6      -594.267 6        38.344               
E13  25444051.193 6 134152589.247 6     -1754.678 6        39.478               
E15  26215256.648 6 137516222.351 6      1012.305 6        37.210               
E21  23657359.162 6 124319093.802 6      -578.090 6        41.063               
E27  26469084.287 6 138490084.385 6      2427.388 6        37.772               
> 2025 01 07 14 20 12.0000000  0  5                                             
E04  25997218.571 6 136615141.776 6      -596.302 6        37.989               
E13  25443716.766 6 134154342.532 6     -1754.846 6        39.950               
E15  26215455.825 6 137515208.512 6      1011.979 6        37.576               
E21  23657467.350 6 124319673.277 6      -578.504 6        41.060               
E27  26469547.801 6 138487654.124 6      2430.123 6        37.705               
> 2025 01 07 14 20 13.0000000  0  5                                             
E04  25997335.112 6 136615735.870 6      -593.910 6        38.094               
E13  25443385.304 6 134156096.562 6     -1753.587 6        40.026               
E15  26215648.140 6 137514195.321 6      1016.704 6        37.556               
E21  23657579.120 6 124320251.823 6      -580.444 6        41.052               
E27  26470021.285 6 138485224.918 6      2430.110 6        37.735               
> 2025 01 07 14 20 14.0000000  0  5                                             
E04  25997452.530 6 136616330.733 6      -593.264 6        38.168               
E13  25443053.503 6 134157849.907 6     -1753.320 6        39.590               
E15  26215839.571 6 137513181.330 6      1017.000 6        37.829               
E21  23657692.535 6 124320830.869 6      -580.625 6        40.998               
E27  26470475.775 6 138482795.375 6      2427.948 6        38.127               
> 2025 01 07 14 20 15.0000000  0  5                                             
E04  25997568.946 6 136616925.408 6      -595.187 6        37.868               
E13  25442722.310 6 134159603.600 6     -1754.555 6        39.965               
E15  26216037.068 6 137512167.571 6      1014.306 6        37.918               
E21  23657804.315 6 124321409.397 6      -578.313 6        41.155               
E27  26470937.296 6 138480366.469 6      2426.345 6        37.949               
> 2025 01 07 14 20 16.0000000  0  5                                             
E04  25997681.119 6 136617520.749 6      -595.780 6        37.795               
E13  25442387.668 6 134161356.670 6     -1752.473 6        39.957               
E15  26216229.750 6 137511153.110 6      1014.682 6        37.991               
E21  23657916.246 6 124321988.378 6      -581.318 6        41.315               
E27  26471406.170 6 138477937.193 6      2432.174 6        38.261               
> 2025 01 07 14 20 17.0000000  0  5                                             
E04  25997794.150 6 136618117.550 6      -598.028 6        37.940               
E13  25442060.781 6 134163108.371 6     -1750.922 6        40.039               
E15  26216428.570 6 137510137.147 6      1014.085 6        38.113               
E21  23658025.846 6 124322568.518 6      -579.315 6        41.380               
E27  26471875.447 6 138475506.896 6      2430.169 6        38.102               
> 2025 01 07 14 20 18.0000000  0  5                                             
E04  25997911.263 6 136618715.163 6      -596.231 6        38.128               
E13  25441725.567 6 134164859.394 6     -1751.565 6        39.770               
E15  26216623.083 6 137509120.407 6      1015.246 6        38.025               
E21  23658138.144 6 124323149.176 6      -580.204 6        41.036               
E27  26472334.618 6 138473076.232 6      2429.588 6        38.380               
> 2025 01 07 14 20 19.0000000  0  5                                             
E04  25998028.225 6 136619312.530 6      -596.152 6        38.289               
E13  25441399.422 6 134166610.772 6     -1750.777 6        39.934               
E15  26216819.526 6 137508103.906 6      1015.616 6        37.938               
E21  23658252.184 6 124323729.314 6      -581.849 6        41.025               
E27  26472798.024 6 138470646.197 6      2430.135 6        38.160               
> 2025 01 07 14 20 20.0000000  0  5                                             
E04  25998141.229 6 136619910.299 6      -598.545 6        38.162               
E13  25441066.870 6 134168361.815 6     -1750.906 6        40.174               
E15  26217010.635 6 137507086.953 6      1015.449 6        38.099               
E21  23658363.222 6 124324309.611 6      -580.672 6        40.927               
E27  26473261.877 6 138468216.116 6      2431.049 6        38.342               
> 2025 01 07 14 20 21.0000000  0  5                                             
E04  25998255.492 6 136620508.470 6      -597.891 6        38.056               
E13  25440732.755 6 134170112.588 6     -1750.551 6        40.256               
E15  26217206.739 6 137506069.628 6      1017.648 6        37.938               
E21  23658477.602 6 124324889.990 6      -580.486 6        40.859               
E27  26473727.571 6 138465786.108 6      2428.830 6        38.529               
> 2025 01 07 14 20 22.0000000  0  5                                             
E04  25998376.108 6 136621106.959 6      -599.668 6        37.823               
E13  25440403.143 6 134171863.140 6     -1749.987 6        40.180               
E15  26217403.522 6 137505051.976 6      1018.417 6        38.119               
E21  23658585.683 6 124325470.418 6      -580.651 6        40.931               
E27  26474192.353 6 138463356.149 6      2429.188 6        38.434               
> 2025 01 07 14 20 23.0000000  0  5                                             
E04  25998488.781 6 136621706.188 6      -598.987 6        37.686               
E13  25440070.091 6 134173613.023 6     -1749.846 6        40.056               
E15  26217599.607 6 137504033.514 6      1019.601 6        37.975               
E21  23658699.330 6 124326051.340 6      -580.629 6        40.896               
E27  26474659.306 6 138460925.800 6      2430.490 6        37.989               
> 2025 01 07 14 20 24.0000000  0  5                                             
E04  25998606.609 6 136622305.501 6      -600.430 6        37.264               
E13  25439741.158 6 134175362.967 6     -1749.814 6        39.943               
E15  26217793.299 6 137503015.047 6      1017.783 6        37.948               
E21  23658813.700 6 124326632.011 6      -580.716 6        41.185               
E27  26475120.309 6 138458495.857 6      2427.384 6        37.795               
> 2025 01 07 14 20 25.0000000  0  5                                             
E04  25998722.615 6 136622904.932 6      -599.552 6        37.705               
E13  25439410.376 6 134177112.863 6     -1749.406 6        40.212               
E15  26217992.905 6 137501996.395 6      1020.031 6        37.961               
E21  23658926.990 6 124327212.569 6      -580.455 6        41.146               
E27  26475587.075 6 138456066.131 6      2429.849 6        37.923               
> 2025 01 07 14 20 26.0000000  0  5                                             
E04  25998841.730 6 136623505.016 6      -600.898 6        38.032               
E13  25439079.906 6 134178862.227 6     -1750.023 6        40.475               
E15  26218188.088 6 137500977.091 6      1021.606 6        37.758               
E21  23659038.707 6 124327793.496 6      -580.476 6        41.528               
E27  26476048.534 6 138453636.188 6      2430.829 6        38.060               
> 2025 01 07 14 20 27.0000000  0  5                                             
E04  25998956.923 6 136624106.018 6      -600.643 6        38.106               
E13  25438747.498 6 134180610.765 6     -1749.700 6        40.602               
E15  26218382.199 6 137499956.866 6      1022.867 6        37.958               
E21  23659152.524 6 124328375.070 6      -581.912 6        41.533               
E27  26476513.655 6 138451205.724 6      2429.901 6        37.806               
> 2025 01 07 14 20 28.0000000  0  5                                             
E04  25999067.728 6 136624707.254 6      -600.106 6        38.070               
E13  25438419.056 6 134182359.159 6     -1748.559 6        40.693               
E15  26218578.303 6 137498936.431 6      1018.609 6        37.991               
E21  23659264.357 6 124328956.579 6      -582.201 6        41.365               
E27  26476978.036 6 138448775.419 6      2430.367 6        37.606               
> 2025 01 07 14 20 29.0000000  0  5                                             
E04  25999186.852 6 136625308.893 6      -600.813 6        37.976               
E13  25438088.113 6 134184107.269 6     -1748.264 6        40.479               
E15  26218772.146 6 137497915.540 6      1022.014 6        37.973               
E21  23659375.770 6 124329538.212 6      -581.964 6        41.490               
E27  26477442.720 6 138446345.112 6      2430.848 6        37.571               
> 2025 01 07 14 20 30.0000000  0  5                                             
E04  25999301.697 6 136625910.757 6      -603.035 6        38.078               
E13  25437753.855 6 134185855.271 6     -1748.227 6        40.395               
E15  26218969.447 6 137496894.437 6      1019.264 6        37.886               
E21  23659489.051 6 124330119.793 6      -581.658 6        41.553               
E27  26477904.920 6 138443915.033 6      2427.305 6        37.728               
> 2025 01 07 14 20 31.0000000  0  5                                             
E04  25999420.990 6 136626513.308 6      -602.778 6        37.980               
E13  25437424.725 6 134187602.635 6     -1746.609 6        40.444               
E15  26219165.657 6 137495872.602 6      1023.921 6        37.735               
E21  23659600.214 6 124330701.817 6      -581.982 6        41.630               
E27  26478374.571 6 138441484.593 6      2430.624 6        37.755               
> 2025 01 07 14 20 32.0000000  0  5                                             
E04  25999532.082 6 136627116.601 6      -605.114 6        37.941               
E13  25437096.534 6 134189349.395 6     -1747.352 6        40.761               
E15  26219360.617 6 137494850.052 6      1023.807 6        37.979               
E21  23659712.986 6 124331284.277 6      -582.517 6        41.512               
E27  26478835.351 6 138439053.873 6      2430.830 6        37.544               
> 2025 01 07 14 20 33.0000000  0  5                                             
E04  25999654.404 6 136627720.544 6      -606.602 6        37.852               
E13  25436763.366 6 134191095.586 6     -1745.831 6        40.776               
E15  26219558.347 6 137493826.840 6      1022.279 6        37.875               
E21  23659825.677 6 124331867.090 6      -582.792 6        41.349               
E27  26479299.517 6 138436622.888 6      2430.049 6        37.590               
> 2025 01 07 14 20 34.0000000  0  5                                             
E04  25999770.401 6 136628325.236 6      -604.196 6        37.878               
E13  25436431.512 6 134192841.140 6     -1745.846 6        40.462               
E15  26219754.058 6 137492802.849 6      1025.969 6        37.702               
E21  23659939.324 6 124332450.419 6      -583.443 6        41.610               
E27  26479766.121 6 138434191.522 6      2431.198 6        37.727               
> 2025 01 07 14 20 35.0000000  0  5                                             
E04  25999885.513 6 136628930.684 6      -605.872 6        38.158               
E13  25436101.774 6 134194586.049 6     -1745.145 6        40.326               
E15  26219950.268 6 137491778.103 6      1025.789 6        37.706               
E21  23660049.004 6 124333034.196 6      -583.823 6        41.611               
E27  26480227.714 6 138431759.821 6      2431.534 6        37.735               
> 2025 01 07 14 20 36.0000000  0  5                                             
E04  26000006.629 6 136629536.436 6      -606.226 6        38.353               
E13  25435772.252 6 134196330.753 6     -1744.598 6        40.526               
E15  26220147.203 6 137490753.056 6      1026.638 6        37.857               
E21  23660161.981 6 124333617.995 6      -583.101 6        41.272               
E27  26480693.434 6 138429328.259 6      2432.585 6        37.550               
> 2025 01 07 14 20 37.0000000  0  5                                             
E04  26000122.912 6 136630142.901 6      -604.796 6        38.342               
E13  25435438.968 6 134198074.809 6     -1743.895 6        40.317               
E15  26220347.113 6 137489727.275 6      1026.279 6        38.019               
E21  23660279.675 6 124334202.256 6      -584.336 6        41.243               
E27  26481159.646 6 138426896.335 6      2433.109 6        37.517               
> 2025 01 07 14 20 38.0000000  0  5                                             
E04  26000237.292 6 136630750.020 6      -606.873 6        38.346               
E13  25435111.232 6 134199818.331 6     -1742.444 6        40.290               
E15  26220542.073 6 137488700.834 6      1025.253 6        37.869               
E21  23660393.179 6 124334786.880 6      -584.801 6        41.397               
E27  26481626.296 6 138424464.171 6      2431.033 6        37.431               
> 2025 01 07 14 20 39.0000000  0  5                                             
E04  26000357.023 6 136631357.554 6      -606.759 6        38.577               
E13  25434781.942 6 134201561.550 6     -1743.268 6        40.244               
E15  26220740.231 6 137487673.993 6      1026.316 6        38.079               
E21  23660502.278 6 124335371.623 6      -586.252 6        41.393               
E27  26482090.426 6 138422032.012 6      2431.084 6        37.518               
> 2025 01 07 14 20 40.0000000  0  5                                             
E04  26000472.180 6 136631966.281 6      -609.161 6        38.619               
E13  25434447.818 6 134203303.675 6     -1740.421 6        40.088               
E15  26220940.981 6 137486645.898 6      1031.645 6        38.171               
E21  23660617.167 6 124335957.290 6      -586.982 6        41.530               
E27  26482552.143 6 138419599.053 6      2430.500 6        37.423               
> 2025 01 07 14 20 41.0000000  0  5                                             
E04  26000590.500 6 136632574.994 6      -608.264 6        38.317               
E13  25434122.048 6 134205045.896 6     -1742.430 6        40.244               
E15  26221136.789 6 137485617.867 6      1024.579 6        37.947               
E21  23660729.751 6 124336542.674 6      -582.944 6        41.489               
E27  26483016.041 6 138417166.499 6      2431.201 6        37.738               
> 2025 01 07 14 20 42.0000000  0  5                                             
E04  26000711.285 6 136633183.226 6      -607.669 6        38.052               
E13  25433793.633 6 134206788.700 6     -1741.266 6        40.149               
E15  26221329.766 6 137484590.266 6      1025.991 6        37.791               
E21  23660842.433 6 124337127.306 6      -584.912 6        41.516               
E27  26483482.360 6 138414734.816 6      2431.604 6        37.777               
> 2025 01 07 14 20 43.0000000  0  5                                             
E04  26000821.886 6 136633791.767 6      -610.318 6        38.017               
E13  25433459.884 6 134208531.332 6     -1742.490 6        39.787               
E15  26221529.738 6 137483562.363 6      1027.044 6        37.791               
E21  23660955.821 6 124337711.937 6      -584.528 6        41.585               
E27  26483945.999 6 138412303.260 6      2431.108 6        37.785               
> 2025 01 07 14 20 44.0000000  0  5                                             
E04  26000942.296 6 136634400.879 6      -610.140 6        38.175               
E13  25433134.132 6 134210273.441 6     -1741.871 6        39.628               
E15  26221730.264 6 137482533.855 6      1031.455 6        37.805               
E21  23661068.280 6 124338296.898 6      -584.498 6        41.605               
E27  26484404.035 6 138409871.498 6      2435.657 6        37.715               
> 2025 01 07 14 20 45.0000000  0  5                                             
E04  26001061.894 6 136635011.858 6      -611.778 6        38.103               
E13  25432805.226 6 134212013.796 6     -1741.355 6        39.893               
E15  26221926.520 6 137481503.495 6      1032.389 6        37.728               
E21  23661184.115 6 124338883.448 6      -587.275 6        41.211               
E27  26484874.938 6 138407438.295 6      2432.920 6        37.689               
> 2025 01 07 14 20 46.0000000  0  5                                             
E04  26001180.160 6 136635622.839 6      -611.039 6        37.911               
E13  25432474.309 6 134213754.283 6     -1739.982 6        40.089               
E15  26222123.293 6 137480473.165 6      1031.085 6        37.303               
E21  23661295.162 6 124339469.689 6      -586.636 6        41.488               
E27  26485343.642 6 138405005.479 6      2432.784 6        37.565               
> 2025 01 07 14 20 47.0000000  0  5                                             
E04  26001295.540 6 136636234.557 6      -613.181 6        37.947               
E13  25432144.760 6 134215494.091 6     -1737.678 6        40.305               
E15  26222324.570 6 137479442.035 6      1029.247 6        37.486               
E21  23661410.963 6 124340056.412 6      -586.081 6        41.659               
E27  26485803.689 6 138402572.352 6      2431.457 6        37.348               
> 2025 01 07 14 20 48.0000000  0  5                                             
E04  26001410.661 6 136636846.215 6      -611.396 6        38.103               
E13  25431816.390 6 134217234.066 6     -1739.936 6        40.031               
E15  26222521.576 6 137478410.947 6      1033.087 6        37.834               
E21  23661524.360 6 124340642.828 6      -586.599 6        41.530               
E27  26486270.696 6 138400139.648 6      2430.444 6        37.218               
> 2025 01 07 14 20 49.0000000  0  5                                             
E04  26001533.716 6 136637459.097 6      -611.717 6        38.216               
E13  25431490.503 6 134218972.951 6     -1739.389 6        40.224               
E15  26222716.357 6 137477378.671 6      1033.361 6        37.626               
E21  23661635.800 6 124341230.122 6      -586.649 6        41.623               
E27  26486730.895 6 138397706.181 6      2433.463 6        37.336               
> 2025 01 07 14 20 50.0000000  0  5                                             
E04  26001654.448 6 136638072.070 6      -614.443 6        38.321               
E13  25431158.139 6 134220711.816 6     -1737.315 6        40.307               
E15  26222916.499 6 137476346.246 6      1034.736 6        37.959               
E21  23661749.331 6 124341817.275 6      -587.962 6        41.879               
E27  26487194.819 6 138395273.001 6      2428.372 6        37.545               
> 2025 01 07 14 20 51.0000000  0  5                                             
E04  26001768.837 6 136638685.675 6      -615.032 6        38.252               
E13  25430831.315 6 134222450.154 6     -1738.681 6        40.322               
E15  26223119.420 6 137475313.229 6      1034.168 6        38.055               
E21  23661864.228 6 124342404.769 6      -587.669 6        41.919               
E27  26487665.498 6 138392839.564 6      2433.147 6        37.354               
> 2025 01 07 14 20 52.0000000  0  5                                             
E04  26001890.248 6 136639299.455 6      -614.799 6        38.203               
E13  25430502.025 6 134224188.402 6     -1738.209 6        40.104               
E15  26223313.960 6 137474280.003 6      1033.630 6        37.758               
E21  23661977.169 6 124342992.175 6      -588.999 6        41.950               
E27  26488125.947 6 138390406.370 6      2430.699 6        37.175               
> 2025 01 07 14 20 53.0000000  0  5                                             
E04  26002006.200 6 136639913.755 6      -614.218 6        38.367               
E13  25430170.724 6 134225926.235 6     -1738.819 6        40.128               
E15  26223510.010 6 137473246.225 6      1033.445 6        37.758               
E21  23662090.879 6 124343579.817 6      -587.050 6        41.891               
E27  26488593.597 6 138387973.027 6      2431.356 6        37.190               
> 2025 01 07 14 20 54.0000000  0  5                                             
E04  26002124.395 6 136640528.203 6      -616.314 6        38.123               
E13  25429844.060 6 134227664.020 6     -1738.358 6        40.223               
E15  26223711.626 6 137472212.345 6      1032.008 6        37.875               
E21  23662205.187 6 124344167.329 6      -589.673 6        41.697               
E27  26489054.565 6 138385539.971 6      2431.007 6        37.142               
> 2025 01 07 14 20 55.0000000  0  5                                             
E04  26002243.813 6 136641143.494 6      -615.185 6        38.213               
E13  25429515.226 6 134229401.061 6     -1737.135 6        40.338               
E15  26223909.749 6 137471177.582 6      1034.840 6        38.055               
E21  23662317.869 7 124344755.403 7      -589.281 7        42.018               
E27  26489520.633 6 138383106.462 6      2432.394 6        37.511               
> 2025 01 07 14 20 56.0000000  0  5                                             
E04  26002365.483 6 136641759.369 6      -617.353 6        38.032               
E13  25429186.605 6 134231137.621 6     -1735.942 6        39.917               
E15  26224109.203 6 137470142.211 6      1036.509 6        37.929               
E21  23662431.945 6 124345343.778 6      -588.653 6        41.928               
E27  26489985.505 6 138380672.775 6      2434.984 6        37.301               
> 2025 01 07 14 20 57.0000000  0  5                                             
E04  26002484.366 6 136642375.835 6      -616.512 6        38.291               
E13  25428856.609 6 134232873.680 6     -1736.458 6        39.704               
E15  26224304.860 6 137469106.261 6      1037.796 6        37.661               
E21  23662545.226 7 124345932.476 7      -587.322 7        42.166               
E27  26490450.591 6 138378238.880 6      2433.722 6        37.095               
> 2025 01 07 14 20 58.0000000  0  5                                             
E04  26002607.350 6 136642992.444 6      -617.179 6        38.601               
E13  25428532.733 6 134234609.685 6     -1733.762 6        39.937               
E15  26224507.557 6 137468070.169 6      1035.963 6        37.521               
E21  23662659.141 7 124346521.041 7      -588.317 7        42.226               
E27  26490922.467 6 138375805.271 6      2434.608 6        37.212               
> 2025 01 07 14 20 59.0000000  0  5                                             
E04  26002725.786 6 136643609.811 6      -618.734 6        38.689               
E13  25428200.852 6 134236345.062 6     -1734.331 6        39.976               
E15  26224707.199 6 137467033.289 6      1036.197 6        37.693               
E21  23662773.368 7 124347110.074 7      -588.562 7        42.388               
E27  26491384.417 6 138373371.312 6      2431.121 6        37.102               
> 2025 01 07 14 21 00.0000000  0  5                                             
E04  26002842.032 6 136644227.546 6      -617.725 6        38.684               
E13  25427870.963 6 134238080.162 6     -1734.885 6        40.175               
E15  26224905.849 6 137465996.033 6      1039.733 6        38.058               
E21  23662888.204 7 124347699.210 7      -588.336 7        42.067               
E27  26491847.448 6 138370937.367 6      2434.684 6        37.063               
> 2025 01 07 14 21 01.0000000  0  5                                             
E04  26002963.452 6 136644846.167 6      -619.070 6        39.036               
E13  25427545.791 6 134239814.447 6     -1732.847 6        39.876               
E15  26225107.009 6 137464957.891 6      1037.347 6        37.867               
E21  23663005.040 7 124348288.965 7      -589.378 7        42.220               
E27  26492313.079 6 138368502.933 6      2433.315 6        37.261               
> 2025 01 07 14 21 02.0000000  0  5                                             
E04  26003087.026 6 136645465.177 6      -619.925 6        38.698               
E13  25427214.553 6 134241548.476 6     -1733.769 6        39.787               
E15  26225304.507 6 137463919.363 6      1037.822 6        37.547               
E21  23663115.793 7 124348878.812 7      -589.526 7        42.010               
E27  26492780.452 6 138366068.529 6      2435.462 6        37.164               
> 2025 01 07 14 21 03.0000000  0  5                                             
E04  26003201.432 6 136646084.673 6      -619.775 6        38.678               
E13  25426888.301 6 134243282.085 6     -1733.649 6        39.788               
E15  26225503.996 6 137462880.318 6      1039.028 6        37.241               
E21  23663228.698 6 124349468.879 6      -591.803 6        41.875               
E27  26493245.547 6 138363634.035 6      2433.842 6        37.571               
> 2025 01 07 14 21 04.0000000  0  5                                             
E04  26003323.352 6 136646704.560 6      -618.847 6        38.769               
E13  25426558.528 6 134245015.444 6     -1733.356 6        39.933               
E15  26225706.962 6 137461840.889 6      1041.267 6        37.250               
E21  23663342.461 6 124350059.029 6      -590.901 6        41.655               
E27  26493716.280 6 138361199.545 6      2435.446 6        37.483               
> 2025 01 07 14 21 05.0000000  0  5                                             
E04  26003442.994 6 136647324.906 6      -620.445 6        38.716               
E13  25426228.880 6 134246748.410 6     -1733.703 6        39.885               
E15  26225904.227 6 137460800.988 6      1041.751 6        37.229               
E21  23663455.617 6 124350649.398 6      -591.355 6        41.825               
E27  26494175.433 6 138358764.998 6      2435.731 6        37.177               
> 2025 01 07 14 21 06.0000000  0  5                                             
E04  26003562.637 6 136647945.741 6      -619.352 6        38.618               
E13  25425903.244 6 134248480.984 6     -1731.178 6        39.872               
E15  26226102.010 6 137459760.619 6      1039.528 6        37.484               
E21  23663571.462 7 124351239.977 7      -590.568 7        42.098               
E27  26494634.926 6 138356330.383 6      2434.986 6        37.280               
> 2025 01 07 14 21 07.0000000  0  5                                             
E04  26003684.244 6 136648567.027 6      -622.587 6        38.452               
E13  25425574.150 6 134250213.211 6     -1731.722 6        40.188               
E15  26226299.641 6 137458719.721 6      1044.204 6        37.663               
E21  23663686.601 7 124351830.708 7      -591.152 7        42.229               
E27  26495106.651 6 138353895.704 6      2435.067 6        37.122               
> 2025 01 07 14 21 08.0000000  0  5                                             
E04  26003803.538 6 136649188.852 6      -622.201 6        38.624               
E13  25425247.531 6 134251944.998 6     -1731.160 6        39.706               
E15  26226504.492 6 137457678.308 6      1039.645 6        37.680               
E21  23663801.043 7 124352421.719 7      -592.200 7        42.147               
E27  26495569.182 6 138351460.873 6      2438.529 6        37.746               
> 2025 01 07 14 21 09.0000000  0  5                                             
E04  26003924.770 6 136649811.763 6      -621.945 6        38.555               
E13  25424919.724 6 134253675.827 6     -1731.576 6        39.511               
E15  26226704.134 6 137456635.853 6      1044.289 6        37.901               
E21  23663916.959 7 124353013.504 7      -591.924 7        42.257               
E27  26496035.661 6 138349025.400 6      2436.156 6        37.509               
> 2025 01 07 14 21 10.0000000  0  5                                             
E04  26004042.187 6 136650434.938 6      -622.108 6        38.833               
E13  25424590.782 6 134255406.449 6     -1730.288 6        39.745               
E15  26226902.837 6 137455593.070 6      1041.780 6        37.169               
E21  23664030.964 7 124353605.308 7      -591.803 7        42.015               
E27  26496495.708 6 138346590.035 6      2438.616 6        37.205               
> 2025 01 07 14 21 11.0000000  0  5                                             
E04  26004163.402 6 136651058.508 6      -623.559 6        38.552               
E13  25424266.307 6 134257136.757 6     -1729.638 6        39.717               
E15  26227102.613 6 137454549.880 6      1042.371 6        37.278               
E21  23664143.699 6 124354197.248 6      -591.421 6        41.656               
E27  26496966.530 6 138344154.668 6      2434.455 6        37.555               
> 2025 01 07 14 21 12.0000000  0  5                                             
E04  26004281.543 6 136651682.516 6      -625.280 6        38.442               
E13  25423934.900 6 134258866.785 6     -1730.064 6        39.614               
E15  26227305.158 6 137453506.256 6      1042.633 6        37.384               
E21  23664259.616 6 124354789.307 6      -591.442 6        41.626               
E27  26497435.860 6 138341719.290 6      2433.834 6        37.647               
> 2025 01 07 14 21 13.0000000  0  5                                             
E04  26004404.750 6 136652307.189 6      -624.516 6        38.279               
E13  25423610.523 6 134260596.206 6     -1728.985 6        39.834               
E15  26227499.314 6 137452461.959 6      1042.959 6        37.374               
E21  23664375.201 6 124355381.783 6      -592.741 6        41.610               
E27  26497898.096 6 138339283.645 6      2434.211 6        37.666               
> 2025 01 07 14 21 14.0000000  0  5                                             
E04  26004524.356 6 136652932.285 6      -625.376 6        38.372               
E13  25423281.501 6 134262325.305 6     -1729.656 6        40.287               
E15  26227704.442 6 137451417.216 6      1042.342 6        37.222               
E21  23664486.123 6 124355974.391 6      -592.148 6        41.840               
E27  26498360.546 6 138336847.960 6      2434.971 6        37.798               
> 2025 01 07 14 21 15.0000000  0  5                                             
E04  26004648.153 6 136653557.738 6      -625.937 6        38.567               
E13  25422957.402 6 134264054.160 6     -1727.976 6        40.316               
E15  26227906.674 6 137450372.128 6      1046.427 6        37.256               
E21  23664603.701 6 124356567.074 6      -592.474 6        41.992               
E27  26498824.444 6 138334412.331 6      2435.317 6        38.002               
> 2025 01 07 14 21 16.0000000  0  5                                             
E04  26004765.052 6 136654183.597 6      -624.427 6        38.244               
E13  25422628.201 6 134265782.681 6     -1727.986 6        40.407               
E15  26228109.774 6 137449326.625 6      1046.360 6        37.187               
E21  23664716.500 6 124357159.889 6      -592.330 6        41.814               
E27  26499295.051 6 138331976.696 6      2435.433 6        38.020               
> 2025 01 07 14 21 17.0000000  0  5                                             
E04  26004886.249 6 136654810.028 6      -627.283 6        38.401               
E13  25422301.528 6 134267510.747 6     -1728.530 6        39.973               
E15  26228307.566 6 137448280.540 6      1046.273 6        37.484               
E21  23664829.646 6 124357753.005 6      -593.532 6        41.887               
E27  26499758.753 6 138329540.895 6      2435.199 6        37.844               
> 2025 01 07 14 21 18.0000000  0  5                                             
E04  26005013.324 6 136655436.971 6      -625.059 6        38.422               
E13  25421975.963 6 134269238.415 6     -1730.010 6        40.006               
E15  26228508.869 6 137447233.953 6      1045.220 6        37.542               
E21  23664945.348 7 124358346.342 7      -593.818 7        42.105               
E27  26500228.261 6 138327104.995 6      2436.321 6        37.750               
> 2025 01 07 14 21 19.0000000  0  5                                             
E04  26005128.043 6 136656064.153 6      -626.872 6        38.452               
E13  25421643.233 6 134270965.894 6     -1726.218 6        39.761               
E15  26228711.147 6 137446187.072 6      1045.010 6        37.441               
E21  23665059.773 7 124358939.672 7      -594.586 7        42.099               
E27  26500689.818 6 138324669.219 6      2436.956 6        37.742               
> 2025 01 07 14 21 20.0000000  0  5                                             
E04  26005250.330 6 136656692.026 6      -628.289 6        38.415               
E13  25421319.697 6 134272692.832 6     -1727.100 6        39.548               
E15  26228912.915 6 137445139.541 6      1045.835 6        37.539               
E21  23665176.189 7 124359533.384 7      -592.768 7        42.080               
E27  26501154.127 6 138322233.187 6      2434.607 6        37.587               
> 2025 01 07 14 21 21.0000000  0  5                                             
E04  26005367.104 6 136657320.517 6      -627.844 6        38.293               
E13  25420989.808 6 134274419.214 6     -1728.277 6        39.299               
E15  26229113.959 6 137444091.345 6      1047.986 6        37.657               
E21  23665289.729 6 124360127.451 6      -593.970 6        41.893               
E27  26501617.176 6 138319796.943 6      2435.585 6        37.715               
> 2025 01 07 14 21 22.0000000  0  5                                             
E04  26005491.061 6 136657949.914 6      -627.532 6        38.115               
E13  25420666.521 6 134276144.774 6     -1723.158 6        39.378               
E15  26229313.610 6 137443042.276 6      1049.053 6        37.571               
E21  23665407.111 7 124360722.153 7      -594.780 7        42.088               
E27  26502086.175 6 138317360.150 6      2439.515 6        37.805               
> 2025 01 07 14 21 23.0000000  0  5                                             
E04  26005614.697 6 136658579.607 6      -629.317 6        38.295               
E13  25420340.019 6 134277870.164 6     -1723.802 6        39.575               
E15  26229516.450 6 137441992.873 6      1048.188 6        37.396               
E21  23665520.213 7 124361316.858 7      -593.463 7        42.184               
E27  26502555.112 6 138314923.481 6      2438.816 6        37.555               
> 2025 01 07 14 21 24.0000000  0  5                                             
E04  26005738.369 6 136659210.032 6      -629.561 6        38.085               
E13  25420017.045 6 134279594.886 6     -1724.913 6        39.575               
E15  26229719.379 6 137440942.714 6      1049.372 6        38.031               
E21  23665636.728 7 124361912.030 7      -595.045 7        42.172               
E27  26503017.071 6 138312486.510 6      2437.340 6        37.506               
> 2025 01 07 14 21 25.0000000  0  5                                             
E04  26005853.588 6 136659841.017 6      -630.281 6        37.751               
E13  25419684.029 6 134281319.177 6     -1725.298 6        39.439               
E15  26229917.591 6 137439891.993 6      1048.639 6        37.980               
E21  23665750.383 7 124362507.496 7      -595.088 7        42.048               
E27  26503482.666 6 138310049.339 6      2435.469 6        37.597               
> 2025 01 07 14 21 26.0000000  0  5                                             
E04  26005978.734 6 136660472.050 6      -633.733 6        38.055               
E13  25419360.734 6 134283043.506 6     -1724.020 6        39.312               
E15  26230119.619 6 137438841.230 6      1053.670 6        37.752               
E21  23665866.425 7 124363102.698 7      -594.074 7        42.396               
E27  26503947.404 6 138307612.569 6      2437.633 6        37.453               
> 2025 01 07 14 21 27.0000000  0  5                                             
E04  26006100.681 6 136661103.230 6      -631.551 6        37.947               
E13  25419036.062 6 134284767.796 6     -1723.091 6        39.705               
E15  26230328.043 6 137437790.324 6      1051.686 6        37.703               
E21  23665981.269 7 124363697.787 7      -594.220 7        42.433               
E27  26504411.382 6 138305176.033 6      2437.022 6        37.759               
> 2025 01 07 14 21 28.0000000  0  5                                             
E04  26006223.334 6 136661734.875 6      -633.119 6        38.105               
E13  25418707.737 6 134286491.681 6     -1723.636 6        39.711               
E15  26230524.549 6 137436738.925 6      1054.929 6        37.956               
E21  23666094.720 7 124364293.072 7      -596.435 7        42.461               
E27  26504879.872 6 138302739.412 6      2437.104 6        37.955               
> 2025 01 07 14 21 29.0000000  0  5                                             
E04  26006348.033 6 136662367.945 6      -634.343 6        38.327               
E13  25418387.158 6 134288214.282 6     -1722.543 6        39.396               
E15  26230730.185 6 137435686.109 6      1054.519 6        37.986               
E21  23666212.173 7 124364889.500 7      -597.289 7        42.359               
E27  26505347.048 6 138300301.782 6      2438.535 6        37.881               
> 2025 01 07 14 21 30.0000000  0  5                                             
E04  26006465.066 6 136663001.538 6      -634.104 6        38.321               
E13  25418057.626 6 134289936.430 6     -1721.636 6        39.461               
E15  26230931.105 6 137434632.737 6      1053.881 6        38.100               
E21  23666328.375 7 124365486.196 7      -596.959 7        42.330               
E27  26505808.712 6 138297864.044 6      2438.707 6        38.169               
> 2025 01 07 14 21 31.0000000  0  5                                             
E04  26006591.445 6 136663635.253 6      -632.274 6        38.098               
E13  25417735.564 6 134291658.535 6     -1721.871 6        39.297               
E15  26231134.409 6 137433579.233 6      1052.949 6        38.139               
E21  23666440.297 7 124366082.717 7      -595.796 7        42.369               
E27  26506275.755 6 138295426.557 6      2438.012 6        38.113               
> 2025 01 07 14 21 32.0000000  0  5                                             
E04  26006712.767 6 136664268.828 6      -632.794 6        38.246               
E13  25417406.407 6 134293380.918 6     -1721.263 6        39.376               
E15  26231332.595 6 137432525.892 6      1052.990 6        38.100               
E21  23666554.981 7 124366678.795 7      -594.966 7        42.294               
E27  26506742.217 6 138292989.652 6      2436.723 6        37.901               
> 2025 01 07 14 21 33.0000000  0  5                                             
E04  26006837.609 6 136664902.947 6      -635.335 6        38.226               
E13  25417081.155 6 134295102.816 6     -1721.289 6        39.455               
E15  26231535.399 6 137431471.996 6      1053.220 6        37.983               
E21  23666672.559 7 124367275.192 7      -597.416 7        42.215               
E27  26507201.299 6 138290552.584 6      2435.749 6        37.878               
> 2025 01 07 14 21 34.0000000  0  5                                             
E04  26006958.841 6 136665537.900 6      -637.741 6        38.623               
E13  25416755.090 6 134296824.014 6     -1720.765 6        39.516               
E15  26231740.571 6 137430417.238 6      1054.935 6        37.975               
E21  23666787.001 7 124367872.111 7      -597.636 7        42.357               
E27  26507671.147 6 138288115.076 6      2438.207 6        37.863               
> 2025 01 07 14 21 35.0000000  0  5                                             
E04  26007081.905 6 136666173.427 6      -635.351 6        38.147               
E13  25416427.096 6 134298544.676 6     -1720.768 6        39.582               
E15  26231940.981 6 137429361.901 6      1054.312 6        37.956               
E21  23666902.658 7 124368469.351 7      -598.930 7        42.088               
E27  26508136.099 6 138285677.387 6      2437.822 6        37.653               
> 2025 01 07 14 21 36.0000000  0  5                                             
E04  26007205.782 6 136666809.006 6      -635.485 6        38.259               
E13  25416106.579 6 134300265.422 6     -1721.401 6        39.912               
E15  26232147.038 6 137428306.492 6      1057.243 6        37.968               
E21  23667018.137 7 124369066.351 7      -596.184 7        42.181               
E27  26508601.408 6 138283240.058 6      2436.803 6        37.952               
> 2025 01 07 14 21 37.0000000  0  5                                             
E04  26007332.464 6 136667445.331 6      -636.689 6        38.470               
E13  25415780.800 6 134301985.509 6     -1718.240 6        39.665               
E15  26232344.669 6 137427250.345 6      1057.934 6        38.035               
E21  23667134.545 7 124369663.823 7      -596.841 7        42.214               
E27  26509070.560 6 138280802.391 6      2437.261 6        37.567               
> 2025 01 07 14 21 38.0000000  0  5                                             
E04  26007452.214 6 136668082.414 6      -638.525 6        38.330               
E13  25415449.151 6 134303704.944 6     -1718.703 6        39.562               
E15  26232544.606 6 137426193.464 6      1056.761 6        37.808               
E21  23667250.452 6 124370261.777 6      -597.718 6        41.953               
E27  26509534.243 6 138278364.342 6      2441.074 6        37.236               
> 2025 01 07 14 21 39.0000000  0  5                                             
E04  26007572.829 6 136668719.748 6      -635.471 6        38.526               
E13  25415127.598 6 134305424.214 6     -1716.795 6        39.659               
E15  26232753.048 6 137425136.259 6      1058.928 6        37.854               
E21  23667365.109 7 124370859.718 7      -599.474 7        42.076               
E27  26510000.213 6 138275926.484 6      2437.148 6        37.672               
> 2025 01 07 14 21 40.0000000  0  5                                             
E04  26007699.494 6 136669357.437 6      -639.296 6        38.739               
E13  25414798.665 6 134307143.208 6     -1719.281 6        39.447               
E15  26232956.791 6 137424078.704 6      1059.055 6        37.907               
E21  23667482.973 7 124371457.723 7      -598.058 7        42.108               
E27  26510466.139 6 138273488.625 6      2438.978 6        37.366               
> 2025 01 07 14 21 41.0000000  0  5                                             
E04  26007824.381 6 136669996.088 6      -638.315 6        38.764               
E13  25414478.300 6 134308861.370 6     -1717.343 6        39.569               
E15  26233157.594 6 137423020.206 6      1059.569 6        38.088               
E21  23667596.629 7 124372056.403 7      -597.763 7        42.242               
E27  26510935.281 6 138271050.247 6      2438.253 6        37.545               
> 2025 01 07 14 21 42.0000000  0  5                                             
E04  26007944.344 6 136670635.432 6      -637.019 6        38.632               
E13  25414148.733 6 134310578.911 6     -1715.776 6        39.399               
E15  26233363.043 6 137421960.986 6      1060.131 6        37.994               
E21  23667712.518 7 124372655.509 7      -598.993 7        42.514               
E27  26511397.097 6 138268611.588 6      2439.890 6        37.504               
> 2025 01 07 14 21 43.0000000  0  5                                             
E04  26008069.329 6 136671274.961 6      -639.446 6        38.734               
E13  25413825.411 6 134312296.380 6     -1718.097 6        39.587               
E15  26233565.249 6 137420901.589 6      1061.067 6        38.526               
E21  23667828.015 7 124373254.515 7      -598.648 7        42.316               
E27  26511863.318 6 138266173.117 6      2437.673 6        37.484               
> 2025 01 07 14 21 44.0000000  0  5                                             
E04  26008188.873 6 136671915.163 6      -641.754 6        38.504               
E13  25413503.992 6 134314013.254 6     -1717.446 6        39.450               
E15  26233769.921 6 137419841.514 6      1059.236 6        38.195               
E21  23667945.593 7 124373853.941 7      -599.154 7        42.012               
E27  26512322.954 6 138263734.358 6      2436.759 6        37.319               
> 2025 01 07 14 21 45.0000000  0  5                                             
E04  26008319.996 6 136672555.719 6      -640.572 6        38.464               
E13  25413179.588 6 134315729.870 6     -1716.328 6        39.613               
E15  26233973.449 6 137418781.071 6      1060.935 6        38.210               
E21  23668059.597 6 124374453.416 6      -599.043 6        41.462               
E27  26512795.357 6 138261295.658 6      2437.734 6        37.457               
> 2025 01 07 14 21 46.0000000  0  5                                             
E04  26008440.924 6 136673196.376 6      -639.547 6        38.563               
E13  25412855.766 6 134317446.487 6     -1717.325 6        39.649               
E15  26234173.305 6 137417720.531 6      1059.209 6        37.998               
E21  23668172.646 6 124375052.735 6      -598.810 6        41.696               
E27  26513263.258 6 138258857.258 6      2439.416 6        37.594               
> 2025 01 07 14 21 47.0000000  0  5                                             
E04  26008561.085 6 136673837.686 6      -642.626 6        38.899               
E13  25412528.218 6 134319162.555 6     -1714.542 6        39.218               
E15  26234380.148 6 137416659.310 6      1060.801 6        37.984               
E21  23668290.858 6 124375652.408 6      -599.966 6        41.681               
E27  26513721.580 6 138256418.624 6      2440.235 6        37.304               
> 2025 01 07 14 21 48.0000000  0  5                                             
E04  26008691.037 6 136674479.449 6      -641.877 6        38.788               
E13  25412200.973 6 134320878.245 6     -1714.430 6        39.235               
E15  26234581.603 6 137415597.619 6      1062.220 6        37.954               
E21  23668408.901 6 124376252.280 6      -599.672 6        41.878               
E27  26514197.441 6 138253979.936 6      2437.722 6        37.322               
> 2025 01 07 14 21 49.0000000  0  5                                             
E04  26008813.896 6 136675121.522 6      -644.255 6        39.137               
E13  25411875.346 6 134322593.731 6     -1713.941 6        39.249               
E15  26234784.819 6 137414535.616 6      1062.605 6        37.438               
E21  23668521.699 7 124376852.184 7      -599.871 7        42.159               
E27  26514658.444 6 138251541.333 6      2435.324 6        37.331               
> 2025 01 07 14 21 50.0000000  0  5                                             
E04  26008933.734 6 136675764.307 6      -642.348 6        39.409               
E13  25411548.361 6 134324308.615 6     -1715.571 6        39.224               
E15  26234989.642 6 137413472.913 6      1060.743 6        37.579               
E21  23668638.563 7 124377452.504 7      -600.193 7        42.055               
E27  26515125.442 6 138249102.406 6      2439.967 6        37.639               
> 2025 01 07 14 21 51.0000000  0  5                                             
E04  26009059.443 6 136676407.696 6      -644.695 6        39.198               
E13  25411231.543 6 134326022.951 6     -1711.040 6        39.266               
E15  26235191.124 6 137412409.572 6      1064.020 6        37.448               
E21  23668755.944 6 124378053.186 6      -600.604 6        41.946               
E27  26515588.983 6 138246663.307 6      2439.686 6        37.462               
> 2025 01 07 14 21 52.0000000  0  5                                             
E04  26009186.840 6 136677051.945 6      -644.454 6        39.110               
E13  25410901.636 6 134327736.561 6     -1713.450 6        38.918               
E15  26235399.692 6 137411345.376 6      1066.028 6        37.787               
E21  23668872.263 7 124378654.415 7      -601.729 7        42.517               
E27  26516060.752 6 138244223.721 6      2438.805 6        37.530               
> 2025 01 07 14 21 53.0000000  0  5                                             
E04  26009309.270 6 136677696.651 6      -644.302 6        38.713               
E13  25410578.672 6 134329449.784 6     -1713.216 6        39.035               
E15  26235605.114 6 137410280.714 6      1063.894 6        37.779               
E21  23668987.956 7 124379255.857 7      -601.006 7        42.430               
E27  26516521.120 6 138241784.087 6      2441.614 6        37.212               
> 2025 01 07 14 21 54.0000000  0  5                                             
E04  26009432.021 6 136678341.925 6      -645.553 6        39.196               
E13  25410255.600 6 134331162.517 6     -1713.141 6        38.976               
E15  26235811.019 6 137409215.468 6      1064.693 6        37.753               
E21  23669103.470 7 124379857.578 7      -602.330 7        42.337               
E27  26516987.948 6 138239344.274 6      2440.412 6        37.255               
> 2025 01 07 14 21 55.0000000  0  5                                             
E04  26009557.202 6 136678988.178 6      -645.181 6        38.947               
E13  25409930.482 6 134332874.378 6     -1713.376 6        38.928               
E15  26236008.534 6 137408149.233 6      1067.178 6        38.003               
E21  23669218.457 7 124380460.011 7      -601.757 7        42.306               
E27  26517456.456 6 138236903.877 6      2440.235 6        37.751               
> 2025 01 07 14 21 56.0000000  0  5                                             
E04  26009677.711 6 136679634.527 6      -644.834 6        39.145               
E13  25409608.661 6 134334586.240 6     -1710.530 6        39.321               
E15  26236214.099 6 137407082.901 6      1066.499 6        37.963               
E21  23669336.920 7 124381062.247 7      -603.068 7        42.582               
E27  26517915.976 6 138234463.814 6      2438.467 6        37.333               
> 2025 01 07 14 21 57.0000000  0  5                                             
E04  26009807.887 6 136680281.429 6      -647.535 6        38.918               
E13  25409285.776 6 134336297.652 6     -1711.874 6        39.479               
E15  26236419.441 6 137406016.017 6      1067.247 6        37.859               
E21  23669453.801 7 124381664.760 7      -602.875 7        42.317               
E27  26518384.136 6 138232023.618 6      2442.403 6        37.212               
> 2025 01 07 14 21 58.0000000  0  5                                             
E04  26009933.524 6 136680928.591 6      -646.565 6        38.775               
E13  25408958.586 6 134338008.929 6     -1712.718 6        39.529               
E15  26236626.069 6 137404948.874 6      1066.669 6        37.989               
E21  23669569.574 7 124382267.242 7      -602.734 7        42.197               
E27  26518850.437 6 138229583.538 6      2441.181 6        37.272               
> 2025 01 07 14 21 59.0000000  0  5                                             
E04  26010052.612 6 136681576.179 6      -646.911 6        38.799               
E13  25408634.870 6 134339719.792 6     -1709.972 6        39.621               
E15  26236830.420 6 137403881.263 6      1067.714 6        38.118               
E21  23669686.491 6 124382869.910 6      -602.900 6        41.938               
E27  26519318.891 6 138227143.410 6      2438.998 6        36.867               
