     3.02           OBSERVATION DATA    G                   RINEX VERSION / TYPE
G = GPS  R = GLONASS  E = GALILEO  S = GEO  M = MIXED       COMMENT             
GNSS-SDR            jmfriedt            20250107 165353 UTC PGM / RUN BY / DATE 
GPS OBSERVATION DATA FILE GENERATED BY GNSS-SDR             COMMENT             
GNSS-SDR VERSION 0.0.19.git-main-87fcfd237                  COMMENT             
See https://gnss-sdr.org                                    COMMENT             
DEFAULT MARKER NAME                                         MARKER NAME         
jmfriedt            CTTC                                    OBSERVER / AGENCY   
GNSS-SDR            Software Receiver   0.0.19.gi           REC # / TYPE / VERS 
Antenna number      Antenna type                            ANT # / TYPE        
        0.0000        0.0000        0.0000                  APPROX POSITION XYZ 
        0.0000        0.0000        0.0000                  ANTENNA: DELTA H/E/N
G    4 C1C L1C D1C S1C                                      SYS / # / OBS TYPES 
DBHZ                                                        SIGNAL STRENGTH UNIT
  2025    01    07    14    18    6.1000000     GPS         TIME OF FIRST OBS   
                                                            END OF HEADER       
> 2025 01 07 14 18 07.0000000  0  4                                             
G25  20016456.647 7 105185565.563 7       897.854 7        44.534               
G28  21670847.683 7 113884147.133 7     -1720.345 7        42.535               
G31  23296458.317 6 122423745.073 6      2914.821 6        40.733               
G32  23391136.933 6 122921258.757 6     -2622.587 6        41.840               
> 2025 01 07 14 18 08.0000000  0  4                                             
G25  20016628.109 7 105184665.917 7       897.579 7        44.546               
G28  21670523.298 7 113885865.570 7     -1716.374 7        42.404               
G31  23295893.924 6 122420836.849 6      2908.263 6        39.884               
G32  23391637.498 6 122923885.975 6     -2627.415 6        41.496               
> 2025 01 07 14 18 09.0000000  0  4                                             
G25  20016804.396 7 105183765.963 7       898.683 7        44.208               
G28  21670194.302 7 113887583.653 7     -1716.675 7        42.024               
G31  23295355.879 6 122417928.790 6      2907.989 6        40.123               
G32  23392142.513 6 122926513.432 6     -2627.329 6        41.368               
> 2025 01 07 14 18 10.0000000  0  4                                             
G25  20016978.565 7 105182865.520 7       900.814 7        44.088               
G28  21669865.780 7 113889301.174 7     -1715.469 7        42.649               
G31  23294802.082 6 122415021.077 6      2907.899 6        40.551               
G32  23392643.873 6 122929141.370 6     -2628.936 6        41.029               
> 2025 01 07 14 18 11.0000000  0  4                                             
G25  20017148.115 7 105181964.477 7       902.630 7        44.536               
G28  21669548.069 7 113891018.043 7     -1717.254 7        42.625               
G31  23294263.188 6 122412113.828 6      2906.512 6        40.834               
G32  23393138.246 6 122931769.870 6     -2632.812 6        40.915               
> 2025 01 07 14 18 12.0000000  0  4                                             
G25  20017325.322 7 105181062.953 7       901.125 7        44.342               
G28  21669219.610 7 113892734.362 7     -1715.841 7        42.565               
G31  23293708.141 6 122409206.914 6      2904.036 6        40.752               
G32  23393653.642 6 122934398.809 6     -2630.716 6        40.958               
> 2025 01 07 14 18 13.0000000  0  4                                             
G25  20017495.936 7 105180160.970 7       901.020 7        44.260               
G28  21668898.664 7 113894450.151 7     -1714.255 7        42.344               
G31  23293155.237 6 122406300.317 6      2910.590 6        41.146               
G32  23394151.089 6 122937028.205 6     -2623.146 6        40.747               
> 2025 01 07 14 18 14.0000000  0  4                                             
G25  20017671.919 7 105179258.268 7       903.571 7        44.333               
G28  21668570.160 7 113896165.158 7     -1714.441 7        42.242               
G31  23292602.236 6 122403394.284 6      2906.276 6        41.139               
G32  23394645.972 6 122939658.269 6     -2628.991 6        41.104               
> 2025 01 07 14 18 15.0000000  0  4                                             
G25  20017843.997 7 105178354.955 7       903.518 7        44.302               
G28  21668242.451 7 113897879.493 7     -1717.046 7        42.330               
G31  23292052.915 6 122400488.736 6      2905.218 6        40.665               
G32  23395153.506 6 122942288.926 6     -2627.947 6        40.798               
> 2025 01 07 14 18 16.0000000  0  4                                             
G25  20018016.880 7 105177451.340 7       904.048 7        44.374               
G28  21667923.980 7 113899593.464 7     -1717.454 7        42.521               
G31  23291492.078 6 122397583.318 6      2902.624 6        40.606               
G32  23395652.409 6 122944919.814 6     -2629.015 6        41.190               
> 2025 01 07 14 18 17.0000000  0  4                                             
G25  20018190.960 7 105176547.200 7       904.958 7        44.090               
G28  21667600.399 7 113901306.848 7     -1715.074 7        42.140               
G31  23290948.529 6 122394678.329 6      2904.771 6        40.807               
G32  23396156.315 6 122947551.214 6     -2629.003 6        41.406               
> 2025 01 07 14 18 18.0000000  0  6                                             
G12  22321430.380 7 117298761.613 7      2915.983 7        42.973               
G25  20018366.273 7 105175642.718 7       905.065 7        43.882               
G28  21667268.446 6 113903019.819 6     -1712.104 6        41.760               
G29  20979791.837 7 110249567.120 7      1451.925 7        44.405               
G31  23290400.906 6 122391773.501 6      2906.270 6        41.443               
G32  23396656.746 6 122950182.944 6     -2630.513 6        41.210               
> 2025 01 07 14 18 19.0000000  0  6                                             
G12  22321992.655 7 117295844.558 7      2917.490 7        42.947               
G25  20018541.416 7 105174737.724 7       903.737 7        44.294               
G28  21666945.285 6 113904732.222 6     -1711.703 6        41.617               
G29  20979516.413 7 110248117.271 7      1447.832 7        44.558               
G31  23289845.671 6 122388869.024 6      2905.743 6        41.062               
G32  23397164.611 6 122952815.116 6     -2629.653 6        41.417               
> 2025 01 07 14 18 20.0000000  0  6                                             
G12  22322547.667 7 117292927.346 7      2919.643 7        43.091               
G25  20018710.189 7 105173832.377 7       907.803 7        44.323               
G28  21666624.473 6 113906444.219 6     -1713.588 6        41.837               
G29  20979244.116 7 110246667.854 7      1448.533 7        44.315               
G31  23289292.982 6 122385964.772 6      2905.308 6        40.495               
G32  23397665.747 6 122955447.626 6     -2630.146 6        41.429               
> 2025 01 07 14 18 21.0000000  0  6                                             
G12  22323108.343 7 117290009.987 7      2915.138 7        43.223               
G25  20018888.665 7 105172926.687 7       907.811 7        44.568               
G28  21666295.603 6 113908155.796 6     -1711.788 6        41.739               
G29  20978969.951 7 110245218.879 7      1449.214 7        44.713               
G31  23288741.919 6 122383060.733 6      2905.719 6        40.235               
G32  23398168.010 6 122958080.418 6     -2633.818 6        41.070               
> 2025 01 07 14 18 22.0000000  0  6                                             
G12  22323662.810 7 117287092.258 7      2919.803 7        42.909               
G25  20019059.171 7 105172020.425 7       906.482 7        44.384               
G28  21665977.981 7 113909866.737 7     -1711.454 7        42.118               
G29  20978689.953 7 110243770.555 7      1444.744 7        44.177               
G31  23288198.862 6 122380157.116 6      2901.796 6        40.794               
G32  23398675.177 6 122960713.777 6     -2631.764 6        41.588               
> 2025 01 07 14 18 23.0000000  0  6                                             
G12  22324221.262 7 117284174.127 7      2920.135 7        43.262               
G25  20019237.013 7 105171113.555 7       908.664 7        44.345               
G28  21665656.071 7 113911577.016 7     -1712.062 7        42.344               
G29  20978419.460 7 110242322.922 7      1446.190 7        44.799               
G31  23287637.167 6 122377253.949 6      2900.556 6        40.795               
G32  23399173.571 6 122963347.705 6     -2635.622 6        41.472               
> 2025 01 07 14 18 24.0000000  0  6                                             
G12  22324788.586 7 117281255.584 7      2917.625 7        43.587               
G25  20019412.433 7 105170206.061 7       907.925 7        44.365               
G28  21665332.525 6 113913286.602 6     -1710.977 6        41.754               
G29  20978146.207 7 110240875.999 7      1445.015 7        43.948               
G31  23287083.209 6 122374351.261 6      2905.248 6        40.038               
G32  23399672.233 6 122965982.216 6     -2634.905 6        41.014               
> 2025 01 07 14 18 25.0000000  0  6                                             
G12  22325339.014 7 117278337.030 7      2919.562 7        43.511               
G25  20019586.415 7 105169298.353 7       905.599 7        44.236               
G28  21665007.059 7 113914995.905 7     -1708.087 7        42.057               
G29  20977877.475 7 110239429.362 7      1447.225 7        44.825               
G31  23286533.558 6 122371448.641 6      2904.084 6        39.557               
G32  23400183.341 6 122968616.897 6     -2638.520 6        41.530               
> 2025 01 07 14 18 26.0000000  0  6                                             
G12  22325899.958 7 117275418.150 7      2920.756 7        43.392               
G25  20019762.014 7 105168390.112 7       910.833 7        44.560               
G28  21664684.094 7 113916704.611 7     -1709.707 7        42.584               
G29  20977601.774 7 110237983.372 7      1445.368 7        44.453               
G31  23285985.068 6 122368546.426 6      2900.203 6        40.417               
G32  23400686.372 6 122971252.093 6     -2635.658 6        41.371               
> 2025 01 07 14 18 27.0000000  0  6                                             
G12  22326451.441 7 117272498.851 7      2918.009 7        43.062               
G25  20019935.960 7 105167481.262 7       908.969 7        44.518               
G28  21664361.165 7 113918412.650 7     -1706.750 7        42.466               
G29  20977331.925 7 110236538.054 7      1446.773 7        44.264               
G31  23285443.047 6 122365644.697 6      2900.580 6        40.330               
G32  23401183.774 6 122973887.861 6     -2637.521 6        40.656               
> 2025 01 07 14 18 28.0000000  0  6                                             
G12  22327012.350 7 117269579.541 7      2919.579 7        43.526               
G25  20020113.605 7 105166572.193 7       909.696 7        44.457               
G28  21664033.983 7 113920120.397 7     -1711.220 7        42.303               
G29  20977055.053 7 110235093.051 7      1444.311 7        44.913               
G31  23284892.083 6 122362743.018 6      2904.601 6        40.757               
G32  23401693.175 6 122976523.830 6     -2637.479 6        41.213               
> 2025 01 07 14 18 29.0000000  0  6                                             
G12  22327565.753 7 117266660.036 7      2919.816 7        43.853               
G25  20020285.773 7 105165662.715 7       910.874 7        44.611               
G28  21663709.804 6 113921827.687 6     -1706.221 6        41.509               
G29  20976783.265 7 110233648.539 7      1443.373 7        44.156               
G31  23284340.582 6 122359841.611 6      2899.867 6        40.161               
G32  23402194.026 6 122979160.151 6     -2635.991 6        41.113               
> 2025 01 07 14 18 30.0000000  0  6                                             
G12  22328121.918 7 117263740.170 7      2918.099 7        44.391               
G25  20020461.068 7 105164752.673 7       910.204 7        44.230               
G28  21663393.307 6 113923534.329 6     -1708.263 6        41.710               
G29  20976512.862 7 110232204.683 7      1443.591 7        44.234               
G31  23283791.101 6 122356940.641 6      2902.448 6        40.572               
G32  23402701.872 6 122981797.015 6     -2635.746 6        40.858               
> 2025 01 07 14 18 31.0000000  0  6                                             
G12  22328683.452 7 117260820.212 7      2920.008 7        44.236               
G25  20020634.165 7 105163842.333 7       911.406 7        44.809               
G28  21663061.900 6 113925240.630 6     -1702.192 6        41.355               
G29  20976238.600 7 110230761.196 7      1444.363 7        44.606               
G31  23283243.800 6 122354039.784 6      2900.336 6        41.122               
G32  23403204.760 6 122984434.114 6     -2635.599 6        40.732               
> 2025 01 07 14 18 32.0000000  0  6                                             
G12  22329242.037 7 117257899.952 7      2921.249 7        44.181               
G25  20020808.424 7 105162931.504 7       910.782 7        44.573               
G28  21662739.810 6 113926946.353 6     -1704.072 6        41.902               
G29  20975966.044 7 110229318.313 7      1442.489 7        44.960               
G31  23282688.850 6 122351139.308 6      2901.803 6        41.138               
G32  23403708.408 6 122987071.704 6     -2635.370 6        41.155               
> 2025 01 07 14 18 33.0000000  0  6                                             
G12  22329794.807 7 117254979.284 7      2920.438 7        43.555               
G25  20020984.925 7 105162020.044 7       910.825 7        44.665               
G28  21662419.008 6 113928651.386 6     -1704.712 6        41.446               
G29  20975693.219 7 110227876.131 7      1441.206 7        44.755               
G31  23282142.961 6 122348239.314 6      2898.454 6        40.635               
G32  23404216.433 6 122989709.875 6     -2643.460 6        40.864               
> 2025 01 07 14 18 34.0000000  0  6                                             
G12  22330355.876 7 117252058.457 7      2922.402 7        44.064               
G25  20021160.041 7 105161108.232 7       912.641 7        44.916               
G28  21662092.898 6 113930356.008 6     -1702.314 6        41.349               
G29  20975418.090 7 110226434.391 7      1439.783 7        44.918               
G31  23281596.419 6 122345339.488 6      2898.630 6        41.152               
G32  23404722.430 6 122992348.372 6     -2642.336 6        40.751               
> 2025 01 07 14 18 35.0000000  0  6                                             
G12  22330914.515 7 117249137.849 7      2917.862 7        43.261               
G25  20021334.050 7 105160196.412 7       913.647 7        44.570               
G28  21661775.937 6 113932060.560 6     -1702.426 6        41.197               
G29  20975148.589 7 110224992.742 7      1441.806 7        44.923               
G31  23281044.757 6 122342439.560 6      2894.831 6        41.528               
G32  23405217.044 6 122994986.823 6     -2638.281 6        40.804               
> 2025 01 07 14 18 36.0000000  0  6                                             
G12  22331470.769 7 117246216.696 7      2922.918 7        43.932               
G25  20021509.810 7 105159283.867 7       913.328 7        44.894               
G28  21661454.920 6 113933764.304 6     -1703.235 6        41.687               
G29  20974874.881 7 110223551.917 7      1443.560 7        45.175               
G31  23280488.754 6 122339540.223 6      2899.399 6        41.176               
G32  23405716.627 6 122997625.976 6     -2637.893 6        40.509               
> 2025 01 07 14 18 37.0000000  0  6                                             
G12  22332030.909 7 117243295.460 7      2921.001 7        44.112               
G25  20021683.309 7 105158371.015 7       911.081 7        45.041               
G28  21661128.534 6 113935467.708 6     -1700.456 6        41.699               
G29  20974603.003 7 110222111.473 7      1439.693 7        45.003               
G31  23279935.448 6 122336641.029 6      2898.767 6        41.089               
G32  23406227.082 6 123000265.396 6     -2640.725 6        40.417               
> 2025 01 07 14 18 38.0000000  0  6                                             
G12  22332585.278 7 117240374.271 7      2924.231 7        43.938               
G25  20021859.926 7 105157458.004 7       914.412 7        44.624               
G28  21660808.526 6 113937170.875 6     -1700.635 6        41.571               
G29  20974328.214 7 110220671.279 7      1439.234 7        44.727               
G31  23279388.683 6 122333741.854 6      2899.621 6        40.565               
G32  23406730.122 6 123002904.936 6     -2645.027 6        40.602               
> 2025 01 07 14 18 39.0000000  0  6                                             
G12  22333146.839 7 117237451.837 7      2924.549 7        43.693               
G25  20022034.784 7 105156543.534 7       914.170 7        44.292               
G28  21660483.623 6 113938872.512 6     -1695.854 6        41.461               
G29  20974057.453 7 110219232.624 7      1438.515 7        44.879               
G31  23278834.752 6 122330844.005 6      2895.088 6        40.655               
G32  23407233.322 6 123005545.898 6     -2639.676 6        40.625               
> 2025 01 07 14 18 40.0000000  0  6                                             
G12  22333702.396 7 117234528.849 7      2924.595 7        44.002               
G25  20022215.011 7 105155628.316 7       914.350 7        44.626               
G28  21660170.299 6 113940573.336 6     -1699.595 6        41.775               
G29  20973786.184 7 110217794.805 7      1439.037 7        44.822               
G31  23278289.559 6 122327946.764 6      2894.774 6        41.138               
G32  23407740.436 6 123008187.572 6     -2641.026 6        40.552               
> 2025 01 07 14 18 41.0000000  0  6                                             
G12  22334257.676 7 117231607.168 7      2924.360 7        43.823               
G25  20022388.170 7 105154714.208 7       914.168 7        44.740               
G28  21659835.746 6 113942275.206 6     -1700.680 6        41.418               
G29  20973517.684 7 110216355.984 7      1438.801 7        45.238               
G31  23277737.407 6 122325048.250 6      2901.931 6        41.353               
G32  23408239.500 6 123010828.105 6     -2641.075 6        40.237               
> 2025 01 07 14 18 42.0000000  0  7                                             
G11  23198549.598 6 121908823.715 6       974.576 6        39.542               
G12  22334813.983 7 117228685.001 7      2919.831 7        44.071               
G25  20022568.111 7 105153799.398 7       914.650 7        44.769               
G28  21659513.317 6 113943976.318 6     -1696.486 6        41.260               
G29  20973245.512 7 110214917.926 7      1438.541 7        45.236               
G31  23277187.782 6 122322150.329 6      2897.490 6        40.616               
G32  23408741.584 6 123013469.307 6     -2643.872 6        39.596               
> 2025 01 07 14 18 43.0000000  0  7                                             
G11  23198733.596 6 121907846.711 6       979.233 6        39.266               
G12  22335377.224 7 117225762.417 7      2921.872 7        44.079               
G25  20022739.663 7 105152883.981 7       917.076 7        45.136               
G28  21659199.626 6 113945676.748 6     -1699.186 6        41.824               
G29  20972975.484 7 110213480.573 7      1438.956 7        44.904               
G31  23276640.624 6 122319252.818 6      2896.553 6        41.025               
G32  23409242.855 6 123016111.070 6     -2643.703 6        40.043               
> 2025 01 07 14 18 44.0000000  0  7                                             
G11  23198922.507 6 121906868.548 6       981.175 6        39.449               
G12  22335934.022 7 117222839.123 7      2922.847 7        44.030               
G25  20022917.147 7 105151967.617 7       916.588 7        44.748               
G28  21658873.124 6 113947376.167 6     -1696.001 6        41.180               
G29  20972697.621 7 110212044.241 7      1434.670 7        44.614               
G31  23276098.201 6 122316356.150 6      2896.099 6        41.041               
G32  23409751.327 6 123018753.734 6     -2644.456 6        39.564               
> 2025 01 07 14 18 45.0000000  0  7                                             
G11  23199104.717 6 121905889.836 6       977.584 6        39.301               
G12  22336490.142 7 117219915.676 7      2924.070 7        43.512               
G25  20023095.596 7 105151050.936 7       914.434 7        45.102               
G28  21658550.668 6 113949075.190 6     -1699.022 6        41.255               
G29  20972424.939 7 110210608.336 7      1434.657 7        44.883               
G31  23275540.097 6 122313459.662 6      2896.858 6        40.568               
G32  23410254.054 6 123021396.704 6     -2640.607 6        39.827               
> 2025 01 07 14 18 46.0000000  0  7                                             
G11  23199293.378 6 121904910.447 6       981.485 6        38.650               
G12  22337043.287 7 117216991.963 7      2923.991 7        43.951               
G25  20023275.358 7 105150133.739 7       916.679 7        45.244               
G28  21658228.722 6 113950773.656 6     -1695.449 6        41.519               
G29  20972153.982 7 110209173.002 7      1434.113 7        44.705               
G31  23274990.553 6 122310563.488 6      2893.704 6        40.525               
G32  23410764.081 6 123024040.152 6     -2642.009 6        39.491               
> 2025 01 07 14 18 47.0000000  0  7                                             
G11  23199483.201 6 121903930.296 6       979.732 6        38.968               
G12  22337605.267 7 117214067.913 7      2923.072 7        43.937               
G25  20023449.581 7 105149216.030 7       918.115 7        45.253               
G28  21657917.229 6 113952471.529 6     -1697.073 6        41.743               
G29  20971882.838 7 110207738.290 7      1436.782 7        44.682               
G31  23274439.535 6 122307667.713 6      2895.785 6        41.102               
G32  23411271.570 6 123026684.079 6     -2643.271 6        40.927               
> 2025 01 07 14 18 48.0000000  0  7                                             
G11  23199674.149 6 121902950.442 6       978.916 6        38.804               
G12  22338160.020 7 117211144.585 7      2923.300 7        44.314               
G25  20023624.081 7 105148298.833 7       917.368 7        44.960               
G28  21657590.190 7 113954169.843 7     -1696.636 7        42.042               
G29  20971611.863 7 110206303.153 7      1436.214 7        44.849               
G31  23273900.391 7 122304771.277 7      2899.787 7        42.015               
G32  23411770.741 6 123029327.437 6     -2641.428 6        40.179               
> 2025 01 07 14 18 49.0000000  0  7                                             
G11  23199861.721 6 121901968.964 6       986.542 6        39.565               
G12  22338723.234 7 117208220.079 7      2926.147 7        43.344               
G25  20023798.590 7 105147380.236 7       920.899 7        45.021               
G28  21657269.343 7 113955866.702 7     -1693.678 7        42.469               
G29  20971340.433 7 110204869.497 7      1433.012 7        44.784               
G31  23273349.248 6 122301876.091 6      2897.387 6        41.717               
G32  23412276.756 6 123031972.176 6     -2648.965 6        41.071               
> 2025 01 07 14 18 50.0000000  0  7                                             
G11  23200056.832 6 121900986.841 6       982.149 6        39.098               
G12  22339281.757 7 117205295.310 7      2920.986 7        43.737               
G25  20023976.146 7 105146461.185 7       917.385 7        44.700               
G28  21656951.382 7 113957563.038 7     -1698.849 7        42.003               
G29  20971066.545 7 110203436.382 7      1434.195 7        44.707               
G31  23272800.463 6 122298981.221 6      2895.150 6        40.570               
G32  23412786.175 6 123034617.321 6     -2641.889 6        40.955               
> 2025 01 07 14 18 51.0000000  0  7                                             
G11  23200242.036 6 121900004.842 6       980.944 6        39.255               
G12  22339837.734 7 117202371.110 7      2923.789 7        43.718               
G25  20024153.755 7 105145542.504 7       918.729 7        45.005               
G28  21656626.612 7 113959259.673 7     -1699.248 7        42.081               
G29  20970799.600 7 110202002.987 7      1433.692 7        45.009               
G31  23272249.401 6 122296085.867 6      2896.100 6        40.947               
G32  23413293.905 6 123037262.075 6     -2645.016 6        40.644               
> 2025 01 07 14 18 52.0000000  0  7                                             
G11  23200428.374 6 121899021.396 6       986.765 6        39.181               
G12  22340394.229 7 117199445.878 7      2926.874 7        43.975               
G25  20024331.078 7 105144622.585 7       920.270 7        44.253               
G28  21656310.920 6 113960954.978 6     -1694.031 6        41.916               
G29  20970525.793 7 110200570.937 7      1432.001 7        44.852               
G31  23271699.330 6 122293191.608 6      2895.680 6        41.245               
G32  23413799.554 6 123039908.024 6     -2643.711 6        40.413               
> 2025 01 07 14 18 53.0000000  0  7                                             
G11  23200613.453 6 121898037.101 6       987.243 6        38.606               
G12  22340954.941 7 117196520.169 7      2923.992 7        43.490               
G25  20024511.118 7 105143701.979 7       920.611 7        44.840               
G28  21655989.975 7 113962649.576 7     -1694.452 7        42.306               
G29  20970256.256 7 110199139.646 7      1431.544 7        45.025               
G31  23271149.303 6 122290297.876 6      2897.208 6        41.092               
G32  23414295.822 6 123042554.624 6     -2641.925 6        39.793               
> 2025 01 07 14 18 54.0000000  0  7                                             
G11  23200805.652 6 121897051.800 6       985.888 6        38.946               
G12  22341511.570 7 117193593.945 7      2927.556 7        43.631               
G25  20024685.358 7 105142780.653 7       921.646 7        44.555               
G28  21655668.189 7 113964343.369 7     -1694.966 7        42.189               
G29  20969988.569 7 110197709.161 7      1429.419 7        44.590               
G31  23270598.160 6 122287404.750 6      2893.356 6        41.222               
G32  23414807.108 6 123045201.910 6     -2644.783 6        40.931               
> 2025 01 07 14 18 55.0000000  0  7                                             
G11  23200995.457 6 121896065.379 6       986.439 6        39.228               
G12  22342073.836 7 117190666.982 7      2926.075 7        43.682               
G25  20024865.219 7 105141858.394 7       920.225 7        44.523               
G28  21655350.192 6 113966036.139 6     -1692.683 6        41.742               
G29  20969721.982 7 110196279.711 7      1428.871 7        45.153               
G31  23270047.571 6 122284512.387 6      2896.785 6        40.528               
G32  23415312.104 6 123047850.092 6     -2644.980 6        40.296               
> 2025 01 07 14 18 56.0000000  0  7                                             
G11  23201190.434 6 121895078.976 6       980.504 6        39.314               
G12  22342630.090 7 117187740.466 7      2927.183 7        43.847               
G25  20025042.167 7 105140936.360 7       922.840 7        45.307               
G28  21655032.284 7 113967729.106 7     -1696.419 7        42.312               
G29  20969448.514 7 110194850.096 7      1430.219 7        44.645               
G31  23269501.976 6 122281619.661 6      2891.175 6        41.068               
G32  23415820.880 6 123050498.001 6     -2649.826 6        40.767               
> 2025 01 07 14 18 57.0000000  0  7                                             
G11  23201369.786 6 121894092.045 6       988.097 6        39.696               
G12  22343192.437 7 117184813.823 7      2926.590 7        43.577               
G25  20025214.442 7 105140014.011 7       920.981 7        44.739               
G28  21654710.338 7 113969421.659 7     -1691.884 7        42.900               
G29  20969180.112 7 110193420.905 7      1429.097 7        44.918               
G31  23268958.909 6 122278727.125 6      2890.296 6        41.147               
G32  23416333.078 6 123053146.200 6     -2643.237 6        39.852               
> 2025 01 07 14 18 58.0000000  0  7                                             
G11  23201568.695 6 121893104.559 6       989.360 6        39.592               
G12  22343744.679 7 117181887.067 7      2931.173 7        43.557               
G25  20025391.649 7 105139091.322 7       922.722 7        45.094               
G28  21654389.562 7 113971113.818 7     -1692.184 7        42.151               
G29  20968908.869 7 110191992.144 7      1428.800 7        45.126               
G31  23268407.409 6 122275834.787 6      2894.569 6        41.115               
G32  23416824.101 6 123055794.693 6     -2650.167 6        40.344               
> 2025 01 07 14 18 59.0000000  0  7                                             
G11  23201753.916 6 121892116.222 6       987.176 6        39.267               
G12  22344308.081 7 117178959.875 7      2924.317 7        43.773               
G25  20025571.001 7 105138167.985 7       922.839 7        44.708               
G28  21654071.735 7 113972805.277 7     -1692.485 7        42.113               
G29  20968637.332 7 110190564.084 7      1428.506 7        45.238               
G31  23267858.133 6 122272942.935 6      2889.382 6        41.174               
G32  23417331.232 6 123058443.784 6     -2650.142 6        40.555               
> 2025 01 07 14 19 00.0000000  0  7                                             
G11  23201946.687 6 121891127.266 6       991.821 6        39.861               
G12  22344869.311 7 117176032.492 7      2930.974 7        43.785               
G25  20025751.299 7 105137244.276 7       923.840 7        44.556               
G28  21653755.998 7 113974496.284 7     -1692.663 7        42.691               
G29  20968371.396 7 110189136.527 7      1426.498 7        44.729               
G31  23267307.338 6 122270051.333 6      2889.157 6        41.347               
G32  23417832.816 6 123061093.234 6     -2651.235 6        40.911               
> 2025 01 07 14 19 01.0000000  0  7                                             
G11  23202131.721 6 121890137.648 6       994.671 6        40.005               
G12  22345429.085 7 117173104.859 7      2927.910 7        43.504               
G25  20025924.361 7 105136320.087 7       923.330 7        44.547               
G28  21653430.693 7 113976186.753 7     -1689.251 7        42.519               
G29  20968094.685 7 110187709.504 7      1425.358 7        44.772               
G31  23266758.732 6 122267160.069 6      2888.522 6        41.058               
G32  23418351.357 6 123063743.087 6     -2647.088 6        40.464               
> 2025 01 07 14 19 02.0000000  0  7                                             
G11  23202324.581 6 121889148.301 6       988.551 6        39.978               
G12  22345983.436 7 117170177.915 7      2926.083 7        43.364               
G25  20026103.935 7 105135396.392 7       923.751 7        44.279               
G28  21653109.854 7 113977877.620 7     -1689.601 7        42.200               
G29  20967824.595 7 110186282.098 7      1427.601 7        44.575               
G31  23266206.401 6 122264268.172 6      2891.568 6        40.895               
G32  23418850.966 6 123066392.474 6     -2650.714 6        39.889               
> 2025 01 07 14 19 03.0000000  0  7                                             
G11  23202514.851 6 121888158.481 6       987.316 6        40.039               
G12  22346538.242 7 117167250.941 7      2927.171 7        43.215               
G25  20026281.339 7 105134472.449 7       922.853 7        44.382               
G28  21652791.464 7 113979568.207 7     -1690.920 7        42.845               
G29  20967556.542 7 110184855.002 7      1424.573 7        44.437               
G31  23265662.110 6 122261376.370 6      2892.026 6        40.825               
G32  23419359.608 6 123069042.010 6     -2644.697 6        40.112               
> 2025 01 07 14 19 04.0000000  0  7                                             
G11  23202703.878 6 121887167.536 6       989.896 6        39.765               
G12  22347104.458 7 117164323.244 7      2930.835 7        44.039               
G25  20026458.734 7 105133547.612 7       925.445 7        44.537               
G28  21652471.814 7 113981257.787 7     -1690.468 7        42.771               
G29  20967287.479 7 110183428.919 7      1426.236 7        44.607               
G31  23265114.630 6 122258485.343 6      2892.944 6        40.996               
G32  23419865.855 6 123071692.451 6     -2648.967 6        40.528               
> 2025 01 07 14 19 05.0000000  0  7                                             
G11  23202901.197 6 121886175.337 6       994.031 6        40.116               
G12  22347659.318 7 117161394.725 7      2930.831 7        43.202               
G25  20026633.788 7 105132621.711 7       927.463 7        44.692               
G28  21652148.796 7 113982946.275 7     -1687.691 7        42.396               
G29  20967019.470 7 110182003.970 7      1424.976 7        44.847               
G31  23264571.251 6 122255595.239 6      2888.527 6        41.610               
G32  23420374.265 6 123074343.898 6     -2649.929 6        40.574               
> 2025 01 07 14 19 06.0000000  0  7                                             
G11  23203088.866 6 121885182.522 6       995.854 6        40.381               
G12  22348220.932 7 117158466.010 7      2929.231 7        43.540               
G25  20026812.540 7 105131695.413 7       926.939 7        44.412               
G28  21651830.709 7 113984634.281 7     -1687.205 7        42.544               
G29  20966746.807 7 110180579.503 7      1425.980 7        44.248               
G31  23264023.083 6 122252705.389 6      2888.198 6        41.441               
G32  23420883.228 6 123076995.696 6     -2651.351 6        40.713               
> 2025 01 07 14 19 07.0000000  0  7                                             
G11  23203281.485 6 121884188.822 6       994.843 6        40.278               
G12  22348779.214 7 117155536.837 7      2926.538 7        43.623               
G25  20026994.599 7 105130768.457 7       927.311 7        44.720               
G28  21651508.388 7 113986321.569 7     -1687.743 7        42.292               
G29  20966481.461 7 110179155.793 7      1424.488 7        44.544               
G31  23263467.982 6 122249816.042 6      2890.006 6        40.822               
G32  23421385.767 6 123079648.125 6     -2650.867 6        40.595               
> 2025 01 07 14 19 08.0000000  0  7                                             
G11  23203470.200 6 121883194.224 6       995.731 6        40.211               
G12  22349342.490 7 117152607.188 7      2930.807 7        43.458               
G25  20027174.040 7 105129840.818 7       928.451 7        44.726               
G28  21651191.213 7 113988008.098 7     -1687.302 7        42.438               
G29  20966209.030 7 110177732.844 7      1423.570 7        45.067               
G31  23262919.064 6 122246927.253 6      2888.667 6        40.474               
G32  23421898.001 6 123082301.202 6     -2655.816 6        40.377               
> 2025 01 07 14 19 09.0000000  0  7                                             
G11  23203666.134 6 121882198.896 6       996.854 6        40.722               
G12  22349898.011 7 117149677.200 7      2928.779 7        43.656               
G25  20027351.336 7 105128912.632 7       927.141 7        45.073               
G28  21650878.228 7 113989694.008 7     -1682.651 7        42.303               
G29  20965944.041 7 110176310.542 7      1424.054 7        45.129               
G31  23262381.224 6 122244038.887 6      2887.930 6        41.322               
G32  23422405.222 6 123084954.748 6     -2653.515 6        40.167               
> 2025 01 07 14 19 10.0000000  0  7                                             
G11  23203852.320 6 121881203.056 6       996.132 6        40.352               
G12  22350458.429 7 117146747.137 7      2929.746 7        43.064               
G25  20027530.169 7 105127984.165 7       929.097 7        44.751               
G28  21650557.461 6 113991379.596 6     -1685.346 6        41.995               
G29  20965674.460 7 110174888.597 7      1422.535 7        45.136               
G31  23261830.322 6 122241150.659 6      2884.490 6        41.644               
G32  23422911.219 6 123087608.577 6     -2650.534 6        40.767               
> 2025 01 07 14 19 11.0000000  0  7                                             
G11  23204054.785 6 121880206.725 6       997.863 6        40.321               
G12  22351017.345 7 117143816.984 7      2931.250 7        43.369               
G25  20027707.341 7 105127055.428 7       929.643 7        44.681               
G28  21650232.173 7 113993064.812 7     -1684.562 7        42.377               
G29  20965407.086 7 110173467.016 7      1419.989 7        45.133               
G31  23261279.920 6 122238262.565 6      2892.460 6        41.003               
G32  23423414.598 6 123090262.638 6     -2650.806 6        40.365               
> 2025 01 07 14 19 12.0000000  0  7                                             
G11  23204238.961 6 121879210.441 6       991.425 6        40.108               
G12  22351577.807 7 117140887.340 7      2931.699 7        43.057               
G25  20027888.077 7 105126126.969 7       928.787 7        44.604               
G28  21649916.401 7 113994750.254 7     -1685.860 7        42.213               
G29  20965139.703 7 110172045.245 7      1423.442 7        44.744               
G31  23260726.508 6 122235374.043 6      2886.081 6        41.037               
G32  23423923.160 6 123092916.380 6     -2652.839 6        40.296               
> 2025 01 07 14 19 13.0000000  0  7                                             
G11  23204427.890 6 121878212.618 6       997.253 6        40.467               
G12  22352138.537 7 117137956.556 7      2930.365 7        43.498               
G25  20028065.954 7 105125197.143 7       931.293 7        44.774               
G28  21649592.436 7 113996434.262 7     -1684.316 7        42.297               
G29  20964867.620 7 110170624.911 7      1419.440 7        44.770               
G31  23260179.975 6 122232486.750 6      2889.855 6        40.957               
G32  23424423.832 6 123095571.438 6     -2651.445 6        40.105               
> 2025 01 07 14 19 14.0000000  0  7                                             
G11  23204620.250 6 121877215.081 6      1000.761 6        40.707               
G12  22352694.326 7 117135026.483 7      2929.450 7        43.605               
G25  20028246.467 7 105124267.850 7       930.492 7        45.125               
G28  21649279.326 7 113998118.729 7     -1683.730 7        42.403               
G29  20964602.891 7 110169204.142 7      1421.058 7        44.904               
G31  23259636.989 6 122229598.799 6      2883.797 6        41.011               
G32  23424936.083 6 123098225.913 6     -2655.884 6        40.301               
> 2025 01 07 14 19 15.0000000  0  7                                             
G11  23204813.388 6 121876216.424 6      1000.437 6        40.332               
G12  22353252.653 7 117132095.713 7      2930.947 7        43.283               
G25  20028425.318 7 105123337.650 7       929.264 7        45.017               
G28  21648962.115 7 113999802.216 7     -1683.186 7        42.191               
G29  20964331.746 7 110167784.368 7      1418.404 7        44.894               
G31  23259091.974 6 122226711.615 6      2881.551 6        41.238               
G32  23425436.264 6 123100881.287 6     -2656.448 6        40.202               
> 2025 01 07 14 19 16.0000000  0  7                                             
G11  23205000.441 6 121875217.017 6       998.532 6        40.274               
G12  22353816.724 7 117129164.620 7      2931.003 7        43.224               
G25  20028601.060 7 105122406.907 7       932.002 7        45.018               
G28  21648639.686 7 114001485.097 7     -1683.467 7        42.702               
G29  20964061.611 7 110166365.223 7      1417.557 7        44.858               
G31  23258549.819 6 122223824.829 6      2891.342 6        41.539               
G32  23425939.670 6 123103537.117 6     -2656.862 6        40.349               
> 2025 01 07 14 19 17.0000000  0  7                                             
G11  23205187.833 6 121874217.142 6      1001.098 6        40.695               
G12  22354371.128 7 117126233.478 7      2932.874 7        43.170               
G25  20028783.762 7 105121475.925 7       933.048 7        44.803               
G28  21648320.197 6 114003167.681 6     -1683.317 6        41.839               
G29  20963797.284 7 110164946.412 7      1417.991 7        45.139               
G31  23257992.770 6 122220938.163 6      2884.969 6        41.860               
G32  23426456.683 6 123106193.187 6     -2656.551 6        40.204               
> 2025 01 07 14 19 18.0000000  0  7                                             
G11  23205383.347 6 121873216.546 6       999.362 6        40.124               
G12  22354930.152 7 117123302.051 7      2930.808 7        43.221               
G25  20028956.841 7 105120544.437 7       932.216 7        44.908               
G28  21648003.290 7 114004849.678 7     -1682.453 7        42.610               
G29  20963528.346 7 110163528.195 7      1417.462 7        44.890               
G31  23257449.597 6 122218051.834 6      2884.908 6        41.913               
G32  23426953.264 6 123108849.721 6     -2651.714 6        40.152               
> 2025 01 07 14 19 19.0000000  0  7                                             
G11  23205575.841 6 121872214.530 6      1002.649 6        40.547               
G12  22355496.126 7 117120369.593 7      2929.943 7        43.298               
G25  20029138.953 7 105119611.708 7       932.790 7        45.221               
G28  21647687.133 7 114006530.377 7     -1679.509 7        42.631               
G29  20963262.991 7 110162111.281 7      1415.569 7        45.076               
G31  23256896.434 6 122215166.604 6      2882.838 6        41.587               
G32  23427471.340 6 123111507.443 6     -2658.793 6        40.045               
> 2025 01 07 14 19 20.0000000  0  7                                             
G11  23205775.009 6 121871211.779 6      1002.822 6        40.271               
G12  22356056.383 7 117117436.813 7      2933.539 7        43.887               
G25  20029315.633 7 105118678.477 7       933.093 7        45.325               
G28  21647370.262 7 114008210.482 7     -1679.612 7        42.736               
G29  20962992.927 7 110160694.996 7      1417.208 7        45.411               
G31  23256354.369 6 122212281.763 6      2885.771 6        41.403               
G32  23427985.021 6 123114165.628 6     -2659.052 6        40.420               
> 2025 01 07 14 19 21.0000000  0  7                                             
G11  23205968.361 6 121870208.443 6      1003.096 6        40.554               
G12  22356617.238 7 117114503.907 7      2931.004 7        43.582               
G25  20029496.646 7 105117744.906 7       934.551 7        45.145               
G28  21647048.092 6 114009890.192 6     -1678.023 6        41.990               
G29  20962726.268 7 110159279.130 7      1416.468 7        44.991               
G31  23255809.212 6 122209397.126 6      2885.433 6        41.169               
G32  23428489.088 6 123116824.127 6     -2658.778 6        40.294               
> 2025 01 07 14 19 22.0000000  0  7                                             
G11  23206163.839 6 121869204.680 6      1007.123 6        40.429               
G12  22357168.515 7 117111570.960 7      2928.729 7        43.433               
G25  20029680.474 7 105116811.086 7       934.064 7        45.038               
G28  21646731.641 6 114011569.598 6     -1680.595 6        41.265               
G29  20962454.266 7 110157863.594 7      1414.896 7        45.146               
G31  23255260.204 6 122206512.572 6      2886.484 6        41.321               
G32  23428991.118 6 123119482.832 6     -2656.445 6        40.173               
> 2025 01 07 14 19 23.0000000  0  7                                             
G11  23206354.037 6 121868201.011 6      1008.112 6        40.675               
G12  22357732.488 7 117108638.533 7      2933.426 7        43.410               
G25  20029852.758 7 105115877.588 7       932.876 7        45.430               
G28  21646414.617 6 114013249.229 6     -1682.905 6        41.788               
G29  20962192.761 7 110156447.832 7      1413.644 7        45.406               
G31  23254718.290 6 122203627.604 6      2885.430 6        41.535               
G32  23429502.700 6 123122141.168 6     -2656.503 6        40.101               
> 2025 01 07 14 19 24.0000000  0  7                                             
G11  23206546.701 6 121867196.325 6      1005.739 6        40.150               
G12  22358282.845 7 117105705.498 7      2933.376 7        43.130               
G25  20030042.617 7 105114943.291 7       935.515 7        45.222               
G28  21646097.532 6 114014927.984 6     -1677.027 6        41.893               
G29  20961923.100 7 110155032.968 7      1415.121 7        44.923               
G31  23254165.994 6 122200743.284 6      2884.780 6        40.731               
G32  23430010.725 6 123124800.293 6     -2657.921 6        40.500               
> 2025 01 07 14 19 25.0000000  0  7                                             
G11  23206745.038 6 121866191.404 6      1008.407 6        40.703               
G12  22358852.295 7 117102772.648 7      2935.243 7        43.577               
G25  20030214.454 7 105114008.945 7       936.064 7        45.357               
G28  21645780.348 6 114016606.658 6     -1679.278 6        41.820               
G29  20961654.332 7 110153618.207 7      1411.910 7        44.819               
G31  23253610.875 6 122197858.859 6      2883.873 6        41.373               
G32  23430517.008 6 123127459.390 6     -2658.649 6        40.596               
> 2025 01 07 14 19 26.0000000  0  7                                             
G11  23206934.065 6 121865185.072 6      1005.556 6        40.962               
G12  22359408.066 7 117099838.825 7      2933.732 7        43.344               
G25  20030399.023 7 105113073.425 7       935.315 7        44.929               
G28  21645462.377 7 114018284.065 7     -1675.885 7        42.289               
G29  20961389.111 7 110152204.731 7      1413.833 7        44.665               
G31  23253075.591 6 122194975.467 6      2886.426 6        41.123               
G32  23431026.141 6 123130119.626 6     -2661.385 6        40.303               
> 2025 01 07 14 19 27.0000000  0  7                                             
G11  23207122.271 6 121864179.097 6      1006.782 6        40.467               
G12  22359971.441 7 117096905.779 7      2932.249 7        43.126               
G25  20030575.417 7 105112138.496 7       935.255 7        44.737               
G28  21645148.159 7 114019962.000 7     -1676.622 7        42.255               
G29  20961120.960 7 110150790.752 7      1414.109 7        45.044               
G31  23252525.430 6 122192091.374 6      2884.365 6        41.403               
G32  23431537.704 6 123132779.248 6     -2657.411 6        40.554               
> 2025 01 07 14 19 28.0000000  0  7                                             
G11  23207313.818 6 121863172.085 6      1008.489 6        40.710               
G12  22360531.545 7 117093972.103 7      2936.655 7        43.583               
G25  20030752.499 7 105111202.711 7       935.120 7        45.040               
G28  21644831.717 7 114021639.008 7     -1676.076 7        42.665               
G29  20960851.772 7 110149377.718 7      1412.558 7        45.230               
G31  23251978.316 6 122189207.965 6      2887.091 6        41.573               
G32  23432048.017 6 123135439.671 6     -2661.496 6        40.248               
> 2025 01 07 14 19 29.0000000  0  7                                             
G11  23207511.190 6 121862164.029 6      1004.849 6        40.160               
G12  22361093.187 7 117091037.822 7      2933.956 7        43.772               
G25  20030937.122 7 105110266.104 7       935.327 7        45.243               
G28  21644511.817 7 114023315.140 7     -1678.053 7        43.108               
G29  20960587.292 7 110147965.582 7      1412.994 7        45.567               
G31  23251431.176 6 122186325.252 6      2883.229 6        41.693               
G32  23432550.404 6 123138100.859 6     -2664.846 6        40.560               
> 2025 01 07 14 19 30.0000000  0  7                                             
G11  23207704.721 6 121861155.460 6      1007.728 6        40.458               
G12  22361659.027 7 117088103.436 7      2932.991 7        43.689               
G25  20031120.816 7 105109329.201 7       936.959 7        45.389               
G28  21644191.050 7 114024990.881 7     -1675.357 7        42.885               
G29  20960320.946 7 110146553.852 7      1410.866 7        45.205               
G31  23250883.803 6 122183442.711 6      2882.799 6        41.377               
G32  23433054.311 6 123140762.344 6     -2663.394 6        40.666               
> 2025 01 07 14 19 31.0000000  0  7                                             
G11  23207903.942 6 121860145.502 6      1009.337 6        40.918               
G12  22362216.335 7 117085168.111 7      2936.935 7        43.708               
G25  20031299.175 7 105108391.131 7       939.189 7        45.503               
G28  21643871.534 7 114026665.406 7     -1676.588 7        42.706               
G29  20960055.412 7 110145143.352 7      1408.364 7        45.056               
G31  23250337.136 6 122180561.188 6      2883.583 6        41.443               
G32  23433558.852 6 123143424.916 6     -2663.566 6        40.744               
> 2025 01 07 14 19 32.0000000  0  7                                             
G11  23208098.983 6 121859134.754 6      1009.245 6        40.753               
G12  22362771.553 7 117082232.415 7      2936.015 7        43.385               
G25  20031480.814 7 105107452.495 7       935.973 7        44.689               
G28  21643563.731 7 114028339.282 7     -1673.859 7        42.114               
G29  20959788.449 7 110143733.510 7      1407.364 7        44.273               
G31  23249789.495 6 122177680.086 6      2881.514 6        41.062               
G32  23434068.146 6 123146088.023 6     -2660.631 6        40.161               
> 2025 01 07 14 19 33.0000000  0  7                                             
G11  23208289.127 6 121858124.194 6      1008.494 6        40.335               
G12  22363334.320 7 117079297.297 7      2936.990 7        43.533               
G25  20031659.200 7 105106514.226 7       938.008 7        45.149               
G28  21643245.752 7 114030013.471 7     -1672.582 7        42.276               
G29  20959521.977 7 110142323.391 7      1407.871 7        44.923               
G31  23249241.023 6 122174798.474 6      2882.093 6        40.548               
G32  23434578.583 6 123148750.737 6     -2660.848 6        40.294               
> 2025 01 07 14 19 34.0000000  0  7                                             
G11  23208478.253 6 121857112.923 6      1013.116 6        40.792               
G12  22363895.407 7 117076361.900 7      2933.420 7        43.703               
G25  20031836.568 7 105105575.492 7       938.329 7        45.450               
G28  21642923.412 6 114031687.095 6     -1674.290 6        41.902               
G29  20959256.005 7 110140913.849 7      1410.745 7        45.510               
G31  23248700.217 6 122171917.208 6      2885.631 6        41.023               
G32  23435085.215 6 123151413.883 6     -2663.335 6        40.017               
> 2025 01 07 14 19 35.0000000  0  7                                             
G11  23208686.168 6 121856101.243 6      1009.612 6        40.735               
G12  22364451.428 7 117073426.524 7      2938.232 7        43.377               
G25  20032019.199 7 105104636.556 7       940.762 7        45.592               
G28  21642608.256 7 114033360.461 7     -1672.701 7        42.036               
G29  20958987.211 7 110139504.586 7      1408.734 7        44.872               
G31  23248154.971 6 122169036.010 6      2881.289 6        41.262               
G32  23435600.790 6 123154077.192 6     -2666.189 6        39.937               
> 2025 01 07 14 19 36.0000000  0  7                                             
G11  23208877.545 6 121855088.878 6      1012.206 6        41.092               
G12  22365021.468 7 117070490.876 7      2935.235 7        43.674               
G25  20032197.942 7 105103697.154 7       938.805 7        45.734               
G28  21642301.061 7 114035033.280 7     -1670.869 7        42.659               
G29  20958719.274 7 110138095.883 7      1406.140 7        44.440               
G31  23247606.785 6 122166155.132 6      2879.757 6        41.630               
G32  23436109.565 6 123156740.900 6     -2660.218 6        40.938               
> 2025 01 07 14 19 37.0000000  0  7                                             
G11  23209071.442 6 121854075.113 6      1012.999 6        41.295               
G12  22365575.265 7 117067554.271 7      2936.590 7        43.904               
G25  20032375.703 7 105102756.574 7       940.760 7        45.521               
G28  21641978.588 7 114036704.863 7     -1672.285 7        42.316               
G29  20958452.730 7 110136688.440 7      1406.819 7        45.220               
G31  23247054.132 6 122163275.289 6      2879.800 6        41.345               
G32  23436617.287 6 123159405.760 6     -2665.674 6        41.003               
> 2025 01 07 14 19 38.0000000  0  7                                             
G11  23209268.787 6 121853060.771 6      1012.962 6        41.305               
G12  22366131.831 7 117064617.468 7      2936.132 7        43.587               
G25  20032560.121 7 105101815.594 7       941.203 7        44.926               
G28  21641656.588 7 114038375.984 7     -1672.661 7        42.806               
G29  20958188.903 7 110135281.483 7      1407.522 7        44.554               
G31  23246512.745 6 122160395.723 6      2880.232 6        41.328               
G32  23437121.979 6 123162070.968 6     -2660.090 6        40.829               
> 2025 01 07 14 19 39.0000000  0  7                                             
G11  23209465.445 6 121852045.922 6      1014.252 6        40.748               
G12  22366699.557 7 117061680.586 7      2938.333 7        43.475               
G25  20032740.267 7 105100874.335 7       941.514 7        45.175               
G28  21641345.739 7 114040046.733 7     -1670.311 7        42.338               
G29  20957922.619 7 110133874.913 7      1405.775 7        45.133               
G31  23245967.061 6 122157516.289 6      2875.611 6        40.283               
G32  23437630.469 6 123164736.431 6     -2664.720 6        40.017               
> 2025 01 07 14 19 40.0000000  0  7                                             
G11  23209656.590 6 121851030.137 6      1017.582 6        41.528               
G12  22367262.333 7 117058743.204 7      2939.256 7        43.661               
G25  20032924.122 7 105099932.365 7       941.583 7        45.056               
G28  21641029.501 7 114041716.715 7     -1668.020 7        42.550               
G29  20957655.557 7 110132469.113 7      1406.841 7        44.871               
G31  23245422.458 6 122154637.427 6      2876.980 6        40.397               
G32  23438144.883 6 123167402.554 6     -2666.043 6        40.773               
> 2025 01 07 14 19 41.0000000  0  7                                             
G11  23209852.238 6 121850012.991 6      1019.873 6        41.231               
G12  22367820.704 7 117055804.880 7      2942.226 7        44.126               
G25  20033103.786 7 105098989.255 7       943.770 7        45.214               
G28  21640709.985 7 114043385.483 7     -1668.627 7        42.871               
G29  20957388.961 7 110131064.565 7      1404.472 7        44.286               
G31  23244877.194 6 122151759.586 6      2878.188 6        40.550               
G32  23438657.348 6 123170069.775 6     -2668.264 6        40.394               
> 2025 01 07 14 19 42.0000000  0  7                                             
G11  23210046.099 6 121848995.413 6      1019.977 6        41.366               
G12  22368386.750 7 117052866.541 7      2939.150 7        43.705               
G25  20033285.657 7 105098045.907 7       944.068 7        45.421               
G28  21640398.394 7 114045053.947 7     -1667.128 7        42.833               
G29  20957119.898 7 110129660.329 7      1404.286 7        44.485               
G31  23244329.285 6 122148881.832 6      2880.257 6        40.985               
G32  23439162.533 6 123172737.191 6     -2666.802 6        40.331               
> 2025 01 07 14 19 43.0000000  0  7                                             
G11  23210247.099 6 121847977.301 6      1019.989 6        40.747               
G12  22368946.721 7 117049928.105 7      2938.379 7        44.268               
G25  20033468.734 7 105097102.260 7       941.760 7        45.432               
G28  21640082.104 7 114046722.023 7     -1664.680 7        42.954               
G29  20956858.349 7 110128256.498 7      1403.869 7        44.321               
G31  23243779.607 6 122146004.269 6      2880.426 6        40.489               
G32  23439673.497 6 123175404.858 6     -2669.524 6        40.615               
> 2025 01 07 14 19 44.0000000  0  7                                             
G11  23210436.010 6 121846958.888 6      1021.999 6        40.531               
G12  22369506.396 7 117046989.776 7      2939.254 7        43.999               
G25  20033647.996 7 105096158.507 7       943.879 7        45.569               
G28  21639765.295 7 114048389.947 7     -1670.579 7        42.656               
G29  20956591.529 7 110126852.841 7      1402.378 7        44.316               
G31  23243240.695 6 122143126.645 6      2874.179 6        40.196               
G32  23440178.958 6 123178072.595 6     -2666.221 6        40.380               
> 2025 01 07 14 19 45.0000000  0  7                                             
G11  23210632.551 6 121845940.132 6      1019.329 6        40.335               
G12  22370070.226 7 117044051.520 7      2940.012 7        44.124               
G25  20033828.312 7 105095214.638 7       943.315 7        45.541               
G28  21639454.973 7 114050057.661 7     -1665.510 7        43.192               
G29  20956326.915 7 110125449.406 7      1402.066 7        44.050               
G31  23242686.433 6 122140249.017 6      2879.029 6        40.775               
G32  23440691.210 6 123180740.416 6     -2668.083 6        40.705               
> 2025 01 07 14 19 46.0000000  0  7                                             
G11  23210834.784 6 121844920.998 6      1024.805 6        40.261               
G12  22370625.855 7 117041113.328 7      2938.260 7        43.865               
G25  20034014.061 7 105094270.598 7       945.386 7        45.156               
G28  21639136.395 7 114051725.167 7     -1668.081 7        42.744               
G29  20956061.265 7 110124046.211 7      1403.008 7        44.195               
G31  23242136.845 6 122137371.406 6      2878.741 6        40.343               
G32  23441196.197 6 123183408.351 6     -2667.166 6        40.914               
> 2025 01 07 14 19 47.0000000  0  7                                             
G11  23211023.686 6 121843900.604 6      1022.195 6        40.700               
G12  22371191.731 7 117038174.267 7      2938.319 7        44.642               
G25  20034192.518 7 105093325.504 7       945.892 7        45.162               
G28  21638821.802 7 114053391.514 7     -1666.365 7        42.359               
G29  20955799.591 7 110122644.174 7      1401.823 7        44.007               
G31  23241596.923 6 122134494.726 6      2879.481 6        40.894               
G32  23441713.175 6 123186077.311 6     -2671.609 6        41.239               
> 2025 01 07 14 19 48.0000000  0  7                                             
G11  23211218.092 6 121842879.646 6      1025.456 6        40.551               
G12  22371750.638 7 117035235.061 7      2940.530 7        44.575               
G25  20034373.952 7 105092380.069 7       945.714 7        45.491               
G28  21638507.423 7 114055057.465 7     -1666.254 7        42.163               
G29  20955529.653 7 110121242.574 7      1402.512 7        44.656               
G31  23241054.849 6 122131618.248 6      2877.085 6        41.192               
G32  23442221.799 6 123188746.554 6     -2667.117 6        40.525               
> 2025 01 07 14 19 49.0000000  0  7                                             
G11  23211416.787 6 121841857.974 6      1019.103 6        41.103               
G12  22372308.750 7 117032295.590 7      2939.569 7        44.051               
G25  20034555.027 7 105091434.145 7       947.524 7        45.616               
G28  21638194.286 7 114056722.829 7     -1664.156 7        42.029               
G29  20955270.275 7 110119841.547 7      1400.600 7        44.378               
G31  23240507.806 6 122128742.127 6      2875.927 6        40.672               
G32  23442728.251 6 123191416.277 6     -2667.935 6        40.514               
> 2025 01 07 14 19 50.0000000  0  7                                             
G11  23211612.703 6 121840835.263 6      1022.967 6        41.097               
G12  22372875.627 7 117029355.467 7      2942.342 7        44.088               
G25  20034739.999 7 105090487.383 7       947.940 7        45.902               
G28  21637872.510 7 114058387.315 7     -1664.689 7        42.067               
G29  20955003.437 7 110118441.442 7      1399.570 7        44.554               
G31  23239965.625 6 122125866.707 6      2874.780 6        40.255               
G32  23443241.968 6 123194086.764 6     -2669.140 6        41.157               
> 2025 01 07 14 19 51.0000000  0  7                                             
G11  23211817.026 6 121839811.984 6      1024.245 6        41.261               
G12  22373431.175 7 117026415.206 7      2937.341 7        44.438               
G25  20034922.763 7 105089540.275 7       945.167 7        45.362               
G28  21637563.018 7 114060051.362 7     -1665.754 7        42.098               
G29  20954741.370 7 110117041.800 7      1397.741 7        44.115               
G31  23239416.822 6 122122991.508 6      2879.726 6        40.167               
G32  23443751.896 6 123196757.565 6     -2671.825 6        41.068               
> 2025 01 07 14 19 52.0000000  0  7                                             
G11  23212009.538 6 121838788.089 6      1024.379 6        41.279               
G12  22373996.846 7 117023474.754 7      2939.623 7        44.472               
G25  20035108.145 7 105088592.759 7       947.448 7        45.093               
G28  21637237.891 7 114061714.943 7     -1666.080 7        42.313               
G29  20954472.897 7 110115642.628 7      1397.147 7        44.486               
G31  23238873.282 6 122120116.565 6      2875.737 6        40.368               
G32  23444257.447 6 123199428.734 6     -2673.543 6        40.589               
> 2025 01 07 14 19 53.0000000  0  7                                             
G11  23212203.185 6 121837763.295 6      1023.752 6        40.676               
G12  22374561.168 7 117020533.806 7      2940.194 7        44.632               
G25  20035282.332 7 105087644.549 7       947.929 7        45.914               
G28  21636924.638 6 114063377.749 6     -1662.060 6        41.924               
G29  20954207.890 7 110114244.245 7      1397.129 7        44.473               
G31  23238328.134 6 122117242.192 6      2873.044 6        40.455               
G32  23444764.578 6 123202100.537 6     -2672.413 6        40.464               
> 2025 01 07 14 19 54.0000000  0  7                                             
G11  23212395.598 6 121836737.957 6      1025.528 6        40.946               
G12  22375117.126 7 117017592.754 7      2942.073 7        44.672               
G25  20035465.186 7 105086696.029 7       947.168 7        45.653               
G28  21636614.888 6 114065040.185 6     -1665.164 6        41.802               
G29  20953947.941 7 110112846.276 7      1397.662 7        44.059               
G31  23237777.036 6 122114367.999 6      2868.148 6        40.328               
G32  23445275.695 6 123204772.628 6     -2673.026 6        39.842               
> 2025 01 07 14 19 55.0000000  0  7                                             
G11  23212597.608 6 121835711.746 6      1027.727 6        40.462               
G12  22375681.636 7 117014651.254 7      2941.226 7        44.693               
G25  20035646.163 7 105085746.830 7       949.483 7        45.238               
G28  21636303.386 7 114066701.871 7     -1660.954 7        42.097               
G29  20953685.606 7 110111449.052 7      1395.161 7        43.982               
G31  23237230.199 6 122111494.334 6      2874.849 6        40.262               
G32  23445793.566 6 123207445.344 6     -2673.861 6        40.385               
> 2025 01 07 14 19 56.0000000  0  7                                             
G11  23212784.527 6 121834685.068 6      1023.202 6        40.138               
G12  22376242.187 7 117011709.700 7      2940.927 7        44.432               
G25  20035829.777 7 105084797.388 7       950.131 7        45.492               
G28  21635981.601 6 114068363.210 6     -1663.047 6        41.556               
G29  20953420.930 7 110110052.177 7      1398.657 7        44.266               
G31  23236686.293 6 122108620.795 6      2875.347 6        40.660               
G32  23446303.664 6 123210118.254 6     -2672.260 6        41.000               
> 2025 01 07 14 19 57.0000000  0  7                                             
G11  23212988.993 6 121833657.863 6      1024.578 6        40.506               
G12  22376803.489 7 117008768.030 7      2939.677 7        44.139               
G25  20036011.871 7 105083847.633 7       950.064 7        45.793               
G28  21635672.386 6 114070024.195 6     -1661.921 6        41.898               
G29  20953156.280 7 110108655.703 7      1394.604 7        44.256               
G31  23236148.506 6 122105747.423 6      2870.059 6        40.699               
G32  23446813.199 6 123212791.455 6     -2674.296 6        40.562               
> 2025 01 07 14 19 58.0000000  0  7                                             
G11  23213187.455 6 121832630.106 6      1028.328 6        40.547               
G12  22377365.746 7 117005826.254 7      2942.005 7        44.102               
G25  20036198.057 7 105082897.545 7       949.031 7        45.670               
G28  21635360.071 7 114071684.769 7     -1659.844 7        42.353               
G29  20952892.820 7 110107259.637 7      1398.019 7        44.064               
G31  23235601.964 6 122102874.266 6      2875.059 6        41.228               
G32  23447329.364 6 123215464.924 6     -2671.468 6        41.382               
> 2025 01 07 14 19 59.0000000  0  7                                             
G11  23213385.221 6 121831601.808 6      1027.377 6        40.567               
G12  22377924.493 7 117002884.337 7      2941.552 7        44.115               
G25  20036379.705 7 105081947.114 7       950.572 7        44.935               
G28  21635044.451 7 114073344.914 7     -1658.294 7        42.066               
G29  20952628.581 7 110105864.018 7      1394.070 7        44.272               
G31  23235052.671 6 122100001.292 6      2876.452 6        40.080               
G32  23447834.441 6 123218138.703 6     -2676.474 6        41.016               
> 2025 01 07 14 20 00.0000000  0  7                                             
G11  23213581.574 6 121830572.465 6      1031.056 6        40.520               
G12  22378486.358 7 116999941.800 7      2941.838 7        44.486               
G25  20036560.343 7 105080995.864 7       952.909 7        45.327               
G28  21634729.858 7 114075004.186 7     -1657.060 7        42.443               
G29  20952362.717 7 110104469.309 7      1393.787 7        44.322               
G31  23234508.336 6 122097129.004 6      2871.812 6        40.857               
G32  23448341.796 6 123220813.253 6     -2678.028 6        41.297               
> 2025 01 07 14 20 01.0000000  0  7                                             
G11  23213783.727 6 121829542.403 6      1028.336 6        40.710               
G12  22379048.499 7 116996998.966 7      2944.536 7        44.239               
G25  20036742.696 7 105080044.104 7       952.086 7        45.743               
G28  21634420.706 6 114076662.868 6     -1660.949 6        41.848               
G29  20952101.213 7 110103075.204 7      1394.246 7        44.470               
G31  23233969.870 6 122094257.100 6      2874.156 6        40.978               
G32  23448861.883 6 123223488.260 6     -2675.078 6        40.649               
> 2025 01 07 14 20 02.0000000  0  7                                             
G11  23213979.187 6 121828511.749 6      1032.426 6        40.563               
G12  22379612.865 7 116994055.982 7      2945.593 7        43.387               
G25  20036929.758 7 105079091.966 7       953.395 7        44.523               
G28  21634104.067 7 114078321.101 7     -1659.132 7        42.270               
G29  20951836.519 7 110101681.553 7      1394.165 7        44.040               
G31  23233421.845 6 122091385.455 6      2870.684 6        40.835               
G32  23449364.208 6 123226163.626 6     -2673.820 6        40.636               
> 2025 01 07 14 20 03.0000000  0  7                                             
G11  23214178.998 6 121827480.243 6      1031.067 6        40.698               
G12  22380166.680 7 116991112.546 7      2943.947 7        44.149               
G25  20037108.144 7 105078139.188 7       952.921 7        45.514               
G28  21633785.748 7 114079978.619 7     -1654.788 7        42.694               
G29  20951572.236 7 110100288.641 7      1392.947 7        43.978               
G31  23232871.462 6 122088514.272 6      2873.052 6        41.195               
G32  23449880.801 6 123228839.575 6     -2676.238 6        40.523               
> 2025 01 07 14 20 04.0000000  0  7                                             
G11  23214368.687 6 121826448.266 6      1037.556 6        40.721               
G12  22380736.550 7 116988169.065 7      2943.144 7        43.946               
G25  20037294.063 7 105077186.173 7       952.978 7        45.246               
G28  21633474.380 7 114081635.807 7     -1660.545 7        42.299               
G29  20951309.508 7 110098896.062 7      1391.167 7        44.400               
G31  23232325.241 6 122085643.234 6      2870.859 6        40.315               
G32  23450392.517 6 123231515.738 6     -2677.678 6        40.505               
> 2025 01 07 14 20 05.0000000  0  7                                             
G11  23214573.394 6 121825416.032 6      1034.353 6        40.823               
G12  22381299.621 7 116985225.739 7      2942.466 7        43.978               
G25  20037476.720 7 105076233.074 7       953.652 7        45.206               
G28  21633160.707 7 114083292.871 7     -1653.946 7        42.051               
G29  20951046.038 7 110097503.638 7      1392.566 7        44.476               
G31  23231783.792 6 122082772.125 6      2870.559 6        40.664               
G32  23450891.679 6 123234191.910 6     -2671.119 6        40.627               
> 2025 01 07 14 20 06.0000000  0  7                                             
G11  23214767.693 6 121824382.532 6      1034.227 6        40.437               
G12  22381859.011 7 116982281.575 7      2944.213 7        44.026               
G25  20037662.745 7 105075278.947 7       954.967 7        45.213               
G28  21632841.656 6 114084948.832 6     -1656.911 6        41.788               
G29  20950783.381 7 110096112.349 7      1391.737 7        44.376               
G31  23231245.532 6 122079901.946 6      2870.563 6        40.969               
G32  23451413.017 6 123236869.064 6     -2682.700 6        39.722               
> 2025 01 07 14 20 07.0000000  0  7                                             
G11  23214967.487 6 121823348.505 6      1029.399 6        40.666               
G12  22382418.659 7 116979337.280 7      2943.876 7        43.520               
G25  20037844.464 7 105074324.497 7       953.663 7        44.794               
G28  21632532.254 7 114086604.370 7     -1656.471 7        42.298               
G29  20950522.503 7 110094721.473 7      1390.683 7        44.431               
G31  23230701.885 6 122077031.923 6      2870.142 6        41.190               
G32  23451915.878 6 123239546.510 6     -2678.914 6        40.290               
> 2025 01 07 14 20 08.0000000  0  7                                             
G11  23215164.680 6 121822314.553 6      1037.461 6        40.853               
G12  22382977.468 7 116976393.538 7      2942.786 7        43.899               
G25  20038024.530 7 105073370.376 7       954.609 7        45.214               
G28  21632222.879 7 114088260.165 7     -1652.988 7        42.502               
G29  20950255.486 7 110093330.377 7      1391.932 7        44.630               
G31  23230146.123 6 122074161.455 6      2866.976 6        40.208               
G32  23452437.814 6 123242223.625 6     -2676.953 6        40.241               
> 2025 01 07 14 20 09.0000000  0  7                                             
G11  23215368.870 6 121821279.888 6      1037.954 6        40.420               
G12  22383538.708 7 116973449.463 7      2942.396 7        43.726               
G25  20038207.536 7 105072415.726 7       954.844 7        45.437               
G28  21631910.501 7 114089915.376 7     -1654.554 7        42.373               
G29  20949992.668 7 110091939.866 7      1390.633 7        44.219               
G31  23229602.136 6 122071291.376 6      2867.643 6        40.131               
G32  23452943.445 6 123244901.167 6     -2679.792 6        40.086               
> 2025 01 07 14 20 10.0000000  0  7                                             
G11  23215564.250 6 121820244.646 6      1038.779 6        41.009               
G12  22384104.914 7 116970505.248 7      2943.964 7        43.548               
G25  20038394.035 7 105071460.713 7       955.381 7        45.101               
G28  21631596.516 7 114091570.160 7     -1654.001 7        42.485               
G29  20949730.824 7 110090549.811 7      1388.911 7        44.567               
G31  23229059.248 6 122068421.505 6      2866.769 6        40.330               
G32  23453449.460 6 123247579.048 6     -2677.512 6        39.939               
> 2025 01 07 14 20 11.0000000  0  7                                             
G11  23215761.756 6 121819208.161 6      1035.376 6        41.040               
G12  22384664.956 7 116967560.225 7      2943.115 7        43.033               
G25  20038575.102 7 105070504.691 7       956.440 7        44.909               
G28  21631283.754 7 114093223.842 7     -1652.847 7        42.224               
G29  20949465.675 7 110089160.860 7      1388.416 7        44.354               
G31  23228515.941 6 122065552.526 6      2870.871 6        40.929               
G32  23453973.397 6 123250257.897 6     -2680.064 6        39.818               
> 2025 01 07 14 20 12.0000000  0  7                                             
G11  23215960.576 6 121818169.913 6      1039.142 6        40.774               
G12  22385227.857 7 116964613.798 7      2946.943 7        43.744               
G25  20038760.922 7 105069547.063 7       956.867 7        44.908               
G28  21630969.009 7 114094875.851 7     -1655.540 7        42.058               
G29  20949204.466 7 110087773.615 7      1388.942 7        44.237               
G31  23227976.010 6 122062685.038 6      2869.634 6        41.059               
G32  23454481.968 6 123252938.302 6     -2680.499 6        39.096               
> 2025 01 07 14 20 13.0000000  0  7                                             
G11  23216168.920 6 121817132.095 6      1037.191 6        40.525               
G12  22385791.974 7 116961668.278 7      2945.640 7        43.691               
G25  20038946.769 7 105068590.141 7       957.068 7        45.308               
G28  21630653.505 7 114096528.479 7     -1652.354 7        42.061               
G29  20948945.472 7 110086385.750 7      1385.080 7        44.166               
G31  23227426.431 6 122059816.684 6      2869.337 6        40.338               
G32  23454984.141 6 123255617.956 6     -2677.231 6        39.357               
> 2025 01 07 14 20 14.0000000  0  7                                             
G11  23216360.627 6 121816093.375 6      1035.891 6        39.963               
G12  22386354.446 7 116958722.262 7      2948.064 7        43.713               
G25  20039131.758 7 105067632.487 7       956.848 7        45.655               
G28  21630336.214 7 114098180.316 7     -1651.716 7        42.018               
G29  20948680.948 7 110084998.695 7      1387.089 7        44.306               
G31  23226884.195 6 122056948.924 6      2864.749 6        40.260               
G32  23455497.643 6 123258298.306 6     -2678.748 6        39.851               
> 2025 01 07 14 20 15.0000000  0  7                                             
G11  23216565.219 6 121815054.710 6      1039.662 6        39.853               
G12  22386918.687 7 116955776.719 7      2944.932 7        43.890               
G25  20039316.354 7 105066675.111 7       957.663 7        45.774               
G28  21630033.092 7 114099832.367 7     -1651.876 7        42.295               
G29  20948422.544 7 110083611.460 7      1387.860 7        44.516               
G31  23226338.833 6 122054080.771 6      2868.516 6        40.593               
G32  23456019.043 6 123260978.331 6     -2682.012 6        39.295               
> 2025 01 07 14 20 16.0000000  0  7                                             
G11  23216765.593 6 121814015.158 6      1038.423 6        40.330               
G12  22387479.542 7 116952830.720 7      2946.248 7        44.069               
G25  20039499.386 7 105065717.086 7       960.951 7        45.562               
G28  21629715.479 7 114101483.668 7     -1650.185 7        42.279               
G29  20948160.968 7 110082224.963 7      1385.637 7        44.237               
G31  23225793.577 6 122051213.135 6      2868.866 6        40.522               
G32  23456527.211 6 123263658.951 6     -2678.911 6        39.408               
> 2025 01 07 14 20 17.0000000  0  7                                             
G11  23216959.615 6 121812973.978 6      1047.059 6        40.265               
G12  22388041.103 7 116949883.517 7      2948.871 7        44.093               
G25  20039679.363 7 105064757.640 7       959.754 7        45.578               
G28  21629406.042 7 114103133.478 7     -1652.595 7        42.355               
G29  20947900.268 7 110080839.980 7      1384.098 7        44.301               
G31  23225256.863 6 122048346.793 6      2863.154 6        40.030               
G32  23457035.531 6 123266340.959 6     -2683.409 6        39.486               
> 2025 01 07 14 20 18.0000000  0  7                                             
G11  23217157.157 6 121811931.874 6      1045.724 6        40.043               
G12  22388603.530 7 116946935.797 7      2948.389 7        44.199               
G25  20039868.703 7 105063797.461 7       959.806 7        45.383               
G28  21629091.216 7 114104782.502 7     -1647.222 7        42.489               
G29  20947635.860 7 110079455.812 7      1383.337 7        44.188               
G31  23224709.705 6 122045481.032 6      2865.947 6        40.627               
G32  23457553.018 6 123269023.634 6     -2681.759 6        38.923               
> 2025 01 07 14 20 19.0000000  0  7                                             
G11  23217360.506 6 121810889.837 6      1040.925 6        40.247               
G12  22389165.047 7 116943988.607 7      2948.549 7        44.777               
G25  20040048.769 7 105062837.592 7       957.936 7        45.193               
G28  21628779.000 7 114106431.754 7     -1648.729 7        42.389               
G29  20947375.857 7 110078071.427 7      1384.610 7        44.329               
G31  23224166.487 6 122042614.836 6      2868.553 6        40.218               
G32  23458052.136 6 123271705.972 6     -2687.642 6        38.228               
> 2025 01 07 14 20 20.0000000  0  7                                             
G11  23217560.639 6 121809847.231 6      1040.684 6        39.778               
G12  22389730.038 7 116941041.221 7      2944.303 7        44.079               
G25  20040235.098 7 105061877.338 7       960.049 7        45.266               
G28  21628471.152 7 114108080.540 7     -1648.541 7        42.383               
G29  20947115.282 7 110076687.524 7      1383.124 7        44.021               
G31  23223623.751 6 122039748.906 6      2860.989 6        40.249               
G32  23458566.540 6 123274388.647 6     -2681.975 6        38.253               
> 2025 01 07 14 20 21.0000000  0  7                                             
G11  23217756.529 6 121808804.070 6      1042.995 6        40.121               
G12  22390293.136 7 116938093.712 7      2945.895 7        44.784               
G25  20040420.132 7 105060916.758 7       959.137 7        45.308               
G28  21628163.510 7 114109728.927 7     -1650.809 7        42.605               
G29  20946851.410 7 110075304.037 7      1383.328 7        44.404               
G31  23223074.475 6 122036883.143 6      2869.108 6        40.074               
G32  23459076.263 6 123277071.603 6     -2684.150 6        38.496               
> 2025 01 07 14 20 22.0000000  0  7                                             
G11  23217958.565 6 121807760.432 6      1046.986 6        39.835               
G12  22390855.715 7 116935146.160 7      2946.230 7        44.376               
G25  20040601.896 7 105059955.928 7       961.733 7        44.954               
G28  21627849.721 7 114111376.983 7     -1650.048 7        42.481               
G29  20946589.039 7 110073920.893 7      1382.993 7        43.890               
G31  23222540.432 6 122034017.525 6      2866.787 6        39.914               
G32  23459578.410 6 123279754.760 6     -2686.330 6        37.902               
> 2025 01 07 14 20 23.0000000  0  7                                             
G11  23218162.281 6 121806715.881 6      1044.272 6        39.887               
G12  22391419.170 7 116932198.107 7      2948.840 7        44.746               
G25  20040789.199 7 105058994.379 7       961.822 7        45.184               
G28  21627531.483 7 114113024.240 7     -1648.327 7        42.104               
G29  20946329.581 7 110072538.560 7      1382.458 7        44.344               
G31  23221996.723 6 122031152.506 6      2863.120 6        40.409               
G32  23460109.870 6 123282438.635 6     -2681.344 6        38.338               
> 2025 01 07 14 20 24.0000000  0  7                                             
G11  23218359.680 6 121805671.116 6      1046.951 6        39.933               
G12  22391982.089 7 116929250.261 7      2945.592 7        44.032               
G25  20040972.741 7 105058032.835 7       961.310 7        44.509               
G28  21627223.832 7 114114671.436 7     -1646.183 7        42.674               
G29  20946064.798 7 110071156.320 7      1382.675 7        45.343               
G31  23221445.794 6 122028287.346 6      2862.917 6        39.661               
G32  23460616.519 6 123285122.411 6     -2683.846 6        38.067               
> 2025 01 07 14 20 25.0000000  0  7                                             
G11  23218555.363 6 121804626.044 6      1046.549 6        39.768               
G12  22392546.866 7 116926302.539 7      2946.866 7        44.672               
G25  20041159.579 7 105057071.204 7       960.990 7        45.887               
G28  21626910.713 6 114116318.458 6     -1646.138 6        41.879               
G29  20945804.321 7 110069774.248 7      1381.028 7        44.877               
G31  23220899.985 6 122025422.116 6      2863.286 6        39.772               
G32  23461136.517 6 123287806.249 6     -2678.848 6        38.007               
> 2025 01 07 14 20 26.0000000  0  7                                             
G11  23218775.090 6 121803580.156 6      1045.314 6        39.624               
G12  22393109.473 7 116923354.425 7      2949.873 7        44.629               
G25  20041342.790 7 105056108.960 7       963.264 7        45.360               
G28  21626602.937 7 114117964.818 7     -1645.565 7        42.534               
G29  20945541.825 7 110068392.872 7      1380.395 7        44.416               
G31  23220357.490 6 122022557.359 6      2862.497 6        39.855               
G32  23461646.472 6 123290490.633 6     -2682.987 6        38.639               
> 2025 01 07 14 20 27.0000000  0  7                                             
G11  23218959.444 6 121802533.179 6      1046.321 6        39.811               
G12  22393674.062 7 116920405.637 7      2947.432 7        44.741               
G25  20041527.368 7 105055145.860 7       963.032 7        44.804               
G28  21626289.300 7 114119610.215 7     -1645.643 7        42.313               
G29  20945287.442 7 110067012.464 7      1381.472 7        44.003               
G31  23219821.473 6 122019693.370 6      2865.175 6        39.734               
G32  23462150.548 6 123293175.861 6     -2686.427 6        38.727               
> 2025 01 07 14 20 28.0000000  0  7                                             
G11  23219166.770 6 121801485.847 6      1050.025 6        40.524               
G12  22394240.197 7 116917456.913 7      2947.769 7        44.891               
G25  20041715.038 7 105054182.587 7       962.357 7        44.821               
G28  21625977.459 7 114121255.398 7     -1643.785 7        42.831               
G29  20945029.333 7 110065632.303 7      1381.042 7        44.871               
G31  23219279.532 6 122016829.399 6      2862.027 6        39.759               
G32  23462675.817 6 123295861.192 6     -2688.496 6        38.762               
> 2025 01 07 14 20 29.0000000  0  7                                             
G11  23219373.729 6 121800437.936 6      1051.748 6        40.740               
G12  22394800.561 7 116914508.024 7      2950.005 7        45.091               
G25  20041901.528 7 105053218.971 7       963.691 7        45.150               
G28  21625663.768 7 114122900.152 7     -1645.766 7        42.675               
G29  20944768.463 7 110064252.591 7      1376.804 7        44.528               
G31  23218724.922 6 122013965.651 6      2859.976 6        39.634               
G32  23463182.011 6 123298546.817 6     -2682.979 6        38.936               
> 2025 01 07 14 20 30.0000000  0  7                                             
G11  23219577.150 6 121799389.646 6      1049.471 6        40.602               
G12  22395365.088 7 116911559.184 7      2948.018 7        44.519               
G25  20042086.070 7 105052255.168 7       963.863 7        45.068               
G28  21625359.601 7 114124544.638 7     -1644.522 7        42.575               
G29  20944502.134 7 110062873.138 7      1379.831 7        44.473               
G31  23218178.130 6 122011101.929 6      2866.946 6        40.142               
G32  23463692.931 6 123301232.556 6     -2684.853 6        38.928               
> 2025 01 07 14 20 31.0000000  0  7                                             
G11  23219772.154 6 121798340.486 6      1048.102 6        40.399               
G12  22395926.444 7 116908609.880 7      2949.505 7        44.791               
G25  20042270.425 7 105051290.722 7       964.497 7        45.848               
G28  21625042.480 7 114126188.402 7     -1645.547 7        42.879               
G29  20944243.998 7 110061494.432 7      1379.832 7        44.687               
G31  23217650.360 6 122008238.721 6      2864.694 6        40.187               
G32  23464212.633 6 123303918.936 6     -2683.898 6        39.006               
> 2025 01 07 14 20 32.0000000  0  7                                             
G11  23219975.763 6 121797290.444 6      1053.501 6        39.722               
G12  22396487.942 7 116905660.145 7      2949.684 7        44.609               
G25  20042455.905 7 105050325.613 7       965.571 7        45.517               
G28  21624729.584 7 114127831.438 7     -1644.143 7        42.582               
G29  20943981.538 7 110060116.460 7      1378.399 7        44.396               
G31  23217107.642 6 122005376.026 6      2862.434 6        39.974               
G32  23464729.093 6 123306605.911 6     -2683.854 6        38.976               
> 2025 01 07 14 20 33.0000000  0  7                                             
G11  23220173.609 6 121796239.587 6      1049.884 6        39.781               
G12  22397052.496 7 116902709.991 7      2951.567 7        45.019               
G25  20042645.370 7 105049359.899 7       965.780 7        46.074               
G28  21624424.846 7 114129473.769 7     -1640.838 7        42.750               
G29  20943720.453 7 110058739.202 7      1377.202 7        44.752               
G31  23216554.747 6 122002513.832 6      2865.715 6        39.810               
G32  23465248.867 6 123309293.490 6     -2689.214 6        38.346               
> 2025 01 07 14 20 34.0000000  0  7                                             
G11  23220383.891 6 121795187.795 6      1054.238 6        40.500               
G12  22397610.715 7 116899759.333 7      2949.080 7        45.165               
G25  20042825.222 7 105048393.466 7       966.844 7        45.873               
G28  21624118.830 7 114131115.326 7     -1643.622 7        42.428               
G29  20943459.289 7 110057362.747 7      1375.754 7        44.670               
G31  23216014.317 6 121999652.216 6      2860.530 6        39.718               
G32  23465753.962 6 123311981.676 6     -2693.457 6        39.240               
> 2025 01 07 14 20 35.0000000  0  7                                             
G11  23220589.760 6 121794135.104 6      1053.469 6        39.660               
G12  22398177.083 7 116896808.192 7      2951.687 7        44.466               
G25  20043016.787 7 105047426.336 7       967.099 7        45.498               
G28  21623804.576 7 114132756.118 7     -1640.513 7        42.548               
G29  20943202.162 7 110055987.083 7      1376.540 7        44.184               
G31  23215476.432 6 121996791.166 6      2863.451 6        39.567               
G32  23466261.004 6 123314670.550 6     -2691.916 6        39.327               
> 2025 01 07 14 20 36.0000000  0  7                                             
G11  23220791.931 6 121793081.969 6      1058.069 6        40.318               
G12  22398742.566 7 116893857.028 7      2953.823 7        44.724               
G25  20043199.891 7 105046458.986 7       967.237 7        45.375               
G28  21623498.024 7 114134396.611 7     -1637.711 7        42.683               
G29  20942934.333 7 110054611.719 7      1374.284 7        44.534               
G31  23214921.510 6 121993930.203 6      2859.741 6        39.615               
G32  23466769.056 6 123317359.574 6     -2691.763 6        39.563               
> 2025 01 07 14 20 37.0000000  0  7                                             
G11  23220988.758 6 121792027.934 6      1054.831 6        40.263               
G12  22399306.369 7 116890905.398 7      2951.273 7        44.961               
G25  20043389.401 7 105045490.936 7       969.243 7        45.467               
G28  21623188.077 7 114136036.312 7     -1640.536 7        42.615               
G29  20942681.861 7 110053237.161 7      1374.446 7        44.541               
G31  23214388.781 6 121991069.815 6      2859.069 6        39.426               
G32  23467284.721 6 123320049.280 6     -2691.597 6        39.130               
> 2025 01 07 14 20 38.0000000  0  7                                             
G11  23221193.867 6 121790973.086 6      1052.948 6        40.032               
G12  22399866.072 7 116887953.372 7      2953.902 7        44.536               
G25  20043574.640 7 105044522.296 7       969.705 7        45.172               
G28  21622877.996 7 114137675.363 7     -1639.492 7        42.967               
G29  20942420.241 7 110051863.278 7      1372.622 7        43.965               
G31  23213843.945 6 121988209.883 6      2863.348 6        39.919               
G32  23467800.626 6 123322739.503 6     -2696.176 6        39.110               
> 2025 01 07 14 20 39.0000000  0  7                                             
G11  23221391.937 6 121789917.682 6      1055.116 6        40.082               
G12  22400432.091 7 116885001.208 7      2953.368 7        44.459               
G25  20043759.915 7 105043553.309 7       965.572 7        45.589               
G28  21622565.601 7 114139313.983 7     -1638.189 7        42.420               
G29  20942156.851 7 110050489.832 7      1374.547 7        44.378               
G31  23213298.833 6 121985350.182 6      2863.710 6        39.372               
G32  23468320.543 6 123325430.061 6     -2690.720 6        39.014               
> 2025 01 07 14 20 40.0000000  0  7                                             
G11  23221589.818 6 121788860.935 6      1060.287 6        40.000               
G12  22400991.007 7 116882048.105 7      2954.193 7        44.585               
G25  20043947.593 7 105042583.199 7       973.262 7        45.754               
G28  21622258.191 7 114140951.388 7     -1638.706 7        42.568               
G29  20941899.832 7 110049117.616 7      1371.843 7        44.836               
G31  23212755.543 6 121982491.480 6      2857.412 6        39.607               
G32  23468828.854 6 123328121.642 6     -2696.953 6        38.738               
> 2025 01 07 14 20 41.0000000  0  7                                             
G11  23221792.819 6 121787804.004 6      1057.781 6        39.514               
G12  22401555.088 7 116879095.273 7      2952.185 7        44.267               
G25  20044134.691 7 105041613.113 7       968.946 7        45.617               
G28  21621943.768 7 114142588.758 7     -1635.535 7        42.322               
G29  20941643.859 7 110047745.449 7      1370.415 7        44.431               
G31  23212217.024 6 121979632.620 6      2857.374 6        40.058               
G32  23469337.675 6 123330813.175 6     -2690.679 6        39.263               
> 2025 01 07 14 20 42.0000000  0  7                                             
G11  23222000.743 6 121786747.397 6      1052.104 6        39.632               
G12  22402120.195 7 116876143.167 7      2953.239 7        44.429               
G25  20044317.580 7 105040643.575 7       970.238 7        46.069               
G28  21621630.292 7 114144226.600 7     -1637.730 7        42.569               
G29  20941384.070 7 110046372.845 7      1370.942 7        44.120               
G31  23211678.934 6 121976773.070 6      2855.348 6        39.276               
G32  23469857.538 6 123333504.126 6     -2687.776 6        39.445               
> 2025 01 07 14 20 43.0000000  0  7                                             
G11  23222206.121 6 121785690.337 6      1060.127 6        39.954               
G12  22402687.135 7 116873191.030 7      2952.665 7        43.868               
G25  20044502.382 7 105039673.795 7       969.847 7        44.993               
G28  21621314.957 7 114145864.123 7     -1634.890 7        42.546               
G29  20941121.779 7 110045000.553 7      1369.868 7        43.448               
G31  23211130.230 6 121973913.641 6      2856.962 6        39.300               
G32  23470369.745 6 123336195.281 6     -2696.751 6        39.182               
> 2025 01 07 14 20 44.0000000  0  7                                             
G11  23222406.075 6 121784632.518 6      1056.080 6        40.118               
G12  22403246.784 7 116870238.552 7      2953.565 7        44.800               
G25  20044689.551 7 105038703.468 7       972.535 7        45.154               
G28  21621015.088 7 114147501.018 7     -1634.091 7        42.161               
G29  20940865.189 7 110043628.902 7      1372.320 7        43.920               
G31  23210594.463 6 121971054.638 6      2856.454 6        40.194               
G32  23470884.882 6 123338886.911 6     -2692.254 6        39.174               
> 2025 01 07 14 20 45.0000000  0  7                                             
G11  23222613.025 6 121783572.700 6      1060.235 6        40.262               
G12  22403814.536 7 116867284.475 7      2954.635 7        44.180               
G25  20044875.782 7 105037731.354 7       972.935 7        45.443               
G28  21620703.586 7 114149136.040 7     -1633.475 7        42.253               
G29  20940602.854 7 110042259.139 7      1369.381 7        44.436               
G31  23210041.748 6 121968197.274 6      2856.332 6        39.919               
G32  23471406.327 6 123341580.267 6     -2691.663 6        39.551               
> 2025 01 07 14 20 46.0000000  0  7                                             
G11  23222805.510 6 121782512.719 6      1059.751 6        40.555               
G12  22404379.626 7 116864330.688 7      2953.360 7        44.544               
G25  20045060.512 7 105036759.285 7       973.308 7        45.083               
G28  21620389.761 7 114150771.063 7     -1633.755 7        42.409               
G29  20940347.622 7 110040889.406 7      1368.670 7        44.278               
G31  23209504.944 6 121965339.742 6      2861.323 6        40.065               
G32  23471922.152 6 123344273.563 6     -2695.645 6        39.166               
> 2025 01 07 14 20 47.0000000  0  7                                             
G11  23223014.658 6 121781451.826 6      1058.564 6        40.101               
G12  22404938.864 7 116861376.388 7      2954.399 7        44.347               
G25  20045251.005 7 105035786.519 7       972.159 7        45.939               
G28  21620083.227 6 114152405.286 6     -1634.733 6        41.938               
G29  20940087.628 7 110039520.485 7      1368.812 7        44.564               
G31  23208966.613 6 121962482.780 6      2857.076 6        40.153               
G32  23472430.043 6 123346967.483 6     -2695.541 6        39.458               
> 2025 01 07 14 20 48.0000000  0  7                                             
G11  23223209.091 6 121780390.822 6      1059.111 6        39.743               
G12  22405501.828 7 116858422.400 7      2953.246 7        44.210               
G25  20045434.975 7 105034813.859 7       972.464 7        45.611               
G28  21619776.943 7 114154039.537 7     -1632.997 7        42.351               
G29  20939831.386 7 110038151.544 7      1367.759 7        44.468               
G31  23208430.355 6 121959625.596 6      2858.075 6        39.789               
G32  23472942.393 6 123349661.275 6     -2699.634 6        39.284               
> 2025 01 07 14 20 49.0000000  0  7                                             
G11  23223418.740 6 121779328.491 6      1061.693 6        40.123               
G12  22406070.331 7 116855467.514 7      2955.221 7        44.241               
G25  20045623.967 7 105033840.084 7       972.990 7        45.589               
G28  21619465.799 7 114155672.607 7     -1633.075 7        42.354               
G29  20939572.830 7 110036783.804 7      1367.865 7        44.200               
G31  23207886.985 6 121956769.404 6      2853.280 6        39.902               
G32  23473463.248 6 123352356.142 6     -2695.284 6        39.634               
> 2025 01 07 14 20 50.0000000  0  7                                             
G11  23223625.868 6 121778265.823 6      1067.633 6        39.522               
G12  22406629.810 7 116852512.749 7      2952.904 7        43.854               
G25  20045809.849 7 105032866.196 7       974.609 7        45.399               
G28  21619151.224 6 114157305.493 6     -1632.180 6        41.416               
G29  20939314.899 7 110035416.265 7      1364.313 7        44.235               
G31  23207343.355 6 121953913.148 6      2859.467 6        39.674               
G32  23473973.677 6 123355051.031 6     -2695.227 6        39.305               
> 2025 01 07 14 20 51.0000000  0  7                                             
G11  23223826.484 6 121777202.441 6      1062.071 6        39.877               
G12  22407195.713 7 116849557.636 7      2954.539 7        43.769               
G25  20045997.224 7 105031891.779 7       973.561 7        45.802               
G28  21618842.545 7 114158937.753 7     -1631.925 7        42.321               
G29  20939055.557 7 110034049.350 7      1367.889 7        44.210               
G31  23206805.480 6 121951057.329 6      2859.267 6        39.554               
G32  23474487.643 6 123357746.421 6     -2699.237 6        39.465               
> 2025 01 07 14 20 52.0000000  0  7                                             
G11  23224036.918 6 121776138.688 6      1062.904 6        39.856               
G12  22407760.829 7 116846602.600 7      2954.195 7        43.798               
G25  20046188.905 7 105030917.235 7       976.425 7        45.458               
G28  21618535.555 6 114160569.799 6     -1629.889 6        41.887               
G29  20938795.402 7 110032682.670 7      1363.946 7        43.874               
G31  23206262.512 6 121948201.528 6      2853.802 6        39.438               
G32  23475010.929 6 123360441.912 6     -2700.441 6        39.783               
> 2025 01 07 14 20 53.0000000  0  7                                             
G11  23224237.373 6 121775074.250 6      1069.153 6        39.884               
G12  22408322.095 7 116843647.300 7      2951.444 7        43.796               
G25  20046373.161 7 105029942.185 7       975.192 7        45.511               
G28  21618219.917 6 114162201.297 6     -1630.162 6        41.383               
G29  20938540.358 7 110031316.564 7      1366.515 7        44.019               
G31  23205708.751 6 121945346.061 6      2858.043 6        39.731               
G32  23475514.201 6 123363137.811 6     -2694.048 6        39.479               
> 2025 01 07 14 20 54.0000000  0  7                                             
G11  23224447.218 6 121774009.511 6      1063.503 6        40.225               
G12  22408888.463 7 116840692.119 7      2956.999 7        43.949               
G25  20046565.334 7 105028967.078 7       977.164 7        46.225               
G28  21617924.917 6 114163832.640 6     -1630.667 6        41.327               
G29  20938281.954 7 110029950.625 7      1366.126 7        44.418               
G31  23205167.391 6 121942490.566 6      2856.180 6        39.647               
G32  23476030.875 6 123365833.780 6     -2695.424 6        39.846               
> 2025 01 07 14 20 55.0000000  0  7                                             
G11  23224642.133 6 121772943.765 6      1066.613 6        39.887               
G12  22409456.501 7 116837736.350 7      2953.807 7        44.369               
G25  20046749.581 7 105027991.153 7       975.030 7        45.780               
G28  21617612.540 6 114165463.100 6     -1630.030 6        41.972               
G29  20938021.584 7 110028585.578 7      1363.461 7        43.439               
G31  23204632.750 6 121939635.712 6      2858.756 6        39.646               
G32  23476552.588 6 123368530.454 6     -2695.451 6        39.863               
> 2025 01 07 14 20 56.0000000  0  7                                             
G11  23224855.489 6 121771877.305 6      1061.880 6        40.077               
G12  22410015.507 7 116834780.263 7      2956.132 7        44.001               
G25  20046935.741 7 105027014.711 7       978.624 7        46.154               
G28  21617304.040 6 114167092.956 6     -1627.100 6        41.398               
G29  20937760.857 7 110027221.154 7      1363.924 7        44.231               
G31  23204097.715 6 121936781.279 6      2852.444 6        39.971               
G32  23477070.012 6 123371227.634 6     -2693.407 6        39.712               
> 2025 01 07 14 20 57.0000000  0  7                                             
G11  23225060.751 6 121770810.046 6      1065.060 6        40.055               
G12  22410580.829 7 116831823.835 7      2956.059 7        44.130               
G25  20047125.474 7 105026037.732 7       976.654 7        46.043               
G28  21616986.928 6 114168722.185 6     -1631.355 6        41.322               
G29  20937504.651 7 110025857.356 7      1364.588 7        43.877               
G31  23203553.175 6 121933927.260 6      2852.757 6        40.153               
G32  23477581.084 6 123373925.312 6     -2702.084 6        39.778               
> 2025 01 07 14 20 58.0000000  0  7                                             
G11  23225258.177 6 121769742.500 6      1067.385 6        39.685               
G12  22411147.644 7 116828867.550 7      2956.523 7        44.148               
G25  20047313.045 7 105025060.655 7       976.638 7        46.184               
G28  21616686.996 6 114170351.259 6     -1629.024 6        41.432               
G29  20937245.443 7 110024493.748 7      1361.337 7        44.000               
G31  23203005.293 6 121931073.190 6      2855.699 6        40.377               
G32  23478099.071 6 123376623.022 6     -2701.038 6        39.785               
> 2025 01 07 14 20 59.0000000  0  7                                             
G11  23225467.343 6 121768674.030 6      1069.020 6        39.539               
G12  22411709.812 7 116825910.748 7      2956.763 7        43.534               
G25  20047500.795 7 105024082.879 7       978.321 7        46.100               
G28  21616379.962 6 114171979.554 6     -1628.085 6        41.391               
G29  20936993.436 7 110023130.925 7      1362.870 7        44.004               
G31  23202457.670 6 121928219.694 6      2854.311 6        39.335               
G32  23478611.841 6 123379321.363 6     -2697.928 6        39.706               
> 2025 01 07 14 21 00.0000000  0  7                                             
G11  23225674.766 6 121767605.028 6      1068.984 6        39.690               
G12  22412269.264 7 116822953.853 7      2958.450 7        43.989               
G25  20047686.418 7 105023104.804 7       978.982 7        45.407               
G28  21616072.704 6 114173607.448 6     -1628.403 6        41.059               
G29  20936732.602 7 110021768.510 7      1362.551 7        43.502               
G31  23201926.719 6 121925366.399 6      2855.988 6        39.196               
G32  23479132.910 6 123382019.997 6     -2701.473 6        39.866               
> 2025 01 07 14 21 01.0000000  0  7                                             
G11  23225875.158 6 121766535.026 6      1069.844 6        40.179               
G12  22412833.631 7 116819996.318 7      2957.517 7        43.696               
G25  20047877.528 7 105022125.865 7       978.220 7        45.462               
G28  21615771.914 6 114175234.415 6     -1626.857 6        41.383               
G29  20936472.322 7 110020407.025 7      1362.144 7        43.732               
G31  23201390.800 6 121922513.809 6      2851.341 6        40.137               
G32  23479642.874 6 123384719.382 6     -2697.743 6        39.695               
> 2025 01 07 14 21 02.0000000  0  7                                             
G11  23226089.488 6 121765464.442 6      1069.875 6        40.170               
G12  22413401.571 7 116817038.679 7      2960.000 7        43.826               
G25  20048065.152 7 105021146.607 7       982.337 7        45.378               
G28  21615457.116 6 114176860.994 6     -1629.092 6        41.273               
G29  20936218.823 7 110019045.964 7      1360.242 7        43.911               
G31  23200849.395 6 121919661.415 6      2854.108 6        39.574               
G32  23480152.865 6 123387419.119 6     -2698.044 6        39.724               
> 2025 01 07 14 21 03.0000000  0  7                                             
G11  23226292.409 6 121764393.195 6      1068.337 6        39.978               
G12  22413965.463 7 116814080.800 7      2957.705 7        43.329               
G25  20048254.323 7 105020166.923 7       980.559 7        45.895               
G28  21615151.243 6 114178487.052 6     -1627.528 6        41.381               
G29  20935962.135 7 110017685.432 7      1360.709 7        44.092               
G31  23200306.999 6 121916809.345 6      2851.997 6        39.626               
G32  23480664.500 6 123390119.203 6     -2699.102 6        39.175               
> 2025 01 07 14 21 04.0000000  0  7                                             
G11  23226489.361 6 121763321.424 6      1070.025 6        40.262               
G12  22414532.457 7 116811122.812 7      2956.850 7        43.248               
G25  20048441.456 7 105019186.904 7       980.318 7        46.464               
G28  21614841.859 6 114180112.700 6     -1626.449 6        41.886               
G29  20935704.571 7 110016325.315 7      1359.417 7        44.028               
G31  23199760.162 6 121913957.455 6      2850.724 6        40.099               
G32  23481187.053 6 123392819.559 6     -2696.912 6        38.994               
> 2025 01 07 14 21 05.0000000  0  7                                             
G11  23226698.849 6 121762249.008 6      1073.390 6        39.547               
G12  22415094.053 7 116808164.585 7      2957.958 7        43.300               
G25  20048629.965 7 105018206.457 7       981.944 7        46.305               
G28  21614536.620 6 114181737.848 6     -1624.111 6        41.655               
G29  20935447.221 7 110014965.722 7      1358.993 7        44.171               
G31  23199219.106 6 121911105.881 6      2856.051 6        39.741               
G32  23481698.643 6 123395520.301 6     -2702.345 6        39.882               
> 2025 01 07 14 21 06.0000000  0  7                                             
G11  23226901.671 6 121761175.954 6      1073.978 6        39.513               
G12  22415662.377 7 116805206.159 7      2958.811 7        43.429               
G25  20048822.334 7 105017225.578 7       981.849 7        45.780               
G28  21614227.379 6 114183362.484 6     -1625.964 6        41.757               
G29  20935189.621 7 110013606.644 7      1359.434 7        44.210               
G31  23198681.418 6 121908254.603 6      2850.882 6        39.561               
G32  23482227.762 6 123398221.422 6     -2701.931 6        38.931               
> 2025 01 07 14 21 07.0000000  0  7                                             
G11  23227107.263 6 121760102.292 6      1071.085 6        39.812               
G12  22416224.617 7 116802247.527 7      2963.806 7        43.431               
G25  20049007.297 7 105016244.295 7       983.405 7        45.948               
G28  21613921.631 6 114184986.638 6     -1621.592 6        41.901               
G29  20934933.844 7 110012248.073 7      1356.909 7        44.708               
G31  23198133.527 6 121905403.600 6      2852.973 6        39.846               
G32  23482732.339 6 123400922.886 6     -2696.926 6        39.482               
> 2025 01 07 14 21 08.0000000  0  7                                             
G11  23227318.824 6 121759027.919 6      1073.870 6        40.119               
G12  22416787.232 7 116799288.647 7      2959.318 7        43.511               
G25  20049194.823 7 105015262.523 7       981.304 7        45.707               
G28  21613613.381 6 114186610.245 6     -1622.269 6        41.678               
G29  20934677.852 7 110010890.047 7      1356.632 7        44.376               
G31  23197597.072 6 121902552.928 6      2849.888 6        39.736               
G32  23483245.636 6 123403624.776 6     -2707.329 6        39.978               
> 2025 01 07 14 21 09.0000000  0  7                                             
G11  23227526.185 6 121757952.338 6      1079.059 6        39.959               
G12  22417355.396 7 116796328.945 7      2956.839 7        43.564               
G25  20049383.127 7 105014279.751 7       982.224 7        46.694               
G28  21613307.204 7 114188232.753 7     -1624.398 7        42.306               
G29  20934424.639 7 110009533.155 7      1356.054 7        44.185               
G31  23197059.340 6 121899703.176 6      2848.779 6        39.816               
G32  23483774.568 6 123406327.640 6     -2704.987 6        40.033               
> 2025 01 07 14 21 10.0000000  0  7                                             
G11  23227727.613 6 121756876.323 6      1072.105 6        39.655               
G12  22417915.974 7 116793369.206 7      2962.221 7        43.539               
G25  20049573.602 7 105013296.741 7       981.748 7        46.300               
G28  21613003.324 7 114189854.950 7     -1620.515 7        42.487               
G29  20934166.557 7 110008176.588 7      1357.852 7        44.191               
G31  23196519.499 6 121896853.529 6      2852.294 6        39.739               
G32  23484290.446 6 123409030.692 6     -2697.661 6        39.787               
> 2025 01 07 14 21 11.0000000  0  7                                             
G11  23227932.866 6 121755799.698 6      1075.139 6        39.605               
G12  22418484.495 7 116790409.331 7      2962.592 7        43.785               
G25  20049764.657 7 105012313.363 7       980.659 7        45.823               
G28  21612697.522 7 114191476.703 7     -1620.238 7        42.551               
G29  20933909.895 7 110006820.468 7      1355.193 7        43.967               
G31  23195970.151 6 121894004.108 6      2853.658 6        39.478               
G32  23484801.456 6 123411734.057 6     -2705.846 6        39.570               
> 2025 01 07 14 21 12.0000000  0  7                                             
G11  23228150.698 6 121754722.526 6      1080.026 6        39.480               
G12  22419050.094 7 116787449.327 7      2960.276 7        43.666               
G25  20049950.879 7 105011329.644 7       983.598 7        45.959               
G28  21612392.766 7 114193098.024 7     -1621.147 7        42.401               
G29  20933651.339 7 110005464.787 7      1355.501 7        43.854               
G31  23195436.984 6 121891154.888 6      2847.154 6        39.791               
G32  23485320.756 6 123414437.710 6     -2704.468 6        39.685               
> 2025 01 07 14 21 13.0000000  0  7                                             
G11  23228348.651 6 121753644.507 6      1078.430 6        39.789               
G12  22419617.444 7 116784488.911 7      2958.428 7        43.451               
G25  20050142.810 7 105010345.300 7       985.198 7        46.158               
G28  21612088.412 7 114194718.641 7     -1619.263 7        42.611               
G29  20933396.947 7 110004109.822 7      1356.862 7        44.243               
G31  23194894.624 6 121888306.203 6      2850.517 6        39.554               
G32  23485830.166 6 123417141.975 6     -2702.869 6        39.970               
> 2025 01 07 14 21 14.0000000  0  7                                             
G11  23228563.598 6 121752565.909 6      1076.355 6        39.945               
G12  22420182.829 7 116781528.294 7      2961.592 7        43.264               
G25  20050334.063 7 105009360.571 7       985.572 7        45.941               
G28  21611777.536 7 114196338.802 7     -1616.630 7        42.307               
G29  20933144.217 7 110002755.339 7      1354.743 7        44.078               
G31  23194354.113 6 121885457.760 6      2848.632 6        39.819               
G32  23486356.802 6 123419846.529 6     -2701.101 6        39.731               
> 2025 01 07 14 21 15.0000000  0  7                                             
G11  23228767.555 6 121751486.801 6      1078.170 6        39.871               
G12  22420742.273 7 116778567.627 7      2957.591 7        43.345               
G25  20050518.846 7 105008375.571 7       985.703 7        45.962               
G28  21611470.599 7 114197958.611 7     -1619.741 7        42.728               
G29  20932885.473 7 110001401.219 7      1355.370 7        43.461               
G31  23193809.393 6 121882609.471 6      2851.560 6        39.347               
G32  23486867.651 6 123422551.314 6     -2708.312 6        39.829               
> 2025 01 07 14 21 16.0000000  0  7                                             
G11  23228967.321 6 121750407.125 6      1080.786 6        39.695               
G12  22421309.811 7 116775606.794 7      2956.869 7        43.479               
G25  20050712.323 7 105007390.191 7       986.119 7        46.192               
G28  21611167.648 7 114199577.952 7     -1617.423 7        42.841               
G29  20932630.983 7 110000047.579 7      1352.931 7        44.123               
G31  23193267.319 6 121879761.399 6      2847.828 6        38.746               
G32  23487384.628 6 123425256.446 6     -2710.453 6        39.223               
> 2025 01 07 14 21 17.0000000  0  7                                             
G11  23229181.106 6 121749326.713 6      1079.705 6        39.662               
G12  22421875.079 7 116772645.631 7      2962.787 7        43.413               
G25  20050898.357 7 105006404.294 7       988.115 7        46.194               
G28  21610858.416 6 114201196.710 6     -1620.846 6        41.946               
G29  20932374.294 7 109998694.541 7      1352.376 7        44.264               
G31  23192739.271 6 121876913.749 6      2851.335 6        39.305               
G32  23487900.355 6 123427962.029 6     -2706.951 6        39.297               
> 2025 01 07 14 21 18.0000000  0  7                                             
G11  23229386.680 6 121748245.639 6      1084.269 6        39.548               
G12  22422440.911 7 116769684.267 7      2960.557 7        43.466               
G25  20051091.128 7 105005417.957 7       985.405 7        46.761               
G28  21610550.229 7 114202814.932 7     -1620.440 7        42.518               
G29  20932120.983 7 109997342.035 7      1353.004 7        44.621               
G31  23192195.954 6 121874066.417 6      2847.658 6        39.134               
G32  23488421.907 6 123430667.987 6     -2709.748 6        39.590               
> 2025 01 07 14 21 19.0000000  0  7                                             
G11  23229593.094 6 121747164.156 6      1086.430 6        39.844               
G12  22423003.437 7 116766722.877 7      2959.933 7        43.669               
G25  20051276.957 7 105004431.398 7       988.668 7        46.605               
G28  21610240.978 7 114204432.859 7     -1620.266 7        43.035               
G29  20931863.678 7 109995989.844 7      1350.656 7        44.560               
G31  23191660.179 6 121871219.172 6      2841.269 6        39.629               
G32  23488935.892 6 123433374.165 6     -2710.186 6        39.013               
> 2025 01 07 14 21 20.0000000  0  7                                             
G11  23229805.182 6 121746081.847 6      1079.993 6        39.497               
G12  22423566.168 7 116763761.108 7      2960.572 7        43.564               
G25  20051469.987 7 105003444.254 7       987.021 7        46.479               
G28  21609944.227 7 114206050.104 7     -1615.653 7        42.984               
G29  20931612.984 7 109994638.343 7      1351.503 7        44.532               
G31  23191112.431 6 121868372.383 6      2843.351 6        39.353               
G32  23489456.997 6 123436080.838 6     -2705.436 6        39.749               
> 2025 01 07 14 21 21.0000000  0  7                                             
G11  23230007.969 6 121744998.718 6      1083.545 6        39.451               
G12  22424137.816 7 116760798.922 7      2962.650 7        43.449               
G25  20051656.754 7 105002456.484 7       988.724 7        46.457               
G28  21609629.688 7 114207666.679 7     -1616.486 7        42.873               
G29  20931352.659 7 109993287.552 7      1349.241 7        44.721               
G31  23190580.166 6 121865526.087 6      2845.235 6        39.864               
G32  23489967.748 6 123438788.097 6     -2707.608 6        39.194               
> 2025 01 07 14 21 22.0000000  0  7                                             
G11  23230212.730 6 121743914.525 6      1085.631 6        39.421               
G12  22424704.523 7 116757836.132 7      2964.375 7        43.135               
G25  20051847.676 7 105001467.896 7       988.354 7        46.131               
G28  21609328.318 7 114209282.331 7     -1615.588 7        42.861               
G29  20931098.178 7 109991937.676 7      1348.318 7        44.414               
G31  23190034.205 6 121862680.506 6      2844.924 6        40.364               
G32  23490484.707 6 123441496.111 6     -2705.377 6        40.147               
> 2025 01 07 14 21 23.0000000  0  7                                             
G11  23230426.318 6 121742829.903 6      1087.791 6        39.440               
G12  22425268.568 7 116754873.308 7      2961.119 7        43.193               
G25  20052039.169 7 105000479.057 7       988.454 7        46.386               
G28  21609024.241 7 114210897.653 7     -1614.053 7        43.189               
G29  20930845.206 7 109990588.141 7      1348.939 7        43.898               
G31  23189499.260 6 121859835.022 6      2841.466 6        40.246               
G32  23491006.519 6 123444204.344 6     -2709.699 6        39.783               
> 2025 01 07 14 21 24.0000000  0  7                                             
G11  23230639.031 6 121741744.374 6      1083.498 6        39.163               
G12  22425835.721 7 116751909.975 7      2967.633 7        43.002               
G25  20052227.777 7 104999489.532 7       990.756 7        45.973               
G28  21608714.008 7 114212512.219 7     -1617.146 7        42.475               
G29  20930587.919 7 109989239.385 7      1346.874 7        44.030               
G31  23188956.283 6 121856990.114 6      2840.666 6        39.526               
G32  23491527.669 6 123446913.203 6     -2706.560 6        39.761               
> 2025 01 07 14 21 25.0000000  0  7                                             
G11  23230840.745 6 121740658.126 6      1083.154 6        39.589               
G12  22426401.571 7 116748946.369 7      2962.252 7        43.633               
G25  20052416.876 7 104998499.488 7       990.221 7        46.340               
G28  21608410.940 7 114214126.187 7     -1614.040 7        42.988               
G29  20930336.868 7 109987891.243 7      1349.240 7        44.164               
G31  23188421.910 6 121854145.583 6      2842.386 6        38.822               
G32  23492048.801 6 123449622.523 6     -2704.341 6        39.568               
> 2025 01 07 14 21 26.0000000  0  7                                             
G11  23231050.304 6 121739571.694 6      1085.771 6        39.115               
G12  22426966.795 7 116745982.992 7      2961.862 7        43.379               
G25  20052609.272 7 104997509.491 7       991.716 7        46.124               
G28  21608106.604 7 114215740.111 7     -1613.550 7        43.173               
G29  20930080.179 7 109986543.152 7      1347.623 7        44.179               
G31  23187874.010 6 121851300.896 6      2839.933 6        40.152               
G32  23492551.296 6 123452331.761 6     -2706.879 6        38.930               
> 2025 01 07 14 21 27.0000000  0  7                                             
G11  23231254.565 6 121738484.935 6      1086.270 6        39.812               
G12  22427538.604 7 116743019.715 7      2963.684 7        43.849               
G25  20052797.826 7 104996519.377 7       991.161 7        46.564               
G28  21607800.150 7 114217353.846 7     -1612.251 7        43.028               
G29  20929823.250 7 109985195.260 7      1348.113 7        44.464               
G31  23187331.604 6 121848456.215 6      2849.279 6        39.740               
G32  23493071.409 6 123455041.058 6     -2711.200 6        38.500               
> 2025 01 07 14 21 28.0000000  0  7                                             
G11  23231464.231 6 121737397.530 6      1086.903 6        39.860               
G12  22428102.389 7 116740056.229 7      2962.872 7        43.637               
G25  20052988.971 7 104995528.824 7       993.421 7        46.444               
G28  21607494.733 7 114218967.056 7     -1611.886 7        42.773               
G29  20929570.582 7 109983847.907 7      1347.476 7        44.227               
G31  23186800.412 6 121845611.822 6      2844.348 6        39.247               
G32  23493582.544 6 123457750.739 6     -2716.690 6        38.976               
> 2025 01 07 14 21 29.0000000  0  7                                             
G11  23231675.086 6 121736308.594 6      1087.055 6        39.616               
G12  22428663.762 7 116737091.598 7      2963.469 7        43.755               
G25  20053178.936 7 104994536.935 7       992.394 7        46.084               
G28  21607192.014 7 114220578.849 7     -1613.041 7        42.701               
G29  20929315.984 7 109982501.982 7      1344.145 7        44.154               
G31  23186256.952 6 121842768.635 6      2847.474 6        39.471               
G32  23494104.185 6 123460461.677 6     -2707.144 6        38.423               
> 2025 01 07 14 21 30.0000000  0  7                                             
G11  23231892.561 6 121735218.910 6      1092.837 6        38.854               
G12  22429234.329 7 116734126.680 7      2963.316 7        43.782               
G25  20053367.776 7 104993544.551 7       991.301 7        45.517               
G28  21606885.506 7 114222190.070 7     -1609.555 7        43.119               
G29  20929061.922 7 109981156.651 7      1345.492 7        43.835               
G31  23185723.160 6 121839925.829 6      2842.191 6        39.397               
G32  23494630.303 6 123463173.103 6     -2709.324 6        38.564               
> 2025 01 07 14 21 31.0000000  0  7                                             
G11  23232089.683 6 121734128.975 6      1094.539 6        39.479               
G12  22429798.874 7 116731161.899 7      2963.620 7        43.646               
G25  20053557.438 7 104992552.094 7       991.151 7        45.630               
G28  21606579.508 7 114223801.132 7     -1610.821 7        42.216               
G29  20928803.733 7 109979811.479 7      1345.048 7        44.047               
G31  23185185.427 6 121837082.980 6      2847.137 6        39.710               
G32  23495129.340 6 123465884.511 6     -2711.809 6        38.355               
> 2025 01 07 14 21 32.0000000  0  7                                             
G11  23232304.156 6 121733039.039 6      1091.403 6        39.903               
G12  22430365.581 7 116728197.548 7      2965.359 7        43.104               
G25  20053749.985 7 104991559.860 7       990.798 7        45.307               
G28  21606277.897 7 114225412.334 7     -1612.559 7        43.022               
G29  20928556.443 7 109978466.179 7      1344.019 7        44.149               
G31  23184643.585 6 121834239.775 6      2847.157 6        40.075               
G32  23495650.937 6 123468595.696 6     -2710.248 6        38.441               
> 2025 01 07 14 21 33.0000000  0  7                                             
G11  23232522.042 6 121731948.384 6      1089.462 6        39.356               
G12  22430929.429 7 116725232.893 7      2965.053 7        43.175               
G25  20053937.735 7 104990567.107 7       993.229 7        45.599               
G28  21605976.348 7 114227022.941 7     -1611.245 7        43.384               
G29  20928295.350 7 109977121.497 7      1343.840 7        43.872               
G31  23184105.013 6 121831396.982 6      2841.037 6        40.462               
G32  23496176.760 6 123471307.345 6     -2712.700 6        38.493               
> 2025 01 07 14 21 34.0000000  0  7                                             
G11  23232723.077 6 121730856.712 6      1093.714 6        39.788               
G12  22431500.246 7 116722267.687 7      2967.403 7        43.513               
G25  20054129.202 7 104989573.586 7       992.775 7        45.430               
G28  21605669.099 7 114228632.709 7     -1608.222 7        43.162               
G29  20928043.397 7 109975777.676 7      1342.045 7        44.068               
G31  23183562.062 6 121828554.812 6      2842.056 6        39.790               
G32  23496696.203 6 123474019.654 6     -2713.125 6        38.972               
> 2025 01 07 14 21 35.0000000  0  7                                             
G11  23232933.583 6 121729764.316 6      1096.679 6        39.286               
G12  22432060.637 7 116719302.147 7      2963.441 7        44.169               
G25  20054318.185 7 104988579.529 7       992.885 7        45.528               
G28  21605368.185 7 114230241.831 7     -1609.425 7        42.738               
G29  20927789.031 7 109974434.489 7      1342.530 7        44.050               
G31  23183023.499 6 121825713.068 6      2843.487 6        40.431               
G32  23497216.567 6 123476732.481 6     -2712.715 6        39.135               
> 2025 01 07 14 21 36.0000000  0  7                                             
G11  23233146.770 6 121728671.707 6      1099.237 6        39.416               
G12  22432632.160 7 116716336.822 7      2964.905 7        43.743               
G25  20054507.123 7 104987585.475 7       993.648 7        45.508               
G28  21605061.651 7 114231850.895 7     -1607.960 7        43.428               
G29  20927533.799 7 109973091.385 7      1345.380 7        43.382               
G31  23182485.481 6 121822871.184 6      2839.210 6        39.787               
G32  23497729.542 6 123479445.236 6     -2717.187 6        38.827               
> 2025 01 07 14 21 37.0000000  0  7                                             
G11  23233352.531 6 121727578.219 6      1094.629 6        39.470               
G12  22433196.874 7 116713371.029 7      2962.428 7        42.809               
G25  20054703.602 7 104986590.747 7       996.252 7        46.039               
G28  21604755.367 7 114233459.202 7     -1607.172 7        43.295               
G29  20927281.229 7 109971749.063 7      1343.600 7        43.881               
G31  23181950.786 6 121820029.872 6      2836.717 6        40.224               
G32  23498247.761 6 123482158.628 6     -2717.503 6        38.663               
> 2025 01 07 14 21 38.0000000  0  7                                             
G11  23233568.613 6 121726483.811 6      1095.737 6        39.442               
G12  22433764.100 7 116710404.728 7      2966.190 7        43.485               
G25  20054892.084 7 104985595.293 7       996.195 7        45.514               
G28  21604454.345 7 114235066.703 7     -1609.213 7        43.516               
G29  20927025.676 7 109970407.539 7      1339.805 7        43.834               
G31  23181417.994 6 121817189.138 6      2838.844 6        39.962               
G32  23498765.168 6 123484872.677 6     -2711.280 6        38.450               
> 2025 01 07 14 21 39.0000000  0  7                                             
G11  23233772.963 6 121725388.955 6      1095.648 6        40.034               
G12  22434332.227 7 116707438.430 7      2965.185 7        43.571               
G25  20055083.979 7 104984599.654 7       995.078 7        45.709               
G28  21604150.072 7 114236673.919 7     -1606.488 7        43.515               
G29  20926775.045 7 109969066.308 7      1342.210 7        43.808               
G31  23180873.221 6 121814348.477 6      2839.350 6        40.549               
G32  23499290.669 6 123487586.911 6     -2720.615 6        38.145               
> 2025 01 07 14 21 40.0000000  0  7                                             
G11  23233988.276 6 121724293.599 6      1099.356 6        39.745               
G12  22434897.657 7 116704472.041 7      2965.626 7        43.401               
G25  20055275.562 7 104983603.690 7       995.683 7        45.574               
G28  21603841.250 7 114238280.759 7     -1605.458 7        43.299               
G29  20926520.438 7 109967725.482 7      1340.386 7        44.378               
G31  23180334.792 6 121811508.008 6      2835.459 6        40.670               
G32  23499796.389 6 123490301.345 6     -2713.381 6        38.091               
> 2025 01 07 14 21 41.0000000  0  7                                             
G11  23234194.002 6 121723197.140 6      1097.351 6        39.660               
G12  22435462.121 7 116701504.963 7      2967.926 7        43.776               
G25  20055467.636 7 104982606.856 7       997.348 7        46.309               
G28  21603541.873 7 114239886.622 7     -1605.461 7        43.279               
G29  20926268.663 7 109966385.650 7      1337.274 7        44.010               
G31  23179787.955 6 121808668.311 6      2840.109 6        40.057               
G32  23500318.245 6 123493016.639 6     -2713.331 6        38.520               
> 2025 01 07 14 21 42.0000000  0  7                                             
G11  23234409.806 6 121722099.818 6      1098.146 6        39.182               
G12  22436030.124 7 116698537.459 7      2967.160 7        43.667               
G25  20055658.245 7 104981609.350 7       997.671 7        45.749               
G28  21603244.452 7 114241491.747 7     -1604.846 7        43.569               
G29  20926011.323 7 109965046.550 7      1340.050 7        43.370               
G31  23179250.526 6 121805829.119 6      2836.275 6        39.834               
G32  23500838.001 6 123495732.561 6     -2713.983 6        37.567               
> 2025 01 07 14 21 43.0000000  0  7                                             
G11  23234617.926 6 121721002.149 6      1095.060 6        39.063               
G12  22436595.732 7 116695570.026 7      2966.242 7        43.877               
G25  20055851.070 7 104980611.716 7       998.283 7        45.907               
G28  21602933.236 7 114243096.664 7     -1604.101 7        43.207               
G29  20925757.690 7 109963707.672 7      1340.409 7        44.158               
G31  23178713.544 6 121802989.948 6      2843.733 6        40.603               
G32  23501358.499 6 123498448.520 6     -2718.313 6        38.439               
> 2025 01 07 14 21 44.0000000  0  7                                             
G11  23234828.111 6 121719903.646 6      1095.008 6        39.707               
G12  22437162.788 7 116692602.180 7      2967.540 7        43.113               
G25  20056044.100 7 104979613.472 7       999.990 7        45.520               
G28  21602626.496 7 114244700.876 7     -1606.000 7        42.933               
G29  20925502.127 7 109962369.521 7      1337.142 7        43.727               
G31  23178183.344 6 121800151.279 6      2839.088 6        40.621               
G32  23501870.679 6 123501165.048 6     -2718.362 6        38.139               
> 2025 01 07 14 21 45.0000000  0  7                                             
G11  23235033.569 6 121718804.633 6      1101.733 6        39.226               
G12  22437727.422 7 116689634.235 7      2968.390 7        43.288               
G25  20056236.907 7 104978614.920 7       999.144 7        46.195               
G28  21602329.817 7 114246304.699 7     -1601.367 7        43.117               
G29  20925255.999 7 109961031.758 7      1339.382 7        43.863               
G31  23177644.396 6 121797312.788 6      2837.091 6        40.833               
G32  23502395.867 6 123503881.862 6     -2719.512 6        37.754               
> 2025 01 07 14 21 46.0000000  0  7                                             
G11  23235253.152 6 121717705.358 6      1099.146 6        39.311               
G12  22438293.593 7 116686666.455 7      2967.058 7        43.543               
G25  20056425.925 7 104977616.325 7       998.125 7        45.716               
G28  21602018.655 7 114247908.408 7     -1600.811 7        43.222               
G29  20925002.893 7 109959694.136 7      1338.236 7        43.756               
G31  23177102.813 6 121794474.239 6      2839.339 6        40.059               
G32  23502922.217 6 123506598.634 6     -2715.728 6        37.598               
> 2025 01 07 14 21 47.0000000  0  7                                             
G11  23235460.165 6 121716605.270 6      1102.050 6        39.538               
G12  22438865.357 7 116683698.294 7      2968.211 7        43.808               
G25  20056613.595 7 104976617.142 7       998.832 7        46.169               
G28  21601716.811 7 114249511.434 7     -1602.179 7        43.080               
G29  20924751.065 7 109958357.206 7      1335.331 7        43.323               
G31  23176562.909 6 121791636.138 6      2836.792 6        40.426               
G32  23503435.630 6 123509315.953 6     -2717.398 6        38.392               
> 2025 01 07 14 21 48.0000000  0  7                                             
G11  23235674.790 6 121715504.566 6      1097.447 6        39.409               
G12  22439425.864 7 116680729.938 7      2969.164 7        43.667               
G25  20056808.814 7 104975617.529 7      1000.986 7        45.885               
G28  21601414.342 7 114251113.953 7     -1602.628 7        43.203               
G29  20924496.646 7 109957020.793 7      1334.192 7        43.416               
G31  23176031.029 6 121788798.329 6      2836.606 6        41.300               
G32  23503952.760 6 123512033.608 6     -2712.969 6        38.519               
> 2025 01 07 14 21 49.0000000  0  7                                             
G11  23235888.709 6 121714403.376 6      1099.720 6        39.242               
G12  22439994.510 7 116677761.516 7      2968.802 7        43.287               
G25  20057001.317 7 104974617.661 7       998.578 7        46.281               
G28  21601113.374 7 114252716.135 7     -1599.461 7        43.197               
G29  20924243.531 7 109955684.720 7      1336.738 7        43.785               
G31  23175485.890 6 121785960.667 6      2836.113 6        41.291               
G32  23504462.777 6 123514751.506 6     -2718.082 6        38.706               
> 2025 01 07 14 21 50.0000000  0  7                                             
G11  23236094.792 6 121713301.356 6      1098.319 6        39.465               
G12  22440561.137 7 116674792.668 7      2965.904 7        43.364               
G25  20057195.857 7 104973617.155 7       997.923 7        46.027               
G28  21600806.107 7 114254317.597 7     -1603.099 7        42.652               
G29  20923991.372 7 109954349.387 7      1334.729 7        43.732               
G31  23174952.740 6 121783123.515 6      2834.695 6        40.697               
G32  23504990.593 6 123517470.013 6     -2721.395 6        38.046               
> 2025 01 07 14 21 51.0000000  0  7                                             
G11  23236307.880 6 121712198.544 6      1102.405 6        39.330               
G12  22441124.770 7 116671823.466 7      2972.332 7        43.563               
G25  20057386.537 7 104972616.079 7      1002.812 7        46.085               
G28  21600503.013 7 114255918.417 7     -1599.540 7        43.032               
G29  20923739.205 7 109953014.721 7      1335.945 7        43.782               
G31  23174415.062 6 121780286.818 6      2832.801 6        41.174               
G32  23505510.787 6 123520188.978 6     -2714.474 6        37.750               
> 2025 01 07 14 21 52.0000000  0  7                                             
G11  23236522.246 6 121711094.728 6      1099.242 6        39.155               
G12  22441692.889 7 116668853.667 7      2970.686 7        43.458               
G25  20057583.668 7 104971614.215 7      1000.127 7        46.094               
G28  21600204.520 7 114257518.348 7     -1596.801 7        42.719               
G29  20923486.653 7 109951680.938 7      1333.840 7        43.861               
G31  23173881.769 6 121777450.788 6      2839.149 6        41.324               
G32  23506034.286 6 123522908.697 6     -2726.865 6        37.793               
> 2025 01 07 14 21 53.0000000  0  7                                             
G11  23236723.719 6 121709990.273 6      1105.588 6        39.422               
G12  22442263.152 7 116665883.678 7      2972.507 7        43.397               
G25  20057772.177 7 104970611.924 7      1003.756 7        45.922               
G28  21599901.783 7 114259117.782 7     -1600.305 7        42.638               
G29  20923240.748 7 109950347.663 7      1333.225 7        43.282               
G31  23173336.362 6 121774615.048 6      2833.652 6        40.097               
G32  23506553.533 6 123525628.814 6     -2724.908 6        37.896               
> 2025 01 07 14 21 54.0000000  0  7                                             
G11  23236941.820 6 121708885.066 6      1105.182 6        39.422               
G12  22442827.777 7 116662913.354 7      2970.225 7        43.807               
G25  20057963.867 7 104969609.114 7      1001.219 7        45.814               
G28  21599595.008 7 114260716.612 7     -1597.872 7        42.275               
G29  20922982.979 7 109949015.019 7      1333.537 7        43.456               
G31  23172803.320 6 121771779.717 6      2838.134 6        40.593               
G32  23507081.742 6 123528349.361 6     -2717.374 6        38.050               
> 2025 01 07 14 21 55.0000000  0  7                                             
G11  23237160.983 6 121707778.742 6      1104.522 6        38.614               
G12  22443401.820 7 116659942.324 7      2969.485 7        43.699               
G25  20058154.601 7 104968605.376 7      1003.905 7        45.997               
G28  21599298.301 7 114262314.413 7     -1595.394 7        42.858               
G29  20922732.366 7 109947683.386 7      1332.674 7        43.450               
G31  23172262.085 6 121768945.175 6      2832.862 6        40.491               
G32  23507588.105 6 123531070.806 6     -2719.385 6        38.469               
> 2025 01 07 14 21 56.0000000  0  7                                             
G11  23237369.327 6 121706672.171 6      1108.450 6        39.131               
G12  22443960.825 7 116656971.485 7      2973.073 7        43.819               
G25  20058353.019 7 104967601.615 7      1004.093 7        46.250               
G28  21598996.306 7 114263912.119 7     -1600.615 7        42.628               
G29  20922480.136 7 109946351.878 7      1333.313 7        43.749               
G31  23171731.009 6 121766110.546 6      2836.105 6        40.601               
G32  23508110.399 6 123533792.197 6     -2715.297 6        38.284               
> 2025 01 07 14 21 57.0000000  0  7                                             
G11  23237578.654 6 121705564.910 6      1112.208 6        38.951               
G12  22444530.070 7 116654000.347 7      2972.382 7        43.174               
G25  20058548.720 7 104966597.360 7      1004.138 7        46.375               
G28  21598693.301 7 114265509.263 7     -1598.151 7        42.467               
G29  20922231.015 7 109945020.953 7      1330.916 7        43.238               
G31  23171191.329 6 121763276.279 6      2836.881 6        40.950               
G32  23508639.170 6 123536514.052 6     -2719.337 6        37.938               
> 2025 01 07 14 21 58.0000000  0  7                                             
G11  23237800.238 6 121704457.207 6      1108.813 6        39.214               
G12  22445102.156 7 116651029.218 7      2971.598 7        43.295               
G25  20058734.326 7 104965592.884 7      1004.122 7        45.679               
G28  21598393.325 7 114267106.090 7     -1597.386 7        42.609               
G29  20921978.070 7 109943690.359 7      1327.581 7        43.228               
G31  23170644.912 6 121760442.110 6      2834.458 6        41.176               
G32  23509147.580 6 123539236.059 6     -2726.080 6        38.469               
> 2025 01 07 14 21 59.0000000  0  7                                             
G11  23238012.299 6 121703348.906 6      1107.939 6        39.269               
G12  22445668.362 7 116648057.897 7      2969.898 7        43.481               
G25  20058935.335 7 104964588.011 7      1006.544 7        45.646               
G28  21598090.087 7 114268702.442 7     -1599.844 7        42.383               
G29  20921722.980 7 109942360.226 7      1332.717 7        43.299               
G31  23170113.362 6 121757608.205 6      2836.247 6        41.416               
G32  23509682.131 6 123541958.416 6     -2725.996 6        38.196               
