     3.02           OBSERVATION DATA    G                   RINEX VERSION / TYPE
G = GPS  R = GLONASS  E = GALILEO  S = GEO  M = MIXED       COMMENT             
GNSS-SDR            jmfriedt            20250107 165641 UTC PGM / RUN BY / DATE 
GPS OBSERVATION DATA FILE GENERATED BY GNSS-SDR             COMMENT             
GNSS-SDR VERSION 0.0.19.git-main-87fcfd237                  COMMENT             
See https://gnss-sdr.org                                    COMMENT             
DEFAULT MARKER NAME                                         MARKER NAME         
jmfriedt            CTTC                                    OBSERVER / AGENCY   
GNSS-SDR            Software Receiver   0.0.19.gi           REC # / TYPE / VERS 
Antenna number      Antenna type                            ANT # / TYPE        
        0.0000        0.0000        0.0000                  APPROX POSITION XYZ 
        0.0000        0.0000        0.0000                  ANTENNA: DELTA H/E/N
G    4 C1C L1C D1C S1C                                      SYS / # / OBS TYPES 
DBHZ                                                        SIGNAL STRENGTH UNIT
  2025    01    07    14    17   48.1000000     GPS         TIME OF FIRST OBS   
                                                            END OF HEADER       
> 2025 01 07 14 17 49.0000000  0  5                                             
G25  20013357.845 7 105169284.212 7       890.206 7        44.021               
G28  21676719.623 7 113911926.462 7      1727.215 7        42.634               
G29  20987788.672 7 110294214.527 7     -1467.016 7        45.186               
G31  23306405.967 6 122481254.055 6     -2911.392 6        39.923               
G32  23382123.110 6 122869172.310 6      2615.453 6        41.261               
> 2025 01 07 14 17 50.0000000  0  5                                             
G25  20013530.701 7 105168394.605 7       890.976 7        44.337               
G28  21676388.965 7 113910197.060 7      1725.001 7        42.784               
G29  20987509.584 7 110295682.485 7     -1469.115 7        44.762               
G31  23305843.584 6 122484169.898 6     -2917.199 6        39.986               
G32  23382619.539 6 122866554.813 6      2618.693 6        41.587               
> 2025 01 07 14 17 51.0000000  0  5                                             
G25  20013703.888 7 105167504.695 7       889.917 7        44.186               
G28  21676064.937 7 113908468.056 7      1727.634 7        42.662               
G29  20987236.063 7 110297150.046 7     -1468.160 7        44.517               
G31  23305296.032 6 122487085.577 6     -2918.335 6        40.084               
G32  23383120.890 6 122863937.031 6      2619.591 6        41.590               
> 2025 01 07 14 17 52.0000000  0  5                                             
G25  20013874.037 7 105166614.066 7       891.188 7        44.682               
G28  21675733.932 7 113906739.807 7      1727.244 7        42.814               
G29  20986956.216 7 110298616.809 7     -1465.508 7        45.306               
G31  23304746.256 6 122490000.709 6     -2913.348 6        40.738               
G32  23383619.936 6 122861318.568 6      2621.795 6        41.529               
> 2025 01 07 14 17 53.0000000  0  5                                             
G25  20014044.328 7 105165722.381 7       892.490 7        44.228               
G28  21675406.741 7 113905012.716 7      1724.505 7        42.866               
G29  20986682.034 7 110300082.419 7     -1464.942 7        45.503               
G31  23304186.250 6 122492914.903 6     -2913.142 6        40.133               
G32  23384121.341 6 122858699.065 6      2619.321 6        41.459               
> 2025 01 07 14 17 54.0000000  0  5                                             
G25  20014213.593 7 105164829.653 7       894.181 7        43.851               
G28  21675087.457 7 113903286.693 7      1724.981 7        43.052               
G29  20986405.958 7 110301546.903 7     -1462.642 7        45.137               
G31  23303631.971 6 122495828.208 6     -2910.939 6        40.379               
G32  23384622.281 7 122856078.560 7      2621.691 7        42.174               
> 2025 01 07 14 17 55.0000000  0  5                                             
G25  20014389.067 7 105163935.561 7       893.318 7        43.837               
G28  21674758.069 7 113901562.115 7      1723.477 7        42.780               
G29  20986127.844 7 110303009.933 7     -1462.216 7        44.967               
G31  23303091.611 6 122498740.315 6     -2911.669 6        39.665               
G32  23385120.228 6 122853456.714 6      2618.877 6        41.443               
> 2025 01 07 14 17 56.0000000  0  5                                             
G25  20014560.207 7 105163042.587 7       892.399 7        43.860               
G28  21674425.937 7 113899836.473 7      1725.761 7        42.303               
G29  20985850.169 7 110304474.008 7     -1463.589 7        44.720               
G31  23302530.569 6 122501653.682 6     -2914.560 6        40.294               
G32  23385625.609 6 122850836.021 6      2619.476 6        41.595               
> 2025 01 07 14 17 57.0000000  0  5                                             
G25  20014734.350 7 105162148.853 7       895.717 7        43.783               
G28  21674100.828 7 113898111.659 7      1725.769 7        42.577               
G29  20985574.834 7 110305937.229 7     -1463.799 7        45.052               
G31  23301980.256 6 122504566.402 6     -2912.334 6        40.629               
G32  23386129.774 6 122848214.609 6      2622.022 6        41.154               
> 2025 01 07 14 17 58.0000000  0  5                                             
G25  20014900.621 7 105161255.017 7       895.063 7        44.117               
G28  21673782.438 7 113896387.020 7      1723.981 7        42.861               
G29  20985299.168 7 110307400.243 7     -1461.871 7        44.708               
G31  23301426.504 6 122507479.171 6     -2908.625 6        40.348               
G32  23386629.678 6 122845593.110 6      2617.921 6        41.287               
> 2025 01 07 14 17 59.0000000  0  5                                             
G25  20015074.388 7 105160360.539 7       895.093 7        44.471               
G28  21673450.637 7 113894663.062 7      1723.346 7        42.575               
G29  20985020.903 7 110308862.566 7     -1461.370 7        44.998               
G31  23300877.273 6 122510391.463 6     -2911.108 6        40.466               
G32  23387128.831 6 122842971.009 6      2623.469 6        40.932               
> 2025 01 07 14 18 00.0000000  0  5                                             
G25  20015249.478 7 105159465.324 7       895.949 7        44.503               
G28  21673118.747 7 113892939.886 7      1723.395 7        42.447               
G29  20984747.614 7 110310324.054 7     -1460.352 7        44.774               
G31  23300322.583 6 122513303.182 6     -2909.871 6        40.786               
G32  23387634.408 6 122840348.208 6      2622.127 6        41.278               
> 2025 01 07 14 18 01.0000000  0  5                                             
G25  20015417.563 7 105158569.459 7       894.193 7        44.106               
G28  21672802.224 7 113891217.459 7      1723.246 7        42.275               
G29  20984470.108 7 110311784.794 7     -1459.824 7        44.619               
G31  23299771.207 6 122516214.366 6     -2910.855 6        40.302               
G32  23388136.340 6 122837724.787 6      2623.869 6        41.363               
> 2025 01 07 14 18 02.0000000  0  5                                             
G25  20015595.431 7 105157672.928 7       896.674 7        44.287               
G28  21672471.522 7 113889495.754 7      1723.729 7        42.052               
G29  20984193.183 7 110313244.784 7     -1459.469 7        45.045               
G31  23299215.793 6 122519125.038 6     -2910.337 6        40.814               
G32  23388635.637 6 122835100.711 6      2618.641 6        41.549               
> 2025 01 07 14 18 03.0000000  0  5                                             
G25  20015763.775 7 105156775.866 7       895.424 7        44.242               
G28  21672144.429 7 113887774.650 7      1720.573 7        42.753               
G29  20983912.103 7 110314704.162 7     -1460.589 7        44.735               
G31  23298672.647 6 122522035.323 6     -2913.038 6        40.462               
G32  23389126.945 6 122832476.161 6      2620.190 6        41.170               
> 2025 01 07 14 18 04.0000000  0  5                                             
G25  20015939.803 7 105155878.252 7       900.025 7        44.396               
G28  21671823.350 7 113886054.135 7      1717.524 7        42.224               
G29  20983638.260 7 110316162.920 7     -1459.227 7        44.749               
G31  23298116.482 6 122524945.223 6     -2908.262 6        40.713               
G32  23389639.259 6 122829851.084 6      2624.950 6        41.490               
> 2025 01 07 14 18 05.0000000  0  5                                             
G25  20016110.184 7 105154980.481 7       897.097 7        43.853               
G28  21671497.847 7 113884333.857 7      1719.929 7        42.862               
G29  20983365.141 7 110317621.408 7     -1459.283 7        44.612               
G31  23297566.456 6 122527855.091 6     -2913.654 6        40.276               
G32  23390135.973 6 122827225.871 6      2625.903 6        41.259               
> 2025 01 07 14 18 06.0000000  0  5                                             
G25  20016283.799 7 105154082.621 7       896.097 7        44.758               
G28  21671169.567 7 113882613.728 7      1719.498 7        42.595               
G29  20983086.000 7 110319079.737 7     -1459.345 7        45.307               
G31  23297010.774 6 122530765.036 6     -2908.476 6        40.611               
G32  23390638.674 6 122824600.625 6      2626.156 6        41.646               
> 2025 01 07 14 18 07.0000000  0  5                                             
G25  20016456.084 7 105153183.727 7       898.568 7        44.834               
G28  21670845.896 7 113880894.687 7      1721.288 7        42.872               
G29  20982815.705 7 110320536.935 7     -1456.040 7        44.807               
G31  23296460.783 6 122533674.062 6     -2910.508 6        40.233               
G32  23391133.869 6 122821974.374 6      2623.788 6        41.385               
> 2025 01 07 14 18 08.0000000  0  5                                             
G25  20016627.564 7 105152284.075 7       900.804 7        43.851               
G28  21670519.536 7 113879176.466 7      1716.883 7        42.377               
G29  20982539.128 7 110321993.292 7     -1455.772 7        44.701               
G31  23295902.242 6 122536582.504 6     -2907.246 6        40.148               
G32  23391637.025 6 122819347.392 6      2629.344 6        40.675               
> 2025 01 07 14 18 09.0000000  0  5                                             
G25  20016803.797 7 105151384.128 7       899.558 7        44.053               
G28  21670192.283 7 113877458.607 7      1715.182 7        42.087               
G29  20982263.337 7 110323449.282 7     -1458.045 7        44.867               
G31  23295360.319 6 122539490.779 6     -2910.912 6        40.348               
G32  23392141.387 6 122816720.162 6      2627.915 6        41.370               
> 2025 01 07 14 18 10.0000000  0  5                                             
G25  20016973.856 7 105150483.685 7       901.306 7        44.405               
G28  21669866.316 7 113875741.307 7      1715.638 7        42.820               
G29  20981988.717 7 110324904.676 7     -1454.294 7        44.716               
G31  23294799.134 6 122542398.736 6     -2909.222 6        40.633               
G32  23392638.074 6 122814092.441 6      2629.840 6        40.953               
> 2025 01 07 14 18 11.0000000  0  5                                             
G25  20017149.455 7 105149582.625 7       898.835 7        44.775               
G28  21669543.834 7 113874024.668 7      1718.223 7        42.812               
G29  20981714.517 7 110326359.376 7     -1454.573 7        44.523               
G31  23294252.333 6 122545306.188 6     -2903.970 6        40.511               
G32  23393130.750 6 122811464.138 6      2631.803 6        40.967               
> 2025 01 07 14 18 12.0000000  0  5                                             
G25  20017325.027 7 105148681.110 7       902.595 7        44.604               
G28  21669216.295 7 113872308.572 7      1714.211 7        42.114               
G29  20981438.485 7 110327813.523 7     -1454.077 7        44.174               
G31  23293705.299 6 122548213.324 6     -2907.147 6        40.723               
G32  23393648.666 6 122808835.434 6      2628.968 6        41.431               
> 2025 01 07 14 18 13.0000000  0  5                                             
G25  20017494.247 7 105147779.129 7       905.018 7        44.638               
G28  21668894.161 6 113870593.008 6      1714.939 6        41.733               
G29  20981166.707 7 110329267.115 7     -1452.048 7        45.016               
G31  23293151.253 6 122551120.161 6     -2905.835 6        40.754               
G32  23394149.588 6 122806206.256 6      2626.348 6        40.641               
> 2025 01 07 14 18 14.0000000  0  5                                             
G25  20017666.942 7 105146876.425 7       900.719 7        44.582               
G28  21668569.588 7 113868878.222 7      1713.533 7        42.383               
G29  20980884.001 7 110330719.923 7     -1452.650 7        45.047               
G31  23292599.948 6 122554026.408 6     -2906.739 6        40.527               
G32  23394642.809 6 122803576.425 6      2630.925 6        40.877               
> 2025 01 07 14 18 15.0000000  0  5                                             
G25  20017839.512 7 105145973.115 7       903.087 7        44.384               
G28  21668240.905 7 113867164.104 7      1716.335 7        42.234               
G29  20980615.992 7 110332172.009 7     -1451.218 7        45.148               
G31  23292048.984 6 122556932.188 6     -2904.272 6        41.111               
G32  23395152.800 6 122800946.007 6      2630.005 6        40.678               
> 2025 01 07 14 18 16.0000000  0  5                                             
G25  20018011.484 7 105145069.503 7       906.559 7        44.364               
G28  21667919.102 7 113865450.356 7      1717.500 7        42.058               
G29  20980340.854 7 110333623.704 7     -1450.622 7        44.922               
G31  23291499.243 6 122559837.810 6     -2904.250 6        40.743               
G32  23395647.423 6 122798315.322 6      2628.878 6        40.973               
> 2025 01 07 14 18 17.0000000  0  5                                             
G25  20018190.272 7 105144165.357 7       905.573 7        44.498               
G28  21667593.913 7 113863737.197 7      1714.221 7        42.052               
G29  20980070.781 7 110335074.799 7     -1449.901 7        44.663               
G31  23290945.965 6 122562743.057 6     -2899.147 6        40.465               
G32  23396155.663 6 122795684.133 6      2631.381 6        41.249               
> 2025 01 07 14 18 18.0000000  0  5                                             
G25  20018364.906 7 105143260.873 7       902.981 7        44.655               
G28  21667268.339 6 113862024.456 6      1711.897 6        41.705               
G29  20979793.338 7 110336525.461 7     -1450.409 7        44.150               
G31  23290397.243 6 122565648.083 6     -2904.043 6        40.983               
G32  23396656.853 6 122793052.643 6      2631.112 6        41.239               
> 2025 01 07 14 18 19.0000000  0  5                                             
G25  20018536.860 7 105142355.878 7       905.746 7        44.186               
G28  21666944.981 6 113860312.269 6      1710.259 6        41.173               
G29  20979515.269 7 110337975.537 7     -1451.060 7        44.648               
G31  23289849.397 6 122568552.762 6     -2906.982 6        41.172               
G32  23397160.188 6 122790420.680 6      2630.148 6        41.429               
> 2025 01 07 14 18 20.0000000  0  5                                             
G25  20018711.476 7 105141450.540 7       903.645 7        44.451               
G28  21666622.231 6 113858600.497 6      1710.270 6        41.706               
G29  20979242.168 7 110339425.167 7     -1449.572 7        44.457               
G31  23289289.140 6 122571457.255 6     -2901.877 6        40.643               
G32  23397658.716 6 122787788.417 6      2629.847 6        41.397               
> 2025 01 07 14 18 21.0000000  0  5                                             
G25  20018887.933 7 105140544.854 7       903.992 7        44.607               
G28  21666293.879 7 113856889.138 7      1713.589 7        42.091               
G29  20978968.450 7 110340874.376 7     -1449.952 7        44.530               
G31  23288742.062 6 122574361.515 6     -2908.716 6        40.685               
G32  23398173.612 6 122785155.827 6      2631.135 6        40.881               
> 2025 01 07 14 18 22.0000000  0  5                                             
G25  20019060.181 7 105139638.580 7       906.406 7        44.354               
G28  21665974.273 6 113855178.423 6      1710.106 6        41.919               
G29  20978690.033 7 110342322.916 7     -1448.670 7        44.263               
G31  23288192.840 6 122577265.365 6     -2903.151 6        40.858               
G32  23398670.433 6 122782522.689 6      2636.173 6        41.465               
> 2025 01 07 14 18 23.0000000  0  5                                             
G25  20019236.700 7 105138731.722 7       907.471 7        44.656               
G28  21665649.799 7 113853468.361 7      1711.077 7        42.067               
G29  20978418.245 7 110343770.784 7     -1448.242 7        44.280               
G31  23287641.295 6 122580168.756 6     -2903.414 6        40.555               
G32  23399170.248 6 122779889.007 6      2628.514 6        41.060               
> 2025 01 07 14 18 24.0000000  0  5                                             
G25  20019408.654 7 105137824.223 7       906.170 7        44.568               
G28  21665331.149 6 113851759.002 6      1711.558 6        41.863               
G29  20978143.321 7 110345217.924 7     -1445.861 7        44.156               
G31  23287087.757 6 122583071.666 6     -2903.688 6        40.075               
G32  23399679.139 6 122777254.709 6      2636.872 6        40.888               
> 2025 01 07 14 18 25.0000000  0  5                                             
G25  20019585.244 7 105136916.511 7       908.037 7        44.828               
G28  21665004.468 7 113850049.920 7      1702.852 7        42.016               
G29  20977877.439 7 110346664.780 7     -1445.746 7        44.852               
G31  23286535.836 6 122585974.501 6     -2903.272 6        40.348               
G32  23400185.181 6 122774620.247 6      2636.974 6        41.432               
> 2025 01 07 14 18 26.0000000  0  5                                             
G25  20019762.934 7 105136008.268 7       909.125 7        44.531               
G28  21664681.539 6 113848341.433 6      1709.201 6        41.916               
G29  20977595.028 7 110348111.006 7     -1446.989 7        44.072               
G31  23285991.537 6 122588876.926 6     -2899.216 6        40.591               
G32  23400689.624 6 122771985.281 6      2634.350 6        41.482               
> 2025 01 07 14 18 27.0000000  0  5                                             
G25  20019935.022 7 105135099.420 7       907.784 7        44.542               
G28  21664360.111 6 113846633.625 6      1707.939 6        41.846               
G29  20977328.485 7 110349556.538 7     -1444.387 7        44.723               
G31  23285438.884 6 122591778.892 6     -2903.083 6        40.859               
G32  23401185.989 6 122769349.732 6      2638.103 6        40.856               
> 2025 01 07 14 18 28.0000000  0  5                                             
G25  20020110.701 7 105134190.350 7       910.348 7        44.617               
G28  21664034.100 6 113844926.089 6      1708.255 6        41.807               
G29  20977054.240 7 110351001.771 7     -1444.563 7        44.744               
G31  23284894.585 6 122594680.803 6     -2901.417 6        40.570               
G32  23401690.789 6 122766713.982 6      2639.487 6        41.020               
> 2025 01 07 14 18 29.0000000  0  5                                             
G25  20020282.190 7 105133280.870 7       909.841 7        44.714               
G28  21663709.661 6 113843219.033 6      1708.730 6        41.261               
G29  20976778.754 7 110352446.497 7     -1444.006 7        44.480               
G31  23284337.893 6 122597582.420 6     -2901.004 6        40.324               
G32  23402198.439 6 122764077.870 6      2639.044 6        40.970               
> 2025 01 07 14 18 30.0000000  0  5                                             
G25  20020458.566 7 105132370.831 7       909.521 7        44.508               
G28  21663386.455 6 113841512.616 6      1705.185 6        41.532               
G29  20976509.387 7 110353890.571 7     -1442.381 7        44.488               
G31  23283789.126 6 122600483.628 6     -2903.643 6        40.790               
G32  23402697.074 6 122761441.245 6      2637.234 6        40.717               
> 2025 01 07 14 18 31.0000000  0  5                                             
G25  20020633.834 7 105131460.483 7       912.664 7        44.587               
G28  21663062.775 6 113839806.531 6      1706.276 6        41.311               
G29  20976233.471 7 110355334.277 7     -1445.074 7        44.564               
G31  23283242.013 6 122603384.679 6     -2900.855 6        41.475               
G32  23403203.098 6 122758804.354 6      2640.348 6        40.896               
> 2025 01 07 14 18 32.0000000  0  5                                             
G25  20020807.119 7 105130549.662 7       910.988 7        44.120               
G28  21662738.283 6 113838101.039 6      1703.346 6        41.491               
G29  20975967.277 7 110356777.389 7     -1443.913 7        45.148               
G31  23282687.010 6 122606285.403 6     -2901.703 6        41.299               
G32  23403706.639 6 122756166.999 6      2636.183 6        40.941               
> 2025 01 07 14 18 33.0000000  0  5                                             
G25  20020985.354 7 105129638.205 7       909.935 7        44.404               
G28  21662419.070 6 113836396.220 6      1708.494 6        41.631               
G29  20975688.323 7 110358219.796 7     -1441.056 7        44.997               
G31  23282139.851 6 122609185.624 6     -2903.174 6        40.455               
G32  23404210.357 6 122753529.048 6      2638.967 6        41.462               
> 2025 01 07 14 18 34.0000000  0  5                                             
G25  20021155.574 7 105128726.400 7       911.590 7        44.632               
G28  21662091.219 6 113834691.810 6      1701.159 6        41.393               
G29  20975420.047 7 110359661.764 7     -1442.343 7        44.930               
G31  23281585.438 6 122612085.660 6     -2897.648 6        41.080               
G32  23404716.524 6 122750890.785 6      2641.199 6        40.655               
> 2025 01 07 14 18 35.0000000  0  5                                             
G25  20021335.971 7 105127814.574 7       913.514 7        44.646               
G28  21661774.570 7 113832987.493 7      1703.559 7        42.141               
G29  20975148.750 7 110361103.637 7     -1439.327 7        44.415               
G31  23281043.703 6 122614985.808 6     -2901.896 6        41.181               
G32  23405218.930 6 122748252.552 6      2637.593 6        40.511               
> 2025 01 07 14 18 36.0000000  0  5                                             
G25  20021508.201 7 105126902.017 7       914.727 7        44.694               
G28  21661450.650 7 113831283.972 7      1703.949 7        42.101               
G29  20974873.487 7 110362544.671 7     -1441.053 7        44.911               
G31  23280493.006 6 122617885.364 6     -2901.781 6        41.356               
G32  23405718.092 6 122745613.619 6      2642.548 6        40.454               
> 2025 01 07 14 18 37.0000000  0  5                                             
G25  20021683.809 7 105125989.181 7       912.570 7        44.583               
G28  21661128.864 6 113829580.775 6      1701.860 6        41.259               
G29  20974600.484 7 110363985.343 7     -1439.769 7        45.214               
G31  23279942.498 6 122620784.779 6     -2895.584 6        41.354               
G32  23406221.203 6 122742974.441 6      2640.825 6        40.641               
> 2025 01 07 14 18 38.0000000  0  5                                             
G25  20021857.460 7 105125076.163 7       914.001 7        44.662               
G28  21660801.960 6 113827877.846 6      1702.384 6        41.124               
G29  20974325.989 7 110365425.769 7     -1440.402 7        44.977               
G31  23279383.769 6 122623684.189 6     -2896.815 6        40.415               
G32  23406725.530 6 122740335.104 6      2639.960 6        40.687               
> 2025 01 07 14 18 39.0000000  0  5                                             
G25  20022034.757 7 105124161.700 7       916.432 7        44.552               
G28  21660482.033 6 113826176.420 6      1700.838 6        40.989               
G29  20974059.749 7 110366864.643 7     -1437.715 7        44.853               
G31  23278829.534 6 122626582.268 6     -2895.669 6        41.225               
G32  23407230.651 6 122737694.378 6      2636.759 6        40.718               
> 2025 01 07 14 18 40.0000000  0  5                                             
G25  20022212.732 7 105123246.481 7       915.955 7        44.733               
G28  21660162.570 6 113824475.815 6      1701.644 6        41.271               
G29  20973783.467 7 110368302.677 7     -1438.122 7        45.067               
G31  23278288.460 6 122629479.721 6     -2895.607 6        40.968               
G32  23407733.628 6 122735052.907 6      2641.432 6        40.641               
> 2025 01 07 14 18 41.0000000  0  5                                             
G25  20022387.045 7 105122332.368 7       914.760 7        44.642               
G28  21659835.335 6 113822774.178 6      1704.574 6        41.055               
G29  20973515.405 7 110369741.734 7     -1441.001 7        44.867               
G31  23277730.268 6 122632378.444 6     -2900.948 6        40.960               
G32  23408238.777 6 122732412.609 6      2641.758 6        40.344               
> 2025 01 07 14 18 42.0000000  0  5                                             
G25  20022563.197 7 105121417.555 7       917.194 7        44.687               
G28  21659515.881 6 113821073.291 6      1701.326 6        41.391               
G29  20973243.072 7 110371180.003 7     -1437.811 7        45.252               
G31  23277181.376 6 122635276.614 6     -2897.865 6        40.514               
G32  23408735.098 6 122729771.632 6      2639.463 6        39.853               
> 2025 01 07 14 18 43.0000000  0  5                                             
G25  20022738.189 7 105120502.148 7       917.391 7        44.823               
G28  21659201.369 6 113819373.084 6      1697.296 6        41.511               
G29  20972971.714 7 110372617.589 7     -1438.657 7        44.585               
G31  23276642.295 6 122638174.324 6     -2901.344 6        40.713               
G32  23409247.081 6 122727130.078 6      2639.363 6        40.347               
> 2025 01 07 14 18 44.0000000  0  5                                             
G25  20022914.619 7 105119585.789 7       918.384 7        45.216               
G28  21658873.597 6 113817673.879 6      1699.926 6        41.539               
G29  20972695.271 7 110374054.145 7     -1435.268 7        44.747               
G31  23276096.512 6 122641071.234 6     -2899.835 6        41.214               
G32  23409756.670 6 122724487.658 6      2646.212 6        39.862               
> 2025 01 07 14 18 45.0000000  0  5                                             
G25  20023093.050 7 105118669.100 7       915.579 7        44.693               
G28  21658551.195 6 113815975.078 6      1703.333 6        41.048               
G29  20972425.842 7 110375490.270 7     -1435.983 7        44.698               
G31  23275533.647 6 122643967.944 6     -2894.534 6        40.703               
G32  23410254.813 6 122721844.894 6      2640.734 6        40.050               
> 2025 01 07 14 18 46.0000000  0  5                                             
G25  20023273.804 7 105117751.905 7       917.556 7        44.571               
G28  21658233.913 6 113814276.844 6      1696.077 6        41.516               
G29  20972152.606 7 110376925.825 7     -1436.645 7        44.875               
G31  23274987.328 6 122646864.342 6     -2896.842 6        40.960               
G32  23410760.364 6 122719201.681 6      2644.050 6        39.450               
> 2025 01 07 14 18 47.0000000  0  5                                             
G25  20023449.983 7 105116834.195 7       917.537 7        44.841               
G28  21657918.257 6 113812579.194 6      1700.723 6        41.851               
G29  20971878.746 7 110378360.757 7     -1435.183 7        45.039               
G31  23274440.661 6 122649760.334 6     -2896.585 6        41.483               
G32  23411267.049 6 122716557.970 6      2641.457 6        40.673               
> 2025 01 07 14 18 48.0000000  0  5                                             
G25  20023625.341 7 105115916.994 7       916.963 7        44.768               
G28  21657593.174 7 113810881.100 7      1692.723 7        42.024               
G29  20971607.280 7 110379796.117 7     -1436.643 7        44.823               
G31  23273893.431 6 122652656.998 6     -2898.632 6        41.771               
G32  23411768.793 6 122713914.833 6      2643.943 6        40.445               
> 2025 01 07 14 18 49.0000000  0  5                                             
G25  20023797.214 7 105114998.399 7       921.999 7        44.492               
G28  21657268.253 7 113809184.462 7      1697.397 7        42.087               
G29  20971340.558 7 110381229.994 7     -1434.278 7        44.659               
G31  23273347.667 6 122655552.400 6     -2895.473 6        41.839               
G32  23412274.022 6 122711270.313 6      2647.629 6        40.852               
> 2025 01 07 14 18 50.0000000  0  5                                             
G25  20023972.929 7 105114079.350 7       917.390 7        44.919               
G28  21656948.541 7 113807488.359 7      1694.361 7        42.216               
G29  20971063.883 7 110382663.339 7     -1433.439 7        44.390               
G31  23272794.120 6 122658447.477 6     -2893.228 6        41.018               
G32  23412791.589 6 122708625.392 6      2641.685 6        40.578               
> 2025 01 07 14 18 51.0000000  0  5                                             
G25  20024154.184 7 105113160.663 7       919.149 7        44.765               
G28  21656626.979 7 113805791.941 7      1694.779 7        42.389               
G29  20970800.368 7 110384096.941 7     -1432.990 7        45.149               
G31  23272240.162 6 122661343.082 6     -2896.880 6        40.823               
G32  23413285.471 6 122705980.862 6      2645.167 6        40.348               
> 2025 01 07 14 18 52.0000000  0  5                                             
G25  20024331.525 7 105112240.740 7       919.375 7        44.788               
G28  21656307.713 6 113804096.853 6      1692.794 6        41.990               
G29  20970526.668 7 110385529.222 7     -1431.981 7        44.956               
G31  23271700.563 6 122664237.553 6     -2892.435 6        41.416               
G32  23413797.365 6 122703335.124 6      2643.624 6        40.706               
> 2025 01 07 14 18 53.0000000  0  5                                             
G25  20024505.239 7 105111320.147 7       920.844 7        44.982               
G28  21655991.091 7 113802402.482 7      1693.747 7        42.384               
G29  20970253.210 7 110386960.745 7     -1430.051 7        44.971               
G31  23271146.534 6 122667131.500 6     -2893.264 6        41.055               
G32  23414290.836 6 122700688.756 6      2645.892 6        39.750               
> 2025 01 07 14 18 54.0000000  0  5                                             
G25  20024682.946 7 105110398.811 7       924.582 7        44.328               
G28  21655667.385 6 113800708.921 6      1694.664 6        41.755               
G29  20969986.354 7 110388391.437 7     -1428.932 7        44.587               
G31  23270599.884 6 122670024.848 6     -2893.379 6        41.320               
G32  23414808.564 6 122698041.707 6      2645.241 6        40.472               
> 2025 01 07 14 18 55.0000000  0  5                                             
G25  20024858.447 7 105109476.555 7       921.088 7        44.484               
G28  21655349.647 7 113799016.363 7      1693.970 7        42.439               
G29  20969720.391 7 110389821.119 7     -1429.495 7        44.907               
G31  23270042.925 6 122672917.432 6     -2891.093 6        40.667               
G32  23415311.407 6 122695393.748 6      2645.849 6        40.620               
> 2025 01 07 14 18 56.0000000  0  5                                             
G25  20025038.826 7 105108554.527 7       922.655 7        44.739               
G28  21655031.194 7 113797323.615 7      1694.974 7        42.476               
G29  20969447.353 7 110391250.955 7     -1430.307 7        44.568               
G31  23269497.732 6 122675810.382 6     -2890.951 6        40.608               
G32  23415821.640 6 122692746.049 6      2649.567 6        40.511               
> 2025 01 07 14 18 57.0000000  0  5                                             
G25  20025211.941 7 105107632.169 7       924.349 7        44.348               
G28  21654709.811 7 113795631.289 7      1691.412 7        42.716               
G29  20969177.807 7 110392680.381 7     -1431.466 7        44.436               
G31  23268948.796 6 122678703.150 6     -2893.211 6        41.567               
G32  23416322.285 6 122690098.086 6      2647.019 6        40.297               
> 2025 01 07 14 18 58.0000000  0  5                                             
G25  20025390.193 7 105106709.478 7       921.606 7        44.693               
G28  21654386.721 7 113793939.351 7      1691.464 7        42.211               
G29  20968907.556 7 110394109.346 7     -1429.045 7        44.820               
G31  23268401.003 6 122681595.719 6     -2893.114 6        40.706               
G32  23416823.654 6 122687449.803 6      2651.682 6        40.019               
> 2025 01 07 14 18 59.0000000  0  5                                             
G25  20025569.178 7 105105786.152 7       920.245 7        44.706               
G28  21654069.376 7 113792248.114 7      1691.175 7        42.299               
G29  20968638.350 7 110395537.633 7     -1427.127 7        44.967               
G31  23267857.463 6 122684487.777 6     -2891.038 6        40.845               
G32  23417331.170 6 122684800.942 6      2648.350 6        40.316               
> 2025 01 07 14 19 00.0000000  0  5                                             
G25  20025749.673 7 105104862.440 7       923.883 7        44.231               
G28  21653749.574 7 113790557.336 7      1690.815 7        42.332               
G29  20968368.528 7 110396965.417 7     -1426.281 7        44.622               
G31  23267304.658 6 122687379.609 6     -2891.411 6        41.116               
G32  23417831.404 6 122682151.712 6      2650.702 6        40.802               
> 2025 01 07 14 19 01.0000000  0  5                                             
G25  20025922.869 7 105103938.250 7       925.493 7        44.472               
G28  21653426.449 7 113788867.086 7      1692.272 7        42.696               
G29  20968092.613 7 110398392.673 7     -1427.047 7        44.835               
G31  23266758.804 6 122690271.101 6     -2889.493 6        40.795               
G32  23418347.846 6 122679502.072 6      2649.690 6        40.341               
> 2025 01 07 14 19 02.0000000  0  5                                             
G25  20026101.327 7 105103014.557 7       923.635 7        45.120               
G28  21653110.944 7 113787176.448 7      1689.302 7        42.598               
G29  20967823.416 7 110399820.292 7     -1425.809 7        44.741               
G31  23266206.749 6 122693163.222 6     -2894.776 6        40.772               
G32  23418851.225 6 122676852.912 6      2653.733 6        40.072               
> 2025 01 07 14 19 03.0000000  0  5                                             
G25  20026282.545 7 105102090.620 7       922.590 7        44.580               
G28  21652788.489 7 113785486.093 7      1690.761 7        42.792               
G29  20967556.962 7 110401247.609 7     -1426.156 7        44.732               
G31  23265662.325 6 122696055.240 6     -2890.727 6        40.870               
G32  23419358.830 6 122674203.614 6      2646.032 6        40.672               
> 2025 01 07 14 19 04.0000000  0  5                                             
G25  20026460.137 7 105101165.779 7       921.992 7        44.691               
G28  21652466.864 6 113783796.718 6      1692.370 6        41.989               
G29  20967285.236 7 110402673.915 7     -1427.142 7        45.051               
G31  23265113.076 6 122698946.487 6     -2893.857 6        41.217               
G32  23419864.354 6 122671553.397 6      2657.795 6        40.468               
> 2025 01 07 14 19 05.0000000  0  5                                             
G25  20026635.503 7 105100239.872 7       924.320 7        45.136               
G28  21652144.436 7 113782108.459 7      1688.477 7        42.217               
G29  20967017.273 7 110404099.080 7     -1424.773 7        45.071               
G31  23264569.813 6 122701836.797 6     -2890.425 6        41.048               
G32  23420366.089 6 122668902.154 6      2647.578 6        40.556               
> 2025 01 07 14 19 06.0000000  0  5                                             
G25  20026812.728 7 105099313.583 7       925.140 7        44.309               
G28  21651829.807 7 113780420.668 7      1688.005 7        42.006               
G29  20966747.835 7 110405523.769 7     -1424.728 7        44.459               
G31  23264019.090 6 122704726.890 6     -2891.919 6        41.151               
G32  23420883.934 6 122666250.583 6      2655.288 6        40.541               
> 2025 01 07 14 19 07.0000000  0  5                                             
G25  20026993.018 7 105098386.630 7       925.725 7        44.553               
G28  21651507.709 7 113778733.606 7      1688.652 7        42.227               
G29  20966478.468 7 110406947.711 7     -1424.560 7        44.423               
G31  23263468.786 6 122707616.450 6     -2890.597 6        40.615               
G32  23421377.708 6 122663598.400 6      2650.599 6        40.805               
> 2025 01 07 14 19 08.0000000  0  5                                             
G25  20027169.671 7 105097458.979 7       930.177 7        44.593               
G28  21651188.952 7 113777047.298 7      1687.583 7        42.402               
G29  20966207.547 7 110408370.880 7     -1422.350 7        44.524               
G31  23262921.217 6 122710505.454 6     -2890.006 6        41.034               
G32  23421894.775 6 122660945.522 6      2659.272 6        40.586               
> 2025 01 07 14 19 09.0000000  0  5                                             
G25  20027349.246 7 105096530.797 7       926.575 7        44.821               
G28  21650876.110 7 113775361.608 7      1685.043 7        42.378               
G29  20965944.640 7 110409793.404 7     -1422.372 7        44.547               
G31  23262379.151 6 122713394.058 6     -2890.127 6        40.568               
G32  23422399.790 6 122658292.184 6      2651.402 6        40.440               
> 2025 01 07 14 19 10.0000000  0  5                                             
G25  20027524.898 7 105095602.326 7       930.292 7        44.705               
G28  21650553.798 7 113773676.247 7      1685.901 7        42.135               
G29  20965674.952 7 110411215.568 7     -1420.303 7        44.602               
G31  23261828.955 6 122716282.509 6     -2889.783 6        41.071               
G32  23422909.405 6 122655638.586 6      2652.819 6        41.198               
> 2025 01 07 14 19 11.0000000  0  5                                             
G25  20027707.511 7 105094673.590 7       928.087 7        44.865               
G28  21650235.363 7 113771991.266 7      1683.439 7        42.448               
G29  20965405.755 7 110412637.371 7     -1420.305 7        44.506               
G31  23261281.171 6 122719170.821 6     -2888.888 6        40.751               
G32  23423412.338 6 122652984.747 6      2655.462 6        40.641               
> 2025 01 07 14 19 12.0000000  0  5                                             
G25  20027890.266 7 105093745.125 7       927.972 7        44.819               
G28  21649910.361 7 113770306.043 7      1686.997 7        42.116               
G29  20965133.565 7 110414059.364 7     -1420.487 7        44.818               
G31  23260721.960 6 122722059.555 6     -2884.166 6        40.380               
G32  23423921.114 6 122650331.235 6      2654.975 6        40.814               
> 2025 01 07 14 19 13.0000000  0  5                                             
G25  20028062.836 7 105092815.316 7       931.109 7        45.030               
G28  21649592.453 7 113768622.245 7      1683.231 7        42.619               
G29  20964866.012 7 110415479.925 7     -1418.938 7        45.018               
G31  23260181.762 6 122724947.083 6     -2887.388 6        40.988               
G32  23424423.823 6 122647676.408 6      2654.202 6        40.020               
> 2025 01 07 14 19 14.0000000  0  5                                             
G25  20028241.115 7 105091886.018 7       928.837 7        44.715               
G28  21649277.396 7 113766938.009 7      1684.290 7        42.131               
G29  20964600.166 7 110416900.920 7     -1421.165 7        44.918               
G31  23259638.740 6 122727835.263 6     -2893.709 6        40.803               
G32  23424934.966 6 122645022.134 6      2655.568 6        40.547               
> 2025 01 07 14 19 15.0000000  0  5                                             
G25  20028423.522 7 105090955.817 7       931.157 7        44.975               
G28  21648951.483 7 113765254.728 7      1684.567 7        42.340               
G29  20964329.441 7 110418320.912 7     -1420.458 7        44.591               
G31  23259087.346 6 122730722.668 6     -2885.804 6        41.145               
G32  23425438.855 6 122642367.010 6      2655.805 6        40.359               
> 2025 01 07 14 19 16.0000000  0  5                                             
G25  20028595.136 7 105090025.076 7       932.773 7        44.679               
G28  21648641.661 7 113763572.082 7      1681.151 7        42.136               
G29  20964063.693 7 110419740.285 7     -1418.414 7        44.881               
G31  23258548.202 6 122733609.671 6     -2887.220 6        41.725               
G32  23425941.359 6 122639711.382 6      2653.074 6        40.442               
> 2025 01 07 14 19 17.0000000  0  5                                             
G25  20028780.715 7 105089094.090 7       932.667 7        45.002               
G28  21648315.569 7 113761889.723 7      1681.681 7        42.241               
G29  20963796.748 7 110421159.318 7     -1417.063 7        45.181               
G31  23257990.045 6 122736496.577 6     -2885.843 6        41.875               
G32  23426450.787 6 122637055.544 6      2655.547 6        40.062               
> 2025 01 07 14 19 18.0000000  0  5                                             
G25  20028959.932 7 105088162.591 7       932.985 7        45.039               
G28  21647999.904 7 113760207.954 7      1682.517 7        42.034               
G29  20963527.935 7 110422577.752 7     -1419.144 7        45.255               
G31  23257449.168 6 122739383.109 6     -2884.741 6        41.486               
G32  23426959.723 6 122634399.219 6      2652.593 6        40.379               
> 2025 01 07 14 19 19.0000000  0  5                                             
G25  20029135.433 7 105087229.866 7       934.840 7        45.291               
G28  21647686.365 7 113758527.465 7      1679.575 7        42.515               
G29  20963260.034 7 110423994.898 7     -1414.163 7        44.673               
G31  23256898.820 6 122742268.548 6     -2885.880 6        41.191               
G32  23427465.050 6 122631741.728 6      2656.514 6        40.308               
> 2025 01 07 14 19 20.0000000  0  5                                             
G25  20029313.525 7 105086296.635 7       932.475 7        45.203               
G28  21647364.892 7 113756847.584 7      1682.334 7        42.049               
G29  20962991.176 7 110425411.402 7     -1416.497 7        45.195               
G31  23256356.102 6 122745153.618 6     -2887.794 6        41.218               
G32  23427977.409 6 122629083.763 6      2661.037 6        40.249               
> 2025 01 07 14 19 21.0000000  0  5                                             
G25  20029497.602 7 105085363.067 7       935.252 7        45.153               
G28  21647043.911 6 113755168.104 6      1678.495 6        41.592               
G29  20962724.419 7 110426827.481 7     -1414.683 7        45.018               
G31  23255807.237 6 122748038.484 6     -2888.560 6        41.624               
G32  23428483.093 6 122626425.499 6      2656.490 6        40.508               
> 2025 01 07 14 19 22.0000000  0  5                                             
G25  20029677.436 7 105084429.260 7       933.038 7        45.285               
G28  21646728.710 6 113753488.920 6      1680.138 6        41.656               
G29  20962453.551 7 110428243.249 7     -1415.663 7        45.045               
G31  23255259.560 6 122750923.264 6     -2886.036 6        41.468               
G32  23428987.482 6 122623767.018 6      2663.040 6        40.016               
> 2025 01 07 14 19 23.0000000  0  5                                             
G25  20029852.195 7 105083495.756 7       933.876 7        44.918               
G28  21646412.187 6 113751809.515 6      1683.143 6        41.984               
G29  20962188.687 7 110429659.230 7     -1414.336 7        44.794               
G31  23254715.413 6 122753808.462 6     -2881.647 6        40.919               
G32  23429496.964 6 122621108.877 6      2656.469 6        39.599               
> 2025 01 07 14 19 24.0000000  0  5                                             
G25  20030040.160 7 105082561.441 7       935.034 7        44.945               
G28  21646095.164 6 113750130.973 6      1681.099 6        41.826               
G29  20961924.646 7 110431074.323 7     -1413.390 7        44.968               
G31  23254165.726 6 122756693.008 6     -2886.217 6        40.710               
G32  23430011.315 6 122618449.990 6      2658.947 6        39.807               
> 2025 01 07 14 19 25.0000000  0  5                                             
G25  20030214.954 7 105081627.109 7       934.103 7        45.068               
G28  21645779.838 7 113748452.523 7      1677.270 7        42.140               
G29  20961651.393 7 110432489.302 7     -1413.772 7        44.874               
G31  23253617.880 6 122759577.642 6     -2884.193 6        41.015               
G32  23430520.859 6 122615791.117 6      2656.347 6        40.612               
> 2025 01 07 14 19 26.0000000  0  5                                             
G25  20030396.781 7 105080691.589 7       936.326 7        44.830               
G28  21645461.573 7 113746775.339 7      1677.355 7        42.300               
G29  20961386.243 7 110433903.006 7     -1415.775 7        44.937               
G31  23253066.397 6 122762461.258 6     -2883.833 6        40.957               
G32  23431028.258 6 122613131.098 6      2659.178 6        40.271               
> 2025 01 07 14 19 27.0000000  0  5                                             
G25  20030578.321 7 105079756.648 7       935.961 7        44.946               
G28  21645144.309 7 113745097.623 7      1675.705 7        42.747               
G29  20961120.986 7 110435317.201 7     -1413.234 7        45.209               
G31  23252527.798 6 122765345.574 6     -2884.320 6        41.453               
G32  23431531.066 6 122610471.737 6      2657.926 6        40.865               
> 2025 01 07 14 19 28.0000000  0  5                                             
G25  20030754.849 7 105078820.875 7       936.115 7        45.462               
G28  21644831.770 7 113743420.842 7      1676.702 7        43.008               
G29  20960848.939 7 110436730.462 7     -1410.280 7        44.863               
G31  23251973.143 6 122768229.207 6     -2884.492 6        40.941               
G32  23432037.867 6 122607811.514 6      2660.760 6        40.307               
> 2025 01 07 14 19 29.0000000  0  5                                             
G25  20030932.521 7 105077884.274 7       936.631 7        45.599               
G28  21644511.611 7 113741744.942 7      1674.798 7        43.104               
G29  20960585.979 7 110438142.819 7     -1413.216 7        44.883               
G31  23251422.876 6 122771112.151 6     -2885.939 6        41.112               
G32  23432540.103 6 122605150.531 6      2661.223 6        40.410               
> 2025 01 07 14 19 30.0000000  0  5                                             
G25  20031117.930 7 105076947.366 7       936.687 7        45.586               
G28  21644189.504 7 113740069.418 7      1673.282 7        42.606               
G29  20960318.462 7 110439554.770 7     -1410.897 7        44.985               
G31  23250875.664 6 122773994.913 6     -2884.140 6        41.465               
G32  23433050.371 6 122602489.288 6      2665.267 6        40.192               
> 2025 01 07 14 19 31.0000000  0  5                                             
G25  20031298.094 7 105076009.292 7       940.543 7        45.505               
G28  21643874.956 7 113738395.119 7      1671.475 7        42.610               
G29  20960052.794 7 110440965.497 7     -1410.279 7        44.870               
G31  23250331.570 6 122776876.661 6     -2880.509 6        40.658               
G32  23433564.427 6 122599826.914 6      2663.722 6        40.395               
> 2025 01 07 14 19 32.0000000  0  5                                             
G25  20031474.086 7 105075070.662 7       939.181 7        44.946               
G28  21643564.517 7 113736721.466 7      1674.903 7        42.682               
G29  20959787.770 7 110442375.559 7     -1411.559 7        44.300               
G31  23249791.014 6 122779757.982 6     -2886.298 6        41.211               
G32  23434072.282 6 122597164.036 6      2662.829 6        40.222               
> 2025 01 07 14 19 33.0000000  0  5                                             
G25  20031655.028 7 105074132.401 7       938.915 7        45.245               
G28  21643241.222 6 113735047.487 6      1672.794 6        41.777               
G29  20959521.655 7 110443785.899 7     -1411.112 7        44.962               
G31  23249241.113 6 122782639.831 6     -2878.632 6        41.004               
G32  23434584.945 6 122594501.555 6      2660.698 6        39.980               
> 2025 01 07 14 19 34.0000000  0  5                                             
G25  20031835.505 7 105073193.661 7       937.472 7        45.111               
G28  21642923.538 6 113733374.095 6      1674.972 6        41.910               
G29  20959252.619 7 110445195.666 7     -1409.709 7        44.889               
G31  23248698.198 6 122785521.302 6     -2881.729 6        40.801               
G32  23435087.171 6 122591838.634 6      2665.550 6        40.088               
> 2025 01 07 14 19 35.0000000  0  5                                             
G25  20032013.972 7 105072254.717 7       942.019 7        45.263               
G28  21642609.329 7 113731700.951 7      1672.900 7        42.467               
G29  20958984.798 7 110446605.152 7     -1409.878 7        44.687               
G31  23248156.963 6 122788402.729 6     -2881.015 6        41.642               
G32  23435594.964 6 122589175.551 6      2663.701 6        39.878               
> 2025 01 07 14 19 36.0000000  0  5                                             
G25  20032195.182 7 105071315.312 7       938.611 7        45.905               
G28  21642300.025 7 113730028.355 7      1672.497 7        42.562               
G29  20958716.638 7 110448014.078 7     -1406.352 7        44.868               
G31  23247603.899 6 122791283.825 6     -2880.561 6        41.639               
G32  23436106.974 6 122586512.055 6      2661.936 6        40.786               
> 2025 01 07 14 19 37.0000000  0  5                                             
G25  20032375.730 7 105070374.746 7       940.093 7        45.286               
G28  21641975.684 7 113728356.993 7      1672.201 7        42.350               
G29  20958452.239 7 110449421.749 7     -1408.983 7        44.932               
G31  23247053.900 6 122794163.890 6     -2877.538 6        41.668               
G32  23436620.771 6 122583847.418 6      2662.924 6        41.171               
> 2025 01 07 14 19 38.0000000  0  5                                             
G25  20032560.398 7 105069433.759 7       941.096 7        45.245               
G28  21641653.014 7 113726686.090 7      1673.427 7        42.637               
G29  20958184.525 7 110450828.924 7     -1409.379 7        44.649               
G31  23246510.494 6 122797043.686 6     -2872.108 6        41.125               
G32  23437122.248 6 122581182.434 6      2662.688 6        40.987               
> 2025 01 07 14 19 39.0000000  0  5                                             
G25  20032739.338 7 105068492.503 7       943.153 7        45.642               
G28  21641340.306 7 113725015.559 7      1669.684 7        42.715               
G29  20957919.260 7 110452235.727 7     -1406.969 7        45.022               
G31  23245964.282 6 122799923.339 6     -2875.439 6        40.625               
G32  23437628.513 6 122578517.203 6      2667.985 6        40.683               
> 2025 01 07 14 19 40.0000000  0  5                                             
G25  20032918.734 7 105067550.541 7       941.909 7        45.160               
G28  21641023.649 7 113723345.802 7      1669.155 7        42.379               
G29  20957654.244 7 110453641.736 7     -1404.942 7        44.768               
G31  23245416.954 6 122802802.413 6     -2876.451 6        40.664               
G32  23438140.130 6 122575851.295 6      2665.095 6        40.901               
> 2025 01 07 14 19 41.0000000  0  5                                             
G25  20033100.703 7 105066607.429 7       944.394 7        45.507               
G28  21640713.327 7 113721677.266 7      1668.855 7        42.650               
G29  20957386.414 7 110455046.511 7     -1402.058 7        44.448               
G31  23244880.910 6 122805680.497 6     -2878.127 6        40.817               
G32  23438649.111 6 122573184.278 6      2666.993 6        40.637               
> 2025 01 07 14 19 42.0000000  0  5                                             
G25  20033282.110 7 105065664.075 7       943.702 7        45.380               
G28  21640396.080 7 113720009.013 7      1667.404 7        42.512               
G29  20957123.525 7 110456450.971 7     -1403.863 7        44.204               
G31  23244328.355 6 122808558.470 6     -2874.856 6        40.955               
G32  23439162.818 6 122570517.110 6      2667.517 6        40.389               
> 2025 01 07 14 19 43.0000000  0  5                                             
G25  20033466.107 7 105064720.432 7       943.586 7        45.643               
G28  21640081.425 7 113718341.163 7      1668.564 7        42.909               
G29  20956857.527 7 110457855.026 7     -1404.279 7        44.003               
G31  23243781.340 6 122811436.264 6     -2877.606 6        40.565               
G32  23439665.724 6 122567849.653 6      2665.859 6        40.724               
> 2025 01 07 14 19 44.0000000  0  5                                             
G25  20033645.012 7 105063776.669 7       942.579 7        45.587               
G28  21639761.283 7 113716673.465 7      1669.084 7        42.628               
G29  20956591.868 7 110459258.904 7     -1404.080 7        43.775               
G31  23243239.828 6 122814314.097 6     -2874.586 6        40.942               
G32  23440179.816 6 122565182.138 6      2666.065 6        40.490               
> 2025 01 07 14 19 45.0000000  0  5                                             
G25  20033826.373 7 105062832.798 7       943.472 7        45.042               
G28  21639448.870 7 113715005.977 7      1662.398 7        42.672               
G29  20956325.468 7 110460662.557 7     -1404.002 7        44.445               
G31  23242688.980 6 122817191.943 6     -2878.490 6        40.983               
G32  23440687.511 6 122562514.542 6      2670.707 6        40.448               
> 2025 01 07 14 19 46.0000000  0  5                                             
G25  20034010.022 7 105061888.759 7       944.375 7        45.270               
G28  21639133.277 7 113713338.701 7      1669.583 7        43.065               
G29  20956059.568 7 110462065.968 7     -1403.302 7        44.774               
G31  23242143.019 6 122820069.773 6     -2878.880 6        40.193               
G32  23441200.048 6 122559846.840 6      2667.212 6        41.077               
> 2025 01 07 14 19 47.0000000  0  5                                             
G25  20034189.311 7 105060943.667 7       945.083 7        45.473               
G28  21638819.389 7 113711672.574 7      1665.264 7        42.688               
G29  20955795.776 7 110463468.238 7     -1406.750 7        44.310               
G31  23241592.858 6 122822946.677 6     -2880.164 6        40.014               
G32  23441710.030 6 122557178.094 6      2668.454 6        41.047               
> 2025 01 07 14 19 48.0000000  0  6                                             
G25  20034372.057 7 105059998.230 7       944.333 7        45.688               
G28  21638502.661 7 113710006.846 7      1667.099 7        42.648               
G29  20955532.735 7 110464870.052 7     -1402.887 7        44.521               
G31  23241049.417 6 122825823.384 6     -2876.820 6        40.964               
G32  23442220.896 6 122554509.070 6      2663.945 6        41.078               
G12  22371748.092 7 117563140.227 7      2941.001 7        44.349               
> 2025 01 07 14 19 49.0000000  0  6                                             
G25  20034554.661 7 105059052.295 7       947.449 7        45.373               
G28  21638189.738 7 113708341.708 7      1664.054 7        42.287               
G29  20955266.505 7 110466271.299 7     -1400.243 7        44.287               
G31  23240507.011 6 122828699.711 6     -2873.964 6        40.895               
G32  23442729.324 6 122551839.572 6      2674.107 6        40.728               
G12  22372311.368 7 117560200.746 7      2941.097 7        44.116               
> 2025 01 07 14 19 50.0000000  0  6                                             
G25  20034737.720 7 105058105.543 7       947.505 7        45.281               
G28  21637866.470 7 113706677.447 7      1665.028 7        42.245               
G29  20955001.847 7 110467671.632 7     -1400.192 7        44.481               
G31  23239961.926 6 122831575.360 6     -2874.480 6        40.074               
G32  23443240.279 6 122549169.297 6      2668.384 6        40.879               
G12  22372871.240 7 117557260.631 7      2938.272 7        44.234               
> 2025 01 07 14 19 51.0000000  0  6                                             
G25  20034919.895 7 105057158.430 7       947.261 7        44.923               
G28  21637561.616 6 113705013.626 6      1662.343 6        41.877               
G29  20954736.545 7 110469071.493 7     -1395.978 7        44.418               
G31  23239409.407 6 122834450.783 6     -2880.441 6        39.922               
G32  23443750.377 6 122546498.718 6      2673.795 6        40.901               
G12  22373432.801 7 117554320.355 7      2937.166 7        44.011               
> 2025 01 07 14 19 52.0000000  0  6                                             
G25  20035103.722 7 105056210.919 7       948.276 7        45.605               
G28  21637238.454 6 113703350.255 6      1664.274 6        41.869               
G29  20954474.434 7 110470470.891 7     -1399.505 7        44.535               
G31  23238870.262 6 122837325.965 6     -2875.546 6        40.494               
G32  23444258.385 6 122543827.783 6      2673.749 6        40.435               
G12  22373992.906 7 117551379.923 7      2942.149 7        44.085               
> 2025 01 07 14 19 53.0000000  0  6                                             
G25  20035280.304 7 105055262.703 7       947.562 7        46.003               
G28  21636925.728 7 113701687.681 7      1665.513 7        42.159               
G29  20954207.095 7 110471869.484 7     -1398.006 7        44.801               
G31  23238322.461 6 122840200.555 6     -2878.024 6        40.589               
G32  23444766.169 6 122541156.198 6      2670.729 6        40.229               
G12  22374558.800 7 117548438.958 7      2942.438 7        44.248               
> 2025 01 07 14 19 54.0000000  0  6                                             
G25  20035461.585 7 105054314.189 7       948.794 7        45.412               
G28  21636616.979 6 113700025.464 6      1665.145 6        41.448               
G29  20953943.098 7 110473267.689 7     -1399.475 7        44.140               
G31  23237778.474 6 122843074.970 6     -2876.401 6        40.524               
G32  23445273.631 6 122538484.333 6      2673.954 6        39.645               
G12  22375113.642 7 117545497.912 7      2940.011 7        44.296               
> 2025 01 07 14 19 55.0000000  0  6                                             
G25  20035644.591 7 105053364.989 7       950.398 7        45.728               
G28  21636300.795 6 113698364.001 6      1662.642 6        41.689               
G29  20953683.738 7 110474665.134 7     -1397.199 7        44.304               
G31  23237229.162 6 122845948.849 6     -2869.433 6        40.251               
G32  23445785.722 6 122535811.847 6      2671.098 6        40.180               
G12  22375682.190 7 117542556.405 7      2942.267 7        44.554               
> 2025 01 07 14 19 56.0000000  0  6                                             
G25  20035828.204 7 105052415.537 7       951.873 7        45.066               
G28  21635983.289 7 113696702.874 7      1659.810 7        42.275               
G29  20953417.400 7 110476062.229 7     -1395.113 7        44.062               
G31  23236686.695 6 122848822.619 6     -2875.896 6        40.616               
G32  23446298.214 6 122533139.165 6      2671.312 6        40.693               
G12  22376245.332 7 117539614.849 7      2941.340 7        44.056               
> 2025 01 07 14 19 57.0000000  0  6                                             
G25  20036011.201 7 105051465.796 7       949.260 7        45.606               
G28  21635668.848 6 113695042.116 6      1660.747 6        41.502               
G29  20953155.414 7 110477458.936 7     -1396.824 7        44.412               
G31  23236143.700 6 122851696.212 6     -2877.107 6        40.704               
G32  23446810.573 6 122530466.173 6      2673.354 6        40.546               
G12  22376801.630 7 117536673.190 7      2942.360 7        44.056               
> 2025 01 07 14 19 58.0000000  0  6                                             
G25  20036193.965 7 105050515.700 7       951.041 7        45.669               
G28  21635358.240 6 113693381.774 6      1657.753 6        41.975               
G29  20952890.095 7 110478855.214 7     -1396.891 7        43.999               
G31  23235597.006 6 122854569.590 6     -2874.159 6        40.864               
G32  23447322.288 6 122527792.916 6      2674.106 6        40.842               
G12  22377360.627 7 117533731.408 7      2943.383 7        43.882               
> 2025 01 07 14 19 59.0000000  0  6                                             
G25  20036378.427 7 105049565.274 7       949.378 7        44.535               
G28  21635043.155 7 113691721.845 7      1656.029 7        42.223               
G29  20952628.322 7 110480251.061 7     -1397.125 7        43.604               
G31  23235047.140 6 122857442.789 6     -2871.337 6        40.125               
G32  23447828.875 6 122525119.370 6      2672.341 6        40.761               
G12  22377920.651 7 117530789.497 7      2942.260 7        43.984               
> 2025 01 07 14 20 00.0000000  0  6                                             
G25  20036556.849 7 105048614.029 7       952.290 7        45.305               
G28  21634723.970 7 113690062.795 7      1656.286 7        42.441               
G29  20952363.110 7 110481645.992 7     -1392.997 7        44.141               
G31  23234506.477 6 122860315.288 6     -2870.784 6        40.781               
G32  23448339.026 6 122522445.049 6      2672.291 6        40.774               
G12  22378485.107 7 117527846.964 7      2942.530 7        44.613               
> 2025 01 07 14 20 01.0000000  0  6                                             
G25  20036742.634 7 105047662.268 7       950.187 7        45.460               
G28  21634415.854 7 113688404.337 7      1659.581 7        42.042               
G29  20952093.833 7 110483040.323 7     -1394.793 7        44.233               
G31  23233968.378 6 122863187.422 6     -2871.754 6        40.663               
G32  23448858.488 6 122519770.253 6      2671.552 6        40.503               
G12  22379046.605 7 117524904.136 7      2941.907 7        44.007               
> 2025 01 07 14 20 02.0000000  0  6                                             
G25  20036926.399 7 105046710.136 7       952.906 7        44.609               
G28  21634100.877 7 113686746.321 7      1657.307 7        42.030               
G29  20951830.694 7 110484434.201 7     -1394.889 7        43.641               
G31  23233422.757 6 122866059.300 6     -2872.700 6        40.455               
G32  23449361.724 6 122517095.128 6      2669.693 6        40.515               
G12  22379612.294 7 117521961.150 7      2943.069 7        43.567               
> 2025 01 07 14 20 03.0000000  0  6                                             
G25  20037107.590 7 105045757.358 7       953.513 7        45.140               
G28  21633785.730 7 113685089.030 7      1656.963 7        42.425               
G29  20951568.251 7 110485827.336 7     -1391.297 7        44.443               
G31  23232871.587 6 122868930.688 6     -2872.548 6        41.041               
G32  23449876.540 6 122514419.403 6      2679.829 6        40.678               
G12  22380166.841 7 117519017.705 7      2943.697 7        43.700               
> 2025 01 07 14 20 04.0000000  0  6                                             
G25  20037292.848 7 105044804.339 7       952.668 7        45.203               
G28  21633470.145 7 113683432.044 7      1658.377 7        42.105               
G29  20951307.980 7 110487220.140 7     -1392.366 7        44.181               
G31  23232325.465 6 122871801.948 6     -2868.316 6        40.542               
G32  23450386.566 6 122511743.471 6      2670.984 6        40.577               
G12  22380735.326 7 117516074.227 7      2942.546 7        43.971               
> 2025 01 07 14 20 05.0000000  0  6                                             
G25  20037473.664 7 105043851.242 7       953.210 7        44.954               
G28  21633163.352 7 113681775.207 7      1658.513 7        42.301               
G29  20951044.716 7 110488612.783 7     -1393.077 7        44.191               
G31  23231783.444 6 122874673.295 6     -2873.832 6        40.740               
G32  23450888.722 6 122509067.523 6      2673.412 6        40.613               
G12  22381291.365 7 117513130.912 7      2943.518 7        43.677               
> 2025 01 07 14 20 06.0000000  0  6                                             
G25  20037659.699 7 105042897.124 7       954.574 7        44.952               
G28  21632841.299 6 113680119.473 6      1654.568 6        41.998               
G29  20950781.389 7 110490004.305 7     -1390.694 7        44.102               
G31  23231241.708 6 122877543.701 6     -2868.770 6        40.805               
G32  23451410.336 6 122506390.584 6      2678.837 6        40.340               
G12  22381859.386 7 117510186.752 7      2943.056 7        44.208               
> 2025 01 07 14 20 07.0000000  0  6                                             
G25  20037839.836 7 105041942.660 7       953.786 7        45.273               
G28  21632527.956 6 113678464.164 6      1655.566 6        41.914               
G29  20950517.874 7 110491395.390 7     -1391.257 7        44.352               
G31  23230701.751 6 122880413.934 6     -2869.385 6        40.668               
G32  23451916.646 6 122503713.344 6      2676.887 6        40.080               
G12  22382422.546 7 117507242.444 7      2944.780 7        43.634               
> 2025 01 07 14 20 08.0000000  0  6                                             
G25  20038022.610 7 105040988.531 7       953.274 7        45.118               
G28  21632215.972 6 113676808.592 6      1657.506 6        41.992               
G29  20950254.092 7 110492786.716 7     -1391.092 7        44.023               
G31  23230146.427 6 122883284.630 6     -2874.440 6        41.054               
G32  23452432.364 6 122501036.467 6      2673.859 6        40.078               
G12  22382977.290 7 117504298.695 7      2939.491 7        43.974               
> 2025 01 07 14 20 09.0000000  0  6                                             
G25  20038205.356 7 105040033.890 7       955.585 7        45.507               
G28  21631907.991 6 113675153.598 6      1654.076 6        41.916               
G29  20949992.275 7 110494177.449 7     -1391.391 7        44.506               
G31  23229605.031 6 122886154.947 6     -2866.852 6        40.428               
G32  23452937.334 6 122498359.141 6      2678.100 6        40.117               
G12  22383534.776 7 117501354.636 7      2945.581 7        43.448               
> 2025 01 07 14 20 10.0000000  0  6                                             
G25  20038391.426 7 105039078.886 7       954.316 7        44.716               
G28  21631593.871 7 113673499.045 7      1652.830 7        42.047               
G29  20949729.806 7 110495567.730 7     -1389.397 7        44.338               
G31  23229058.730 6 122889025.027 6     -2872.661 6        40.439               
G32  23453455.839 6 122495681.491 6      2676.888 6        39.802               
G12  22384102.726 7 117498410.416 7      2947.006 7        43.796               
> 2025 01 07 14 20 11.0000000  0  6                                             
G25  20038573.315 7 105038122.857 7       958.646 7        44.596               
G28  21631281.467 7 113671845.581 7      1653.643 7        42.459               
G29  20949466.872 7 110496956.895 7     -1387.144 7        44.255               
G31  23228517.504 6 122891894.222 6     -2871.373 6        40.911               
G32  23453967.402 6 122493002.840 6      2677.060 6        40.084               
G12  22384668.191 7 117495465.388 7      2946.438 7        43.489               
> 2025 01 07 14 20 12.0000000  0  6                                             
G25  20038755.642 7 105037165.236 7       956.982 7        44.795               
G28  21630966.275 6 113670193.790 6      1652.996 6        41.799               
G29  20949204.421 7 110498344.363 7     -1387.786 7        44.096               
G31  23227968.738 6 122894761.957 6     -2870.439 6        40.833               
G32  23454474.364 6 122490322.670 6      2681.595 6        39.606               
G12  22385223.631 7 117492518.960 7      2947.591 7        44.025               
> 2025 01 07 14 20 13.0000000  0  6                                             
G25  20038945.679 7 105036208.307 7       959.492 7        45.215               
G28  21630655.989 7 113668541.391 7      1651.035 7        42.093               
G29  20948940.942 7 110499732.455 7     -1387.111 7        44.195               
G31  23227425.591 6 122897630.503 6     -2867.687 6        40.342               
G32  23454982.515 6 122487643.233 6      2681.647 6        39.580               
G12  22385789.436 7 117489573.455 7      2945.420 7        43.798               
> 2025 01 07 14 20 14.0000000  0  6                                             
G25  20039129.310 7 105035250.651 7       958.044 7        45.301               
G28  21630341.941 7 113666889.780 7      1652.382 7        42.779               
G29  20948678.679 7 110501119.723 7     -1386.520 7        44.217               
G31  23226883.355 6 122900498.499 6     -2870.141 6        40.708               
G32  23455501.976 6 122484963.102 6      2678.723 6        40.037               
G12  22386354.839 7 117486627.422 7      2945.059 7        43.870               
> 2025 01 07 14 20 15.0000000  0  6                                             
G25  20039309.876 7 105034293.279 7       956.233 7        45.522               
G28  21630030.778 7 113665237.959 7      1651.531 7        42.032               
G29  20948422.106 7 110502507.183 7     -1388.758 7        44.405               
G31  23226340.932 6 122903366.876 6     -2863.463 6        40.713               
G32  23456014.424 6 122482283.325 6      2678.602 6        39.535               
G12  22386913.085 7 117483681.880 7      2946.113 7        44.048               
> 2025 01 07 14 20 16.0000000  0  6                                             
G25  20039496.447 7 105033335.255 7       960.215 7        45.673               
G28  21629712.406 7 113663586.869 7      1654.437 7        42.104               
G29  20948160.530 7 110503893.900 7     -1387.738 7        44.803               
G31  23225795.382 6 122906234.746 6     -2870.326 6        40.248               
G32  23456521.797 6 122479602.914 6      2674.625 6        39.116               
G12  22387475.977 7 117480735.883 7      2947.097 7        43.687               
> 2025 01 07 14 20 17.0000000  0  6                                             
G25  20039676.986 7 105032375.803 7       959.241 7        45.310               
G28  21629406.515 7 113661937.280 7      1650.408 7        42.199               
G29  20947898.169 7 110505279.107 7     -1381.393 7        44.554               
G31  23225248.679 6 122909101.301 6     -2862.057 6        40.622               
G32  23457033.137 6 122476921.135 6      2681.568 6        39.499               
G12  22388040.629 7 117477788.686 7      2945.021 7        43.941               
> 2025 01 07 14 20 18.0000000  0  6                                             
G25  20039865.906 7 105031415.622 7       961.529 7        45.319               
G28  21629086.999 7 113660288.486 7      1647.835 7        42.594               
G29  20947633.716 7 110506663.500 7     -1382.490 7        44.940               
G31  23224716.057 6 122911967.279 6     -2863.851 6        40.884               
G32  23457550.222 6 122474238.673 6      2683.983 6        39.275               
G12  22388599.528 7 117474840.963 7      2946.150 7        44.079               
> 2025 01 07 14 20 19.0000000  0  6                                             
G25  20040050.100 7 105030455.757 7       959.041 7        45.216               
G28  21628780.760 7 113658639.457 7      1647.076 7        42.519               
G29  20947372.685 7 110508048.114 7     -1385.592 7        44.643               
G31  23224159.607 6 122914833.698 6     -2866.925 6        40.744               
G32  23458048.768 6 122471556.552 6      2684.851 6        38.543               
G12  22389167.369 7 117471893.761 7      2946.184 7        44.323               
> 2025 01 07 14 20 20.0000000  0  6                                             
G25  20040234.473 7 105029495.501 7       959.042 7        44.640               
G28  21628471.000 7 113656990.894 7      1649.263 7        42.669               
G29  20947107.643 7 110509432.236 7     -1384.544 7        44.749               
G31  23223615.567 6 122917699.860 6     -2864.467 6        39.965               
G32  23458569.167 6 122468874.087 6      2680.247 6        38.713               
G12  22389727.474 7 117468946.385 7      2948.285 7        43.913               
> 2025 01 07 14 20 21.0000000  0  6                                             
G25  20040415.182 7 105028534.932 7       958.440 7        45.432               
G28  21628164.448 7 113655342.727 7      1647.284 7        42.346               
G29  20946847.354 7 110510815.960 7     -1384.951 7        44.371               
G31  23223073.528 6 122920565.829 6     -2865.340 6        40.204               
G32  23459079.122 6 122466191.360 6      2680.250 6        37.970               
G12  22390291.697 7 117465998.881 7      2948.188 7        44.542               
> 2025 01 07 14 20 22.0000000  0  6                                             
G25  20040600.761 7 105027574.092 7       959.511 7        45.213               
G28  21627844.539 7 113653694.895 7      1649.030 7        42.496               
G29  20946587.878 7 110512199.311 7     -1383.523 7        44.340               
G31  23222530.962 6 122923431.674 6     -2867.596 6        40.194               
G32  23459578.204 6 122463508.436 6      2686.420 6        38.348               
G12  22390856.912 7 117463051.334 7      2947.961 7        44.758               
> 2025 01 07 14 20 23.0000000  0  6                                             
G25  20040790.521 7 105026612.534 7       962.161 7        45.174               
G28  21627534.101 7 113652047.853 7      1650.287 7        42.370               
G29  20946327.598 7 110513581.865 7     -1381.561 7        44.554               
G31  23221987.860 6 122926296.934 6     -2863.948 6        40.664               
G32  23460107.681 6 122460824.784 6      2687.460 6        39.222               
G12  22391420.537 7 117460103.264 7      2948.160 7        44.775               
> 2025 01 07 14 20 24.0000000  0  6                                             
G25  20040970.221 7 105025651.000 7       961.918 7        44.505               
G28  21627220.866 7 113650400.879 7      1649.933 7        42.365               
G29  20946063.744 7 110514964.338 7     -1384.057 7        44.446               
G31  23221439.915 6 122929162.317 6     -2864.615 6        39.867               
G32  23460618.360 6 122458141.220 6      2685.396 6        38.721               
G12  22391983.054 7 117457155.426 7      2946.448 7        43.978               
> 2025 01 07 14 20 25.0000000  0  6                                             
G25  20041156.211 7 105024689.363 7       961.624 7        45.360               
G28  21626910.659 7 113648754.084 7      1644.944 7        42.791               
G29  20945805.027 7 110516346.624 7     -1382.074 7        44.856               
G31  23220897.742 6 122932027.740 6     -2863.329 6        40.145               
G32  23461136.115 6 122455457.601 6      2683.172 6        38.468               
G12  22392545.794 7 117454207.716 7      2945.605 7        44.792               
> 2025 01 07 14 20 26.0000000  0  6                                             
G25  20041342.334 7 105023727.128 7       962.307 7        45.335               
G28  21626597.657 7 113647107.940 7      1644.111 7        42.365               
G29  20945539.198 7 110517728.229 7     -1378.681 7        44.668               
G31  23220358.276 6 122934892.726 6     -2862.927 6        40.060               
G32  23461648.607 6 122452773.468 6      2680.560 6        38.180               
G12  22393106.265 7 117451259.598 7      2950.449 7        44.864               
> 2025 01 07 14 20 27.0000000  0  6                                             
G25  20041528.950 7 105022764.034 7       963.098 7        44.955               
G28  21626285.333 7 113645462.760 7      1648.256 7        42.159               
G29  20945282.197 7 110519108.861 7     -1377.814 7        44.712               
G31  23219813.843 6 122937756.950 6     -2866.283 6        39.906               
G32  23462148.583 6 122450088.462 6      2686.717 6        38.773               
G12  22393667.665 7 117448310.812 7      2946.668 7        44.340               
> 2025 01 07 14 20 28.0000000  0  6                                             
G25  20041713.483 7 105021800.750 7       963.757 7        45.045               
G28  21625977.601 7 113643817.816 7      1644.896 7        42.567               
G29  20945023.355 7 110520489.237 7     -1382.820 7        44.200               
G31  23219280.738 6 122940621.132 6     -2859.787 6        40.193               
G32  23462679.444 6 122447403.361 6      2681.920 6        39.132               
G12  22394238.000 7 117445362.077 7      2949.330 7        44.788               
> 2025 01 07 14 20 29.0000000  0  6                                             
G25  20041895.783 7 105020837.130 7       963.861 7        45.560               
G28  21625662.749 7 113642173.290 7      1644.233 7        43.076               
G29  20944763.888 7 110521869.169 7     -1381.228 7        44.392               
G31  23218723.421 6 122943485.106 6     -2860.575 6        39.795               
G32  23463178.401 6 122444717.934 6      2684.534 6        38.618               
G12  22394799.042 7 117442413.187 7      2949.825 7        45.290               
> 2025 01 07 14 20 30.0000000  0  6                                             
G25  20042085.096 7 105019873.336 7       964.669 7        45.072               
G28  21625356.555 7 113640529.017 7      1644.880 7        42.175               
G29  20944501.071 7 110523248.854 7     -1380.951 7        44.585               
G31  23218181.552 6 122946349.063 6     -2862.073 6        39.639               
G32  23463690.804 6 122442032.416 6      2683.213 6        38.194               
G12  22395363.391 7 117439464.345 7      2950.259 7        44.435               
> 2025 01 07 14 20 31.0000000  0  6                                             
G25  20042266.958 7 105018908.892 7       964.942 7        45.613               
G28  21625041.756 7 113638885.472 7      1641.774 7        42.251               
G29  20944241.371 7 110524627.778 7     -1377.912 7        44.605               
G31  23217653.210 6 122949212.488 6     -2863.973 6        40.129               
G32  23464211.141 6 122439346.255 6      2686.936 6        39.038               
G12  22395920.466 7 117436515.045 7      2951.642 7        44.616               
> 2025 01 07 14 20 32.0000000  0  6                                             
G25  20042454.869 7 105017943.773 7       964.917 7        44.963               
G28  21624734.418 7 113637242.681 7      1642.427 7        42.536               
G29  20943978.643 7 110526005.964 7     -1379.085 7        44.166               
G31  23217107.436 6 122952075.413 6     -2863.837 6        39.830               
G32  23464726.019 6 122436659.491 6      2681.863 6        38.746               
G12  22396483.832 7 117433565.309 7      2950.732 7        44.819               
> 2025 01 07 14 20 33.0000000  0  6                                             
G25  20042639.089 7 105016978.074 7       967.407 7        45.692               
G28  21624424.882 7 113635600.554 7      1640.198 7        42.539               
G29  20943718.720 7 110527383.446 7     -1376.413 7        45.008               
G31  23216554.390 6 122954937.818 6     -2865.685 6        39.735               
G32  23465240.978 6 122433972.179 6      2686.879 6        39.093               
G12  22397051.620 7 117430615.156 7      2951.144 7        44.942               
> 2025 01 07 14 20 34.0000000  0  6                                             
G25  20042828.617 7 105016011.635 7       966.192 7        45.620               
G28  21624116.516 7 113633959.217 7      1641.731 7        42.848               
G29  20943458.270 7 110528760.131 7     -1374.710 7        45.021               
G31  23216002.219 6 122957799.664 6     -2863.216 6        39.810               
G32  23465746.028 6 122431284.202 6      2693.223 6        39.099               
G12  22397611.886 7 117427664.499 7      2952.224 7        45.664               
> 2025 01 07 14 20 35.0000000  0  6                                             
G25  20043009.818 7 105015044.502 7       967.670 7        45.580               
G28  21623800.985 7 113632318.648 7      1640.560 7        42.333               
G29  20943198.732 7 110530136.018 7     -1377.628 7        44.300               
G31  23215474.744 6 122960660.935 6     -2861.593 6        40.243               
G32  23466258.368 6 122428595.554 6      2689.092 6        39.111               
G12  22398173.500 7 117424713.359 7      2952.688 7        44.861               
> 2025 01 07 14 20 36.0000000  0  6                                             
G25  20043197.809 7 105014077.149 7       970.391 7        45.247               
G28  21623494.066 7 113630678.390 7      1639.139 7        42.619               
G29  20942938.326 7 110531511.596 7     -1375.528 7        44.363               
G31  23214933.366 6 122963522.111 6     -2860.053 6        39.659               
G32  23466772.174 6 122425906.733 6      2695.087 6        39.113               
G12  22398738.081 7 117421762.203 7      2950.751 7        44.452               
> 2025 01 07 14 20 37.0000000  0  6                                             
G25  20043387.730 7 105013109.097 7       969.762 7        45.664               
G28  21623186.487 7 113629038.900 7      1638.959 7        42.711               
G29  20942677.037 7 110532886.382 7     -1372.558 7        44.570               
G31  23214384.099 6 122966382.729 6     -2858.334 6        39.474               
G32  23467277.439 6 122423217.263 6      2691.580 6        38.594               
G12  22399305.369 7 117418810.567 7      2950.992 7        44.725               
> 2025 01 07 14 20 38.0000000  0  6                                             
G25  20043570.226 7 105012140.465 7       972.439 7        44.874               
G28  21622877.567 7 113627400.072 7      1639.947 7        43.084               
G29  20942421.617 7 110534260.484 7     -1373.669 7        44.127               
G31  23213844.124 6 122969242.884 6     -2859.465 6        40.261               
G32  23467797.785 6 122420527.269 6      2691.870 6        38.971               
G12  22399863.445 7 117415858.539 7      2953.709 7        44.286               
> 2025 01 07 14 20 39.0000000  0  6                                             
G25  20043757.637 7 105011171.479 7       967.036 7        45.460               
G28  21622561.616 7 113625761.682 7      1640.263 7        42.925               
G29  20942155.645 7 110535634.159 7     -1372.910 7        44.231               
G31  23213300.477 6 122972102.802 6     -2858.174 6        39.531               
G32  23468310.608 6 122417836.957 6      2688.955 6        39.362               
G12  22400429.419 7 117412906.369 7      2952.478 7        44.183               
> 2025 01 07 14 20 40.0000000  0  6                                             
G25  20043943.743 7 105010201.357 7       972.290 7        45.110               
G28  21622251.687 7 113624124.491 7      1637.098 7        42.545               
G29  20941898.037 7 110537006.595 7     -1371.487 7        44.651               
G31  23212758.831 6 122974961.730 6     -2857.270 6        39.615               
G32  23468828.300 6 122415145.565 6      2690.215 6        38.979               
G12  22400986.111 7 117409953.262 7      2954.871 7        44.480               
> 2025 01 07 14 20 41.0000000  0  6                                             
G25  20044130.045 7 105009231.280 7       967.565 7        45.683               
G28  21621943.509 7 113622487.347 7      1632.392 7        42.280               
G29  20941640.732 7 110538378.985 7     -1369.770 7        44.425               
G31  23212211.351 6 122977820.814 6     -2859.305 6        39.868               
G32  23469340.007 6 122412454.251 6      2683.190 6        38.909               
G12  22401554.453 7 117407000.425 7      2951.063 7        44.294               
> 2025 01 07 14 20 42.0000000  0  6                                             
G25  20044315.543 7 105008261.744 7       969.957 7        46.098               
G28  21621632.963 7 113620849.733 7      1637.474 7        42.732               
G29  20941379.683 7 110539751.812 7     -1373.236 7        44.856               
G31  23211667.257 6 122980680.583 6     -2861.653 6        39.702               
G32  23469856.359 6 122409763.534 6      2684.737 6        38.880               
G12  22402120.865 7 117404048.336 7      2954.639 7        44.240               
> 2025 01 07 14 20 43.0000000  0  6                                             
G25  20044502.203 7 105007291.955 7       970.784 7        45.330               
G28  21621320.201 7 113619212.425 7      1639.226 7        42.216               
G29  20941122.306 7 110541124.327 7     -1373.808 7        43.540               
G31  23211131.812 6 122983540.244 6     -2862.251 6        39.476               
G32  23470371.255 6 122407072.590 6      2694.097 6        38.805               
G12  22402683.052 7 117401096.185 7      2952.595 7        43.831               
> 2025 01 07 14 20 44.0000000  0  6                                             
G25  20044688.550 7 105006321.641 7       970.362 7        45.276               
G28  21621012.568 6 113617575.745 6      1635.922 6        41.973               
G29  20940863.500 7 110542496.207 7     -1370.586 7        44.030               
G31  23210591.676 6 122986399.482 6     -2856.423 6        39.625               
G32  23470886.240 6 122404381.196 6      2689.858 6        38.824               
G12  22403243.916 7 117398143.722 7      2953.141 7        44.428               
> 2025 01 07 14 20 45.0000000  0  6                                             
G25  20044875.424 7 105005349.515 7       972.771 7        46.024               
G28  21620702.183 7 113615940.953 7      1632.044 7        42.219               
G29  20940601.818 7 110543866.180 7     -1369.853 7        44.369               
G31  23210044.857 6 122989257.037 6     -2859.451 6        39.928               
G32  23471402.145 6 122401688.032 6      2691.423 6        39.635               
G12  22403807.174 7 117395189.633 7      2954.135 7        44.305               
> 2025 01 07 14 20 46.0000000  0  6                                             
G25  20045058.930 7 105004377.456 7       971.683 7        44.967               
G28  21620393.702 6 113614306.156 6      1634.474 6        41.712               
G29  20940344.405 7 110545236.135 7     -1368.963 7        44.435               
G31  23209497.967 6 122992114.789 6     -2855.209 6        39.373               
G32  23471923.358 6 122398994.996 6      2688.467 6        39.412               
G12  22404376.687 7 117392235.853 7      2954.102 7        43.650               
> 2025 01 07 14 20 47.0000000  0  6                                             
G25  20045247.020 7 105003404.691 7       970.590 7        45.570               
G28  21620080.958 7 113612672.158 7      1635.707 7        42.153               
G29  20940088.423 7 110546605.288 7     -1370.140 7        44.162               
G31  23208957.563 6 122994971.995 6     -2858.831 6        39.459               
G32  23472432.187 6 122396301.291 6      2693.758 6        39.589               
G12  22404933.057 7 117389281.560 7      2954.352 7        44.163               
> 2025 01 07 14 20 48.0000000  0  6                                             
G25  20045432.527 7 105002432.016 7       973.984 7        45.686               
G28  21619771.734 7 113611038.122 7      1636.013 7        42.338               
G29  20939827.964 7 110547974.455 7     -1367.333 7        44.209               
G31  23208424.458 6 122997829.393 6     -2857.804 6        39.895               
G32  23472941.446 6 122393607.719 6      2696.625 6        39.444               
G12  22405499.996 7 117386327.563 7      2956.026 7        43.643               
> 2025 01 07 14 20 49.0000000  0  6                                             
G25  20045620.322 7 105001458.243 7       975.165 7        45.575               
G28  21619455.891 6 113609405.285 6      1633.042 6        41.953               
G29  20939572.142 7 110549342.409 7     -1368.473 7        44.090               
G31  23207882.232 6 123000685.816 6     -2851.490 6        39.674               
G32  23473458.504 6 122390913.089 6      2697.920 6        39.189               
G12  22406064.604 7 117383372.677 7      2954.098 7        44.729               
> 2025 01 07 14 20 50.0000000  0  6                                             
G25  20045805.918 7 105000484.372 7       974.769 7        45.467               
G28  21619149.526 6 113607772.605 6      1634.939 6        41.776               
G29  20939311.513 7 110550710.185 7     -1366.122 7        44.118               
G31  23207343.731 6 123003542.308 6     -2855.787 6        39.248               
G32  23473971.059 6 122388218.404 6      2697.101 6        39.579               
G12  22406625.986 7 117380417.918 7      2953.754 7        43.451               
> 2025 01 07 14 20 51.0000000  0  6                                             
G25  20045994.776 7 104999509.941 7       974.471 7        45.818               
G28  21618850.694 7 113606140.581 7      1631.020 7        42.151               
G29  20939046.578 7 110552077.317 7     -1367.766 7        44.146               
G31  23206803.318 6 123006398.321 6     -2859.132 6        39.831               
G32  23474488.367 6 122385523.240 6      2698.569 6        39.120               
G12  22407192.166 7 117377462.802 7      2956.297 7        43.812               
> 2025 01 07 14 20 52.0000000  0  6                                             
G25  20046186.493 7 104998535.392 7       977.848 7        45.697               
G28  21618536.154 7 113604508.747 7      1630.717 7        42.323               
G29  20938793.580 7 110553444.212 7     -1364.414 7        43.872               
G31  23206255.838 6 123009254.352 6     -2858.744 6        39.439               
G32  23475007.909 6 122382827.993 6      2696.091 6        40.080               
G12  22407753.199 7 117374507.768 7      2954.068 7        44.102               
> 2025 01 07 14 20 53.0000000  0  6                                             
G25  20046373.072 7 104997560.346 7       975.228 7        45.505               
G28  21618225.858 6 113602877.490 6      1628.422 6        41.547               
G29  20938535.381 7 110554810.534 7     -1367.389 7        44.080               
G31  23205709.519 6 123012110.036 6     -2858.595 6        39.826               
G32  23475511.797 6 122380132.288 6      2695.847 6        39.833               
G12  22408321.381 7 117371552.445 7      2953.754 7        43.365               
> 2025 01 07 14 20 54.0000000  0  6                                             
G25  20046561.563 7 104996585.235 7       975.097 7        46.230               
G28  21617918.744 6 113601246.370 6      1628.216 6        41.642               
G29  20938276.414 7 110556176.704 7     -1366.613 7        44.064               
G31  23205164.139 6 123014965.772 6     -2851.833 6        39.635               
G32  23476032.376 6 122377436.561 6      2695.256 6        39.657               
G12  22408887.346 7 117368597.285 7      2953.756 7        43.617               
> 2025 01 07 14 20 55.0000000  0  6                                             
G25  20046745.391 7 104995609.316 7       977.017 7        45.593               
G28  21617608.091 7 113599616.117 7      1628.729 7        42.237               
G29  20938018.734 7 110557541.981 7     -1364.621 7        43.694               
G31  23204632.240 6 123017820.838 6     -2860.514 6        39.561               
G32  23476554.366 6 122374740.084 6      2699.583 6        39.978               
G12  22409454.884 7 117365641.523 7      2953.378 7        43.789               
> 2025 01 07 14 20 56.0000000  0  6                                             
G25  20046935.616 7 104994632.878 7       976.782 7        45.872               
G28  21617296.759 6 113597986.490 6      1628.396 6        41.577               
G29  20937760.214 7 110558906.620 7     -1365.265 7        44.004               
G31  23204093.677 6 123020675.499 6     -2857.789 6        39.619               
G32  23477060.398 6 122372043.126 6      2697.438 6        39.802               
G12  22410016.016 7 117362685.422 7      2957.415 7        44.522               
> 2025 01 07 14 20 57.0000000  0  6                                             
G25  20047121.963 7 104993655.890 7       978.617 7        45.678               
G28  21616987.553 6 113596357.484 6      1626.445 6        41.262               
G29  20937502.998 7 110560270.635 7     -1365.144 7        43.557               
G31  23203550.396 6 123023529.738 6     -2854.693 6        39.916               
G32  23477579.065 6 122369345.698 6      2702.934 6        40.135               
G12  22410578.131 7 117359729.006 7      2954.765 7        44.529               
> 2025 01 07 14 20 58.0000000  0  6                                             
G25  20047311.205 7 104992678.824 7       975.264 7        46.191               
G28  21616682.940 6 113594728.621 6      1627.423 6        41.181               
G29  20937241.476 7 110561634.479 7     -1362.122 7        44.026               
G31  23203002.514 6 123026384.036 6     -2854.124 6        39.843               
G32  23478100.393 6 122366648.205 6      2699.696 6        39.288               
G12  22411140.371 7 117356772.715 7      2955.004 7        43.949               
> 2025 01 07 14 20 59.0000000  0  6                                             
G25  20047498.347 7 104991701.055 7       977.228 7        46.389               
G28  21616378.210 6 113593100.554 6      1629.611 6        41.692               
G29  20936989.657 7 110562997.525 7     -1364.465 7        43.866               
G31  23202460.976 6 123029237.747 6     -2855.415 6        39.497               
G32  23478612.814 6 122363950.080 6      2701.241 6        39.518               
G12  22411709.705 7 117353815.918 7      2957.350 7        43.178               
> 2025 01 07 14 21 00.0000000  0  6                                             
G25  20047683.470 7 104990722.961 7       980.851 7        45.825               
G28  21616070.497 6 113591472.908 6      1629.038 6        41.146               
G29  20936730.333 7 110564360.149 7     -1363.444 7        43.611               
G31  23201923.198 6 123032091.265 6     -2855.577 6        39.362               
G32  23479128.818 6 122361251.669 6      2703.047 6        39.617               
G12  22412272.177 7 117350859.006 7      2956.755 7        43.674               
> 2025 01 07 14 21 01.0000000  0  6                                             
G25  20047878.501 7 104989744.035 7       979.455 7        45.830               
G28  21615764.972 7 113589846.139 7      1627.347 7        42.051               
G29  20936473.564 7 110565721.865 7     -1362.998 7        43.804               
G31  23201388.647 6 123034944.087 6     -2850.952 6        39.768               
G32  23479645.260 6 122358552.499 6      2695.762 6        40.179               
G12  22412833.586 7 117347901.483 7      2956.250 7        43.461               
> 2025 01 07 14 21 02.0000000  0  6                                             
G25  20048060.971 7 104988764.775 7       979.889 7        46.069               
G28  21615456.687 6 113588219.783 6      1630.957 6        41.577               
G29  20936217.376 7 110567083.144 7     -1360.443 7        43.520               
G31  23200848.126 6 123037796.689 6     -2848.254 6        39.714               
G32  23480147.674 6 122355852.995 6      2697.503 6        39.477               
G12  22413396.639 7 117344943.840 7      2958.445 7        43.725               
> 2025 01 07 14 21 03.0000000  0  6                                             
G25  20048253.742 7 104987785.087 7       979.646 7        46.439               
G28  21615145.561 6 113586593.960 6      1628.417 6        41.554               
G29  20935959.579 7 110568443.905 7     -1360.339 7        44.024               
G31  23200305.828 6 123040648.996 6     -2850.470 6        40.020               
G32  23480666.287 6 122353153.131 6      2701.116 6        39.158               
G12  22413960.853 7 117341985.960 7      2957.647 7        43.239               
> 2025 01 07 14 21 04.0000000  0  6                                             
G25  20048441.715 7 104986805.068 7       979.670 7        46.398               
G28  21614841.349 6 113584968.518 6      1623.550 6        41.578               
G29  20935703.409 7 110569804.238 7     -1359.516 7        43.640               
G31  23199758.768 6 123043501.095 6     -2852.588 6        39.827               
G32  23481187.249 6 122350453.004 6      2699.372 6        39.002               
G12  22414526.685 7 117339027.969 7      2960.162 7        43.345               
> 2025 01 07 14 21 05.0000000  0  6                                             
G25  20048627.356 7 104985824.626 7       979.203 7        46.194               
G28  21614532.716 6 113583343.603 6      1623.706 6        41.803               
G29  20935447.811 7 110571164.053 7     -1357.669 7        44.106               
G31  23199219.767 6 123046352.892 6     -2853.537 6        39.848               
G32  23481702.467 6 122347752.478 6      2702.593 6        39.489               
G12  22415093.231 7 117336069.751 7      2958.232 7        43.015               
> 2025 01 07 14 21 06.0000000  0  6                                             
G25  20048816.402 7 104984843.739 7       981.257 7        46.368               
G28  21614223.537 6 113581719.183 6      1626.399 6        41.545               
G29  20935192.650 7 110572523.356 7     -1359.811 7        44.406               
G31  23198671.626 6 123049204.396 6     -2851.709 6        39.718               
G32  23482217.014 6 122345051.588 6      2701.688 6        39.137               
G12  22415659.724 7 117333111.325 7      2959.714 7        43.844               
> 2025 01 07 14 21 07.0000000  0  6                                             
G25  20049004.563 7 104983862.469 7       982.747 7        46.270               
G28  21613920.157 6 113580095.246 6      1622.743 6        41.531               
G29  20934934.657 7 110573882.160 7     -1359.724 7        44.282               
G31  23198133.000 6 123052055.643 6     -2851.473 6        39.697               
G32  23482731.008 6 122342350.340 6      2698.505 6        39.278               
G12  22416223.063 7 117330152.690 7      2960.346 7        43.495               
> 2025 01 07 14 21 08.0000000  0  6                                             
G25  20049194.743 7 104982880.687 7       982.491 7        45.975               
G28  21613614.587 7 113578471.875 7      1623.657 7        42.073               
G29  20934676.137 7 110575240.394 7     -1357.276 7        44.209               
G31  23197596.849 6 123054906.493 6     -2852.027 6        39.626               
G32  23483248.093 6 122339648.666 6      2708.182 6        40.151               
G12  22416791.405 7 117327193.810 7      2957.148 7        43.193               
> 2025 01 07 14 21 09.0000000  0  6                                             
G25  20049384.333 7 104981897.908 7       983.733 7        46.279               
G28  21613304.006 7 113576849.595 7      1622.444 7        42.387               
G29  20934420.681 7 110576597.510 7     -1358.236 7        44.354               
G31  23197057.597 6 123057756.495 6     -2849.913 6        39.601               
G32  23483769.913 6 122336946.019 6      2701.866 6        39.913               
G12  22417353.252 7 117324234.105 7      2957.691 7        43.409               
> 2025 01 07 14 21 10.0000000  0  6                                             
G25  20049573.959 7 104980914.898 7       983.480 7        45.945               
G28  21613000.599 7 113575227.616 7      1620.820 7        42.512               
G29  20934165.208 7 110577954.307 7     -1356.940 7        44.155               
G31  23196513.468 6 123060606.371 6     -2852.654 6        39.351               
G32  23484282.459 6 122334243.194 6      2702.943 6        39.664               
G12  22417914.598 7 117321274.375 7      2960.536 7        43.433               
> 2025 01 07 14 21 11.0000000  0  6                                             
G25  20049760.101 7 104979931.530 7       980.596 7        45.717               
G28  21612697.058 7 113573606.085 7      1620.928 7        42.842               
G29  20933906.259 7 110579310.651 7     -1356.104 7        43.772               
G31  23195973.091 6 123063456.027 6     -2851.766 6        40.196               
G32  23484796.962 6 122331540.057 6      2705.437 6        40.081               
G12  22418485.004 7 117318314.499 7      2963.364 7        43.358               
> 2025 01 07 14 21 12.0000000  0  6                                             
G25  20049951.934 7 104978947.798 7       981.986 7        46.220               
G28  21612386.682 7 113571984.987 7      1617.612 7        42.916               
G29  20933649.624 7 110580666.545 7     -1353.816 7        43.746               
G31  23195433.670 6 123066305.444 6     -2846.142 6        39.524               
G32  23485317.388 6 122328836.621 6      2705.789 6        40.108               
G12  22419051.372 7 117315354.487 7      2962.023 7        43.549               
> 2025 01 07 14 21 13.0000000  0  6                                             
G25  20050142.837 7 104977963.464 7       983.757 7        46.630               
G28  21612087.215 7 113570364.589 7      1621.325 7        42.675               
G29  20933395.866 7 110582021.736 7     -1354.872 7        44.293               
G31  23194892.703 6 123069154.357 6     -2849.354 6        39.658               
G32  23485834.875 6 122326132.604 6      2699.194 6        39.945               
G12  22419616.211 7 117312394.060 7      2960.671 7        43.851               
> 2025 01 07 14 21 14.0000000  0  6                                             
G25  20050331.114 7 104976978.734 7       983.810 7        46.097               
G28  21611780.136 7 113568744.647 7      1618.802 7        42.178               
G29  20933139.446 7 110583376.447 7     -1353.918 7        44.079               
G31  23194352.469 6 123072003.028 6     -2848.739 6        39.629               
G32  23486350.468 6 122323428.248 6      2705.537 6        39.945               
G12  22420178.701 7 117309433.451 7      2956.718 7        43.419               
> 2025 01 07 14 21 15.0000000  0  6                                             
G25  20050518.801 7 104975993.734 7       988.581 7        45.543               
G28  21611470.028 7 113567125.077 7      1619.188 7        43.159               
G29  20932882.024 7 110584730.778 7     -1354.556 7        43.803               
G31  23193807.454 6 123074851.525 6     -2848.410 6        39.351               
G32  23486869.259 6 122320723.685 6      2705.961 6        39.931               
G12  22420741.737 7 117306472.784 7      2958.967 7        43.563               
> 2025 01 07 14 21 16.0000000  0  6                                             
G25  20050706.900 7 104975008.354 7       984.927 7        45.653               
G28  21611166.379 7 113565505.947 7      1620.908 7        42.267               
G29  20932627.516 7 110586084.648 7     -1353.677 7        44.512               
G31  23193275.288 6 123077699.820 6     -2845.522 6        39.110               
G32  23487382.770 6 122318018.784 6      2705.677 6        39.258               
G12  22421310.829 7 117303511.946 7      2959.427 7        43.155               
> 2025 01 07 14 21 17.0000000  0  6                                             
G25  20050898.259 7 104974022.459 7       986.486 7        46.354               
G28  21610856.682 6 113563887.423 6      1620.228 6        41.737               
G29  20932372.185 7 110587437.913 7     -1353.314 7        43.850               
G31  23192732.794 6 123080547.695 6     -2845.765 6        39.312               
G32  23487897.434 6 122315313.406 6      2706.999 6        39.364               
G12  22421873.149 7 117300550.793 7      2959.582 7        43.344               
> 2025 01 07 14 21 18.0000000  0  6                                             
G25  20051084.892 7 104973036.129 7       985.114 7        46.386               
G28  21610547.906 7 113562269.416 7      1618.479 7        42.328               
G29  20932120.116 7 110588790.634 7     -1352.604 7        44.623               
G31  23192198.000 6 123083395.258 6     -2852.539 6        40.005               
G32  23488422.854 6 122312607.668 6      2705.943 6        39.751               
G12  22422436.095 7 117297589.423 7      2960.321 7        43.529               
> 2025 01 07 14 21 19.0000000  0  6                                             
G25  20051275.635 7 104972049.558 7       986.909 7        46.664               
G28  21610238.772 7 113560651.711 7      1618.026 7        42.900               
G29  20931860.792 7 110590143.051 7     -1352.534 7        44.204               
G31  23191650.002 6 123086242.739 6     -2849.882 6        39.699               
G32  23488931.219 6 122309901.738 6      2706.862 6        39.394               
G12  22423004.821 7 117294628.022 7      2963.724 7        43.711               
> 2025 01 07 14 21 20.0000000  0  6                                             
G25  20051467.253 7 104971062.412 7       987.409 7        46.638               
G28  21609935.347 7 113559034.688 7      1617.607 7        42.506               
G29  20931610.340 7 110591494.770 7     -1351.558 7        44.534               
G31  23191112.234 6 123089089.724 6     -2845.764 6        39.851               
G32  23489452.736 6 122307195.273 6      2704.589 6        39.950               
G12  22423568.661 7 117291666.250 7      2961.039 7        43.339               
> 2025 01 07 14 21 21.0000000  0  6                                             
G25  20051656.835 7 104970074.648 7       987.117 7        46.573               
G28  21609634.450 7 113557418.339 7      1615.224 7        42.641               
G29  20931350.524 7 110592845.800 7     -1351.796 7        44.618               
G31  23190570.660 6 123091936.265 6     -2847.269 6        39.690               
G32  23489965.076 6 122304488.243 6      2713.282 6        39.401               
G12  22424133.152 7 117288704.093 7      2962.821 7        43.184               
> 2025 01 07 14 21 22.0000000  0  6                                             
G25  20051845.666 7 104969086.052 7       989.029 7        46.522               
G28  21609326.754 7 113555802.906 7      1613.478 7        43.201               
G29  20931094.506 7 110594195.881 7     -1350.987 7        44.315               
G31  23190035.858 6 123094782.048 6     -2841.601 6        40.491               
G32  23490481.795 6 122301780.440 6      2707.388 6        39.972               
G12  22424697.152 7 117285741.288 7      2962.864 7        43.212               
> 2025 01 07 14 21 23.0000000  0  6                                             
G25  20052036.060 7 104968097.219 7       986.598 7        46.390               
G28  21609025.268 7 113554187.789 7      1616.539 7        42.780               
G29  20930838.192 7 110595545.650 7     -1351.683 7        44.254               
G31  23189493.095 6 123097627.761 6     -2843.677 6        39.842               
G32  23491000.479 6 122299072.439 6      2710.090 6        39.585               
G12  22425265.030 7 117282778.463 7      2961.854 7        43.421               
> 2025 01 07 14 21 24.0000000  0  6                                             
G25  20052226.347 7 104967107.691 7       991.124 7        46.192               
G28  21608717.349 7 113552573.468 7      1613.893 7        42.290               
G29  20930586.695 7 110596894.626 7     -1349.483 7        44.255               
G31  23188952.789 6 123100472.904 6     -2852.555 6        38.998               
G32  23491523.139 6 122296363.802 6      2709.709 6        39.337               
G12  22425832.719 7 117279815.143 7      2962.033 7        43.411               
> 2025 01 07 14 21 25.0000000  0  6                                             
G25  20052417.975 7 104966117.652 7       989.526 7        46.394               
G28  21608406.768 7 113550959.719 7      1613.695 7        42.622               
G29  20930333.598 7 110598242.997 7     -1346.841 7        44.195               
G31  23188412.707 6 123103317.651 6     -2844.640 6        39.342               
G32  23492044.307 6 122293654.704 6      2708.218 6        39.480               
G12  22426399.185 7 117276851.538 7      2961.789 7        43.804               
> 2025 01 07 14 21 26.0000000  0  6                                             
G25  20052608.173 7 104965127.648 7       989.673 7        46.202               
G28  21608104.737 7 113549346.026 7      1613.385 7        42.505               
G29  20930078.169 7 110599591.301 7     -1348.431 7        44.235               
G31  23187871.392 6 123106162.549 6     -2840.311 6        39.767               
G32  23492548.186 6 122290945.686 6      2706.524 6        38.675               
G12  22426963.569 7 117273888.146 7      2963.413 7        43.544               
> 2025 01 07 14 21 27.0000000  0  6                                             
G25  20052794.270 7 104964137.539 7       991.029 7        46.402               
G28  21607799.775 7 113547732.514 7      1613.242 7        42.751               
G29  20929822.463 7 110600939.414 7     -1348.096 7        44.636               
G31  23187333.034 6 123109007.463 6     -2849.909 6        39.518               
G32  23493066.790 6 122288236.628 6      2704.635 6        38.615               
G12  22427537.791 7 117270924.878 7      2962.882 7        44.402               
> 2025 01 07 14 21 28.0000000  0  6                                             
G25  20052983.547 7 104963146.993 7       992.163 7        46.148               
G28  21607494.456 7 113546119.514 7      1611.672 7        43.125               
G29  20929567.070 7 110602286.993 7     -1345.777 7        44.476               
G31  23186799.501 6 123111852.072 6     -2841.554 6        39.232               
G32  23493581.114 6 122285527.184 6      2703.588 6        39.245               
G12  22428099.003 7 117267961.381 7      2963.583 7        43.946               
> 2025 01 07 14 21 29.0000000  0  6                                             
G25  20053176.488 7 104962155.092 7       993.230 7        45.838               
G28  21607188.967 7 113544507.948 7      1614.433 7        42.912               
G29  20929311.785 7 110603633.143 7     -1345.889 7        44.056               
G31  23186260.410 6 123114695.494 6     -2845.364 6        39.434               
G32  23494111.833 6 122282816.417 6      2707.470 6        38.428               
G12  22428668.131 7 117264996.756 7      2964.450 7        43.731               
> 2025 01 07 14 21 30.0000000  0  6                                             
G25  20053366.874 7 104961162.706 7       991.769 7        45.822               
G28  21606882.040 7 113542896.943 7      1607.885 7        43.109               
G29  20929059.572 7 110604978.689 7     -1344.212 7        43.963               
G31  23185717.781 6 123117538.512 6     -2842.419 6        39.620               
G32  23494631.178 6 122280105.234 6      2711.392 6        38.486               
G12  22429230.407 7 117262031.838 7      2962.944 7        44.229               
> 2025 01 07 14 21 31.0000000  0  6                                             
G25  20053555.285 7 104960170.252 7       990.238 7        45.787               
G28  21606580.223 7 113541286.111 7      1610.347 7        42.766               
G29  20928804.948 7 110606324.079 7     -1346.209 7        43.627               
G31  23185181.407 6 123120381.583 6     -2843.324 6        39.939               
G32  23495134.433 6 122277394.046 6      2706.711 6        38.906               
G12  22429795.354 7 117259067.055 7      2962.937 7        43.904               
> 2025 01 07 14 21 32.0000000  0  6                                             
G25  20053747.555 7 104959178.027 7       993.092 7        45.569               
G28  21606277.218 7 113539675.121 7      1611.911 7        43.010               
G29  20928549.349 7 110607669.612 7     -1346.296 7        44.345               
G31  23184645.229 6 123123225.015 6     -2844.707 6        39.939               
G32  23495654.761 6 122274683.111 6      2712.544 6        38.379               
G12  22430360.489 7 117256102.728 7      2963.262 7        43.136               
> 2025 01 07 14 21 33.0000000  0  6                                             
G25  20053939.183 7 104958185.269 7       993.230 7        45.767               
G28  21605971.988 7 113538064.743 7      1611.477 7        43.117               
G29  20928298.745 7 110609014.510 7     -1342.135 7        44.018               
G31  23184103.771 6 123126068.021 6     -2839.680 6        40.151               
G32  23496172.793 6 122271971.673 6      2717.121 6        38.903               
G12  22430928.590 7 117253138.052 7      2966.171 7        43.197               
> 2025 01 07 14 21 34.0000000  0  6                                             
G25  20054128.103 7 104957191.749 7       995.811 7        45.537               
G28  21605669.805 7 113536455.208 7      1606.766 7        43.020               
G29  20928039.671 7 110610358.555 7     -1342.532 7        43.945               
G31  23183556.603 6 123128910.411 6     -2840.720 6        39.610               
G32  23496697.007 6 122269259.572 6      2714.361 6        39.113               
G12  22431494.957 7 117250172.847 7      2968.404 7        43.855               
> 2025 01 07 14 21 35.0000000  0  6                                             
G25  20054318.354 7 104956197.696 7       994.394 7        45.533               
G28  21605364.093 7 113534846.294 7      1607.259 7        42.546               
G29  20927784.868 7 110611701.971 7     -1345.161 7        43.971               
G31  23183023.303 6 123131752.389 6     -2844.132 6        40.093               
G32  23497206.900 6 122266546.986 6      2709.186 6        39.196               
G12  22432060.637 7 117247207.319 7      2966.121 7        44.119               
> 2025 01 07 14 21 36.0000000  0  6                                             
G25  20054505.291 7 104955203.635 7       995.295 7        45.574               
G28  21605061.597 7 113533237.457 7      1607.289 7        43.223               
G29  20927530.440 7 110613045.287 7     -1341.957 7        43.680               
G31  23182487.464 6 123134594.472 6     -2842.125 6        39.411               
G32  23497727.147 6 122263834.445 6      2715.353 6        39.183               
G12  22432634.786 7 117244241.977 7      2968.284 7        43.779               
> 2025 01 07 14 21 37.0000000  0  6                                             
G25  20054697.472 7 104954208.909 7       995.077 7        45.912               
G28  21604751.025 7 113531629.377 7      1607.759 7        43.632               
G29  20927279.603 7 110614387.842 7     -1344.105 7        43.660               
G31  23181942.593 6 123137436.037 6     -2844.751 6        40.437               
G32  23498247.029 6 122261121.272 6      2713.056 6        38.644               
G12  22433190.522 7 117241276.190 7      2965.010 7        43.242               
> 2025 01 07 14 21 38.0000000  0  6                                             
G25  20054889.815 7 104953213.458 7       996.420 7        45.695               
G28  21604451.165 7 113530022.099 7      1605.142 7        43.847               
G29  20927026.766 7 110615729.589 7     -1340.642 7        44.076               
G31  23181409.506 6 123140276.989 6     -2836.205 6        39.909               
G32  23498764.587 6 122258407.431 6      2706.297 6        38.886               
G12  22433763.367 7 117238309.886 7      2967.165 7        43.432               
> 2025 01 07 14 21 39.0000000  0  6                                             
G25  20055083.506 7 104952217.819 7       996.665 7        45.744               
G28  21604147.713 7 113528415.106 7      1606.639 7        43.639               
G29  20926775.152 7 110617071.043 7     -1343.497 7        43.699               
G31  23180874.347 6 123143117.860 6     -2840.890 6        40.445               
G32  23499286.961 6 122255693.452 6      2712.296 6        37.958               
G12  22434331.843 7 117235343.595 7      2966.436 7        43.761               
> 2025 01 07 14 21 40.0000000  0  6                                             
G25  20055274.338 7 104951221.848 7       995.952 7        46.007               
G28  21603838.999 7 113526808.481 7      1606.562 7        43.433               
G29  20926518.946 7 110618412.090 7     -1341.821 7        43.565               
G31  23180332.085 6 123145958.562 6     -2838.832 6        40.238               
G32  23499792.851 6 122252979.221 6      2714.252 6        38.567               
G12  22434892.475 7 117232377.212 7      2967.496 7        43.480               
> 2025 01 07 14 21 41.0000000  0  6                                             
G25  20055463.982 7 104950225.018 7       996.819 7        46.441               
G28  21603537.441 7 113525202.847 7      1607.456 7        43.444               
G29  20926265.277 7 110619752.151 7     -1339.693 7        44.079               
G31  23179789.653 6 123148798.482 6     -2839.382 6        40.124               
G32  23500312.161 6 122250264.141 6      2714.981 6        38.483               
G12  22435462.631 7 117229410.125 7      2968.500 7        43.507               
> 2025 01 07 14 21 42.0000000  0  6                                             
G25  20055659.505 7 104949227.511 7       997.674 7        45.522               
G28  21603239.618 7 113523597.942 7      1604.330 7        43.450               
G29  20926012.984 7 110621091.472 7     -1340.539 7        43.615               
G31  23179255.047 6 123151637.900 6     -2839.113 6        39.905               
G32  23500834.669 6 122247548.440 6      2716.877 6        37.771               
G12  22436027.551 7 117226442.623 7      2967.707 7        43.986               
> 2025 01 07 14 21 43.0000000  0  6                                             
G25  20055849.015 7 104948229.890 7       997.621 7        46.031               
G28  21602934.799 7 113521993.252 7      1602.341 7        43.373               
G29  20925757.984 7 110622430.571 7     -1340.498 7        43.637               
G31  23178715.948 6 123154477.284 6     -2843.066 6        40.306               
G32  23501352.602 6 122244832.706 6      2714.067 6        38.491               
G12  22436593.829 7 117223475.185 7      2967.152 7        43.744               
> 2025 01 07 14 21 44.0000000  0  6                                             
G25  20056038.980 7 104947231.636 7       999.679 7        46.176               
G28  21602624.004 7 113520389.269 7      1604.261 7        42.896               
G29  20925500.974 7 110623768.937 7     -1339.637 7        43.809               
G31  23178179.252 6 123157316.170 6     -2838.602 6        40.673               
G32  23501874.914 6 122242116.383 6      2720.599 6        37.920               
G12  22437163.628 7 117220507.338 7      2965.099 7        43.411               
> 2025 01 07 14 21 45.0000000  0  6                                             
G25  20056233.806 7 104946233.080 7       997.667 7        46.272               
G28  21602324.769 7 113518785.664 7      1603.414 7        43.181               
G29  20925254.560 7 110625106.919 7     -1338.652 7        43.521               
G31  23177639.285 6 123160154.889 6     -2841.632 6        40.952               
G32  23502398.807 6 122239399.838 6      2717.787 6        38.252               
G12  22437729.540 7 117217539.382 7      2968.393 7        43.615               
> 2025 01 07 14 21 46.0000000  0  6                                             
G25  20056424.308 7 104945234.484 7       997.598 7        45.844               
G28  21602016.868 7 113517182.183 7      1603.475 7        43.092               
G29  20924999.105 7 110626444.761 7     -1336.888 7        43.395               
G31  23177099.373 6 123162993.678 6     -2838.594 6        40.143               
G32  23502901.677 6 122236683.277 6      2712.700 6        37.069               
G12  22438294.388 7 117214571.619 7      2967.009 7        43.452               
> 2025 01 07 14 21 47.0000000  0  6                                             
G25  20056615.328 7 104944235.294 7       999.565 7        46.077               
G28  21601716.507 7 113515579.378 7      1602.767 7        42.844               
G29  20924749.832 7 110627781.918 7     -1336.376 7        43.737               
G31  23176566.170 6 123165831.996 6     -2838.579 6        40.337               
G32  23503418.101 6 122233966.162 6      2721.607 6        37.677               
G12  22438857.218 7 117211603.453 7      2968.454 7        43.701               
> 2025 01 07 14 21 48.0000000  0  6                                             
G25  20056807.456 7 104943235.684 7      1000.192 7        45.491               
G28  21601410.438 7 113513977.072 7      1602.951 7        42.448               
G29  20924494.117 7 110629118.557 7     -1338.304 7        43.480               
G31  23176030.761 6 123168670.009 6     -2833.938 6        40.598               
G32  23503952.411 6 122231248.723 6      2715.727 6        38.502               
G12  22439425.542 7 117208635.094 7      2968.480 7        43.503               
> 2025 01 07 14 21 49.0000000  0  6                                             
G25  20057001.772 7 104942235.825 7      1000.345 7        46.240               
G28  21601111.158 7 113512375.112 7      1604.912 7        42.886               
G29  20924240.252 7 110630454.854 7     -1334.955 7        43.718               
G31  23175487.944 6 123171507.906 6     -2838.582 6        40.685               
G32  23504472.775 6 122228531.063 6      2718.964 6        38.375               
G12  22439991.767 7 117205666.683 7      2972.187 7        43.409               
> 2025 01 07 14 21 50.0000000  0  6                                             
G25  20057194.883 7 104941235.315 7       998.217 7        45.686               
G28  21600804.472 7 113510773.874 7      1600.630 7        42.622               
G29  20923991.113 7 110631790.407 7     -1334.965 7        43.939               
G31  23174948.452 6 123174345.275 6     -2834.794 6        41.118               
G32  23504992.549 6 122225812.798 6      2723.841 6        37.754               
G12  22440562.861 7 117202697.829 7      2969.942 7        43.615               
> 2025 01 07 14 21 51.0000000  0  6                                             
G25  20057386.698 7 104940234.238 7      1002.999 7        46.391               
G28  21600499.135 7 113509173.281 7      1600.660 7        42.821               
G29  20923739.437 7 110633125.296 7     -1335.499 7        43.890               
G31  23174412.086 6 123177182.197 6     -2840.156 6        40.454               
G32  23505513.235 6 122223094.029 6      2716.451 6        37.944               
G12  22441118.766 7 117199728.623 7      2968.106 7        43.606               
> 2025 01 07 14 21 52.0000000  0  6                                             
G25  20057577.030 7 104939232.368 7      1000.674 7        46.008               
G28  21600205.789 7 113507573.577 7      1599.327 7        42.671               
G29  20923488.601 7 110634459.302 7     -1334.752 7        43.932               
G31  23173878.196 6 123180018.440 6     -2838.611 6        40.655               
G32  23506026.379 6 122220374.521 6      2718.098 6        37.582               
G12  22441689.297 7 117196758.824 7      2970.393 7        43.670               
> 2025 01 07 14 21 53.0000000  0  6                                             
G25  20057769.631 7 104938230.082 7      1002.665 7        45.821               
G28  21599896.726 7 113505974.368 7      1599.112 7        42.572               
G29  20923236.174 7 110635792.793 7     -1332.169 7        43.902               
G31  23173335.513 6 123182854.409 6     -2836.060 6        40.591               
G32  23506551.782 6 122217654.662 6      2715.958 6        38.101               
G12  22442257.005 7 117193788.839 7      2968.140 7        43.356               
> 2025 01 07 14 21 54.0000000  0  6                                             
G25  20057961.678 7 104937227.267 7      1003.575 7        45.821               
G28  21599594.427 7 113504375.762 7      1598.193 7        42.491               
G29  20922982.059 7 110637125.655 7     -1329.776 7        43.466               
G31  23172801.694 6 123185689.965 6     -2833.167 6        40.774               
G32  23507078.070 6 122214934.306 6      2717.884 6        38.149               
G12  22442828.474 7 117190818.509 7      2971.727 7        44.241               
> 2025 01 07 14 21 55.0000000  0  6                                             
G25  20058157.291 7 104936223.536 7      1003.740 7        46.280               
G28  21599293.280 7 113502778.174 7      1597.907 7        43.320               
G29  20922736.136 7 110638457.518 7     -1331.547 7        43.889               
G31  23172263.828 6 123188524.751 6     -2831.614 6        40.317               
G32  23507579.305 6 122212213.107 6      2720.836 6        38.217               
G12  22443399.130 7 117187847.492 7      2969.552 7        43.938               
> 2025 01 07 14 21 56.0000000  0  6                                             
G25  20058352.206 7 104935219.774 7      1002.840 7        46.230               
G28  21598996.377 7 113501180.686 7      1598.398 7        42.914               
G29  20922480.940 7 110639789.245 7     -1329.825 7        43.752               
G31  23171725.497 6 123191359.580 6     -2828.073 6        40.935               
G32  23508109.729 6 122209491.924 6      2715.039 6        38.477               
G12  22443962.585 7 117184876.639 7      2971.668 7        43.828               
> 2025 01 07 14 21 57.0000000  0  6                                             
G25  20058545.513 7 104934215.521 7      1005.030 7        46.158               
G28  21598689.968 7 113499583.768 7      1597.547 7        42.515               
G29  20922228.924 7 110641120.401 7     -1328.692 7        43.568               
G31  23171187.165 6 123194194.083 6     -2832.705 6        41.144               
G32  23508629.905 6 122206770.294 6      2720.464 6        37.959               
G12  22444525.326 7 117181905.515 7      2971.127 7        43.673               
> 2025 01 07 14 21 58.0000000  0  6                                             
G25  20058738.668 7 104933211.037 7      1005.260 7        46.248               
G28  21598388.018 7 113497987.167 7      1595.652 7        42.969               
G29  20921975.631 7 110642451.226 7     -1331.893 7        42.983               
G31  23170646.762 6 123197028.462 6     -2829.955 6        40.941               
G32  23509141.290 6 122204048.514 6      2720.315 6        38.465               
G12  22445096.223 7 117178934.373 7      2971.936 7        42.926               
> 2025 01 07 14 21 59.0000000  0  6                                             
G25  20058930.367 7 104932206.172 7      1005.279 7        46.167               
G28  21598087.809 7 113496391.031 7      1597.228 7        42.778               
G29  20921723.311 7 110643781.565 7     -1330.501 7        43.333               
G31  23170114.568 6 123199862.583 6     -2835.459 6        41.242               
G32  23509679.219 6 122201326.399 6      2725.062 6        38.613               
G12  22445663.154 7 117175963.049 7      2971.379 7        43.398               
